checksumStart,logTime,missionTime,roll,pitch,heading,airSpeed,elevator,aileron,alfa,betha,standAngle,pressure,pressureAlt,ax,ay,az,gx,gy,gz,lc1,lc2,lc3,lc4,temprature,voltage,GPSSats,GPSLat,GPSLong,GPSAlt,GPSSpeed,checksumEnd
201,4189,23452,0,28,330,1.22,9,0,-76,-5,28,88296,1146,4.93,0.00,8.97,-0.03,-0.06,-0.03,1591,1096,288,-37,26,95,0, 35.702480, 51.350719,0.00,0.09,254

201,4475,23741,0,28,330,1.22,9,0,-77,-5,28,88295,1146,4.89,-0.01,9.03,0.03,0.06,0.03,1592,1096,288,-37,26,96,0, 35.702480, 51.350719,0.00,0.09,254

201,4762,24027,0,28,330,1.22,9,0,-77,-5,28,88292,1146,4.91,-0.00,9.08,0.03,-0.24,0.03,1592,1097,288,-37,26,94,0, 35.702480, 51.350719,0.00,0.09,254

201,5049,24313,0,28,330,1.22,9,0,-77,-5,28,88291,1146,4.95,0.06,9.02,-0.03,0.06,0.15,1592,1097,288,-37,26,95,0, 35.702480, 51.350719,0.00,0.09,254

201,5337,24600,0,28,330,1.14,9,0,-77,-5,28,88297,1146,4.91,0.01,9.03,-0.09,-0.06,-0.03,1592,1097,288,-37,26,94,0, 35.702480, 51.350719,0.00,0.09,254

201,5529,24889,0,28,330,1.29,9,0,-77,-5,28,88295,1146,4.90,-0.01,9.01,-0.09,0.19,-0.03,1592,1097,288,-37,26,93,0, 35.702480, 51.350719,0.00,0.09,254

201,5720,25079,0,28,330,1.22,9,0,-77,-5,28,88296,1146,4.91,-0.02,8.91,-0.15,-0.18,-0.15,1592,1096,289,-37,26,96,0, 35.702480, 51.350719,0.00,0.09,254

201,5911,25271,0,28,330,1.22,9,0,-77,-5,28,88294,1146,4.91,0.05,9.04,-0.09,-0.18,0.03,1591,1096,288,-37,26,91,0, 35.702480, 51.350719,0.00,0.09,254

201,6103,25461,0,28,330,1.22,9,0,-77,-5,28,88294,1146,4.91,0.02,9.05,-0.03,-0.06,-0.15,1592,1097,288,-37,26,95,0, 35.702480, 51.350719,0.00,0.09,254

201,6294,25653,0,28,330,1.22,9,0,-77,-5,28,88297,1146,4.89,0.03,9.01,-0.15,-0.24,-0.03,1592,1096,288,-37,26,91,0, 35.702480, 51.350719,0.00,0.09,254

201,6485,25846,0,28,330,1.22,9,0,-77,-5,28,88295,1146,4.94,0.00,8.97,-0.15,-0.06,-0.03,1592,1096,288,-37,26,95,0, 35.702484, 51.350731,0.00,0.17,254

201,6772,26037,0,28,330,1.29,9,0,-77,-5,28,88292,1146,4.89,0.05,9.01,0.03,-0.24,-0.03,1592,1096,288,-37,26,93,0, 35.702484, 51.350731,0.00,0.17,254

201,7059,26323,0,28,330,1.22,9,0,-77,-5,28,88295,1146,4.89,0.05,9.01,-0.15,0.00,0.09,1592,1096,288,-37,26,94,0, 35.702484, 51.350731,0.00,0.17,254

201,7347,26609,0,28,330,1.14,9,0,-76,-5,28,88295,1146,4.91,0.00,8.92,-0.09,-0.18,-0.03,1592,1097,289,-37,26,89,0, 35.702484, 51.350731,0.00,0.17,254

201,7634,26899,0,28,330,1.22,9,0,-76,-5,28,88294,1146,4.88,0.00,9.00,-0.09,-0.18,-0.15,1592,1097,288,-37,26,90,0, 35.702484, 51.350731,0.00,0.17,254

201,7825,27185,0,28,330,1.22,9,0,-77,-5,28,88294,1146,4.92,0.06,9.03,-0.21,-0.24,0.03,1592,1097,289,-37,26,90,0, 35.702484, 51.350731,0.00,0.17,254

201,8112,27376,0,29,330,1.29,9,0,-77,-5,29,88292,1146,4.90,0.03,9.01,-0.09,-0.12,-0.09,1593,1097,288,-37,26,91,0, 35.702484, 51.350731,0.00,0.17,254

201,8399,27663,0,28,330,1.22,9,0,-77,-5,28,88295,1146,4.87,0.02,8.95,0.09,-0.06,-0.09,1592,1097,288,-37,26,92,0, 35.702484, 51.350731,0.00,0.17,254

201,8686,27952,0,28,330,1.22,9,0,-77,-5,28,88294,1146,4.90,0.06,8.97,-0.15,0.06,-0.03,1592,1097,288,-37,26,91,0, 35.702488, 51.350731,0.00,0.19,254

201,8974,28237,0,28,330,1.22,9,0,-77,-5,28,88294,1146,4.91,-0.00,8.97,0.09,-0.06,0.09,1593,1097,289,-37,26,90,0, 35.702488, 51.350731,0.00,0.19,254

201,9260,28524,0,29,330,1.22,9,0,-77,-5,29,88291,1146,4.92,0.05,8.91,-0.09,0.06,0.03,1592,1097,288,-37,26,92,0, 35.702488, 51.350731,0.00,0.19,254

201,9548,28812,0,28,330,1.14,9,0,-76,-5,28,88292,1146,4.95,0.07,9.06,-0.15,0.00,0.03,1592,1097,288,-37,26,91,0, 35.702488, 51.350731,0.00,0.19,254

201,9835,29099,0,28,330,1.22,9,0,-77,-5,28,88294,1146,4.91,-0.04,9.01,-0.09,-0.24,0.15,1592,1097,288,-37,26,92,0, 35.702488, 51.350731,0.00,0.19,254

201,10123,29386,0,28,330,1.22,9,0,-77,-5,28,88295,1146,4.93,-0.00,9.01,-0.09,0.06,-0.03,1591,1097,288,-37,26,88,0, 35.702488, 51.350731,0.00,0.19,254

201,10314,29673,0,28,330,1.22,9,0,-77,-5,28,88296,1146,4.97,0.00,8.98,0.09,-0.06,-0.03,1592,1097,288,-37,26,90,0, 35.702488, 51.350731,0.00,0.19,254

201,10505,29865,0,28,330,1.22,9,0,-77,-5,28,88290,1146,4.91,0.03,9.07,-0.03,0.00,-0.09,1592,1097,289,-37,26,90,0, 35.702477, 51.350746,0.00,0.39,254

201,10792,30056,0,28,330,1.22,9,0,-77,-5,28,88294,1146,4.90,0.03,9.01,0.09,-0.12,0.15,1592,1096,289,-37,26,92,0, 35.702477, 51.350746,0.00,0.39,254

201,11079,30343,0,28,330,1.22,9,0,-77,-5,28,88297,1146,4.92,0.00,9.03,-0.09,-0.12,0.03,1592,1097,288,-37,26,91,0, 35.702477, 51.350746,0.00,0.39,254

201,11367,30629,0,28,330,1.29,9,0,-77,-5,28,88293,1146,4.93,0.06,9.03,0.03,-0.06,-0.03,1592,1097,289,-37,26,94,0, 35.702477, 51.350746,0.00,0.39,254

201,11653,30918,0,29,330,1.22,9,0,-77,-5,29,88293,1146,4.91,-0.03,8.88,0.03,-0.06,0.03,1593,1097,289,-37,26,90,0, 35.702477, 51.350746,0.00,0.39,254

201,11941,31204,0,28,330,1.29,9,0,-77,-5,28,88294,1146,4.91,-0.01,9.03,-0.15,0.06,-0.15,1592,1097,288,-37,26,90,0, 35.702477, 51.350746,0.00,0.39,254

201,12324,31492,0,28,330,1.14,9,0,-77,-5,28,88293,1146,4.83,0.02,8.99,0.03,-0.06,-0.03,1591,1097,288,-37,26,94,0, 35.702477, 51.350746,0.00,0.39,254

201,12610,31875,0,28,330,1.22,9,0,-77,-5,28,88295,1146,4.90,0.00,8.99,0.15,-0.18,0.28,1592,1097,289,-37,26,91,0, 35.702477, 51.350746,0.00,0.39,254

201,12898,32161,0,28,330,1.14,9,0,-77,-5,28,88294,1145,4.97,0.01,8.93,-0.15,0.06,0.03,1592,1097,288,-37,26,92,0, 35.702477, 51.350746,0.00,0.39,254

201,13185,32448,0,28,330,1.22,9,0,-77,-5,28,88293,1146,4.92,-0.00,8.96,-0.09,-0.06,-0.09,1593,1097,288,-37,26,90,0, 35.702477, 51.350746,0.00,0.39,254

201,13472,32737,0,28,330,1.14,9,0,-77,-5,28,88295,1146,4.92,0.01,8.95,-0.15,0.06,-0.39,1592,1097,289,-37,26,93,0, 35.702477, 51.350746,0.00,0.39,254

201,13759,33022,0,28,330,1.22,9,0,-77,-5,28,88293,1146,4.94,0.03,9.03,-0.09,0.06,-0.15,1592,1097,289,-37,26,90,0, 35.702477, 51.350746,0.00,0.39,254

201,14047,33310,0,28,330,1.14,9,0,-77,-5,28,88292,1146,4.86,-0.01,8.89,-0.09,-0.06,0.15,1592,1097,288,-37,26,91,0, 35.702477, 51.350746,0.00,0.39,254

201,14237,33596,0,28,330,1.14,9,0,-77,-5,28,88296,1145,4.96,0.01,9.02,-0.03,0.06,0.09,1592,1097,289,-37,26,95,0, 35.702477, 51.350746,0.00,0.39,254

201,14429,33788,0,28,330,1.22,9,0,-77,-5,28,88293,1146,4.87,-0.01,9.09,-0.09,0.06,-0.03,1592,1098,288,-37,26,87,0, 35.702477, 51.350746,0.00,0.39,254

201,14716,33980,0,28,330,1.22,9,0,-77,-5,28,88294,1146,4.88,-0.00,8.92,-0.03,0.06,0.03,1592,1097,289,-37,26,93,0, 35.702477, 51.350746,0.00,0.39,254

201,14908,34267,0,28,330,1.14,9,0,-77,-5,28,88295,1146,4.90,-0.01,9.01,-0.09,-0.06,0.09,1592,1097,288,-37,26,91,0, 35.702477, 51.350746,0.00,0.39,254

201,15099,34457,0,28,330,1.29,9,0,-77,-5,28,88293,1146,4.83,0.02,8.99,0.21,0.00,0.03,1592,1097,289,-37,26,90,0, 35.702477, 51.350746,0.00,0.39,254

201,15291,34649,0,28,330,1.22,9,0,-77,-5,28,88295,1146,4.96,0.02,8.98,-0.34,-0.06,-0.15,1591,1097,288,-37,26,90,0, 35.702477, 51.350746,0.00,0.39,254

201,15482,34842,0,28,330,1.22,9,0,-77,-5,28,88294,1146,4.89,-0.03,9.08,-0.09,0.00,-0.09,1592,1097,289,-37,26,90,0, 35.702477, 51.350746,0.00,0.39,254

201,15673,35033,0,28,330,1.22,9,0,-77,-5,28,88294,1146,4.93,0.02,8.92,0.03,0.00,-0.21,1593,1097,288,-37,26,93,0, 35.702477, 51.350746,0.00,0.39,254

201,15865,35223,0,28,330,1.22,9,0,-77,-5,28,88295,1146,4.92,-0.00,8.98,0.09,-0.18,-0.21,1593,1097,288,-37,26,96,0, 35.702477, 51.350746,0.00,0.39,254

201,16151,35415,0,28,330,1.22,9,0,-77,-5,28,88295,1146,4.93,0.05,9.01,-0.03,-0.06,-0.03,1592,1097,289,-37,26,90,0, 35.702477, 51.350746,0.00,0.39,254

201,16438,35703,0,28,330,1.22,9,0,-77,-5,28,88293,1146,4.91,0.05,9.02,-0.09,0.00,0.03,1592,1098,289,-37,26,91,0, 35.702477, 51.350746,0.00,0.39,254

201,16726,35989,0,28,330,1.22,9,0,-77,-5,28,88296,1146,4.94,-0.02,9.04,-0.03,-0.12,-0.03,1592,1097,289,-37,26,90,0, 35.702454, 51.350754,0.00,0.10,254

201,17013,36277,0,28,330,1.22,9,0,-77,-5,28,88293,1146,4.91,0.02,8.91,-0.15,-0.18,-0.03,1592,1097,289,-37,26,95,0, 35.702454, 51.350754,0.00,0.10,254

201,17300,36562,0,28,330,1.22,9,0,-77,-5,28,88293,1146,4.90,0.00,8.98,-0.03,0.06,-0.03,1592,1097,289,-37,26,89,0, 35.702454, 51.350754,0.00,0.10,254

201,17491,36851,0,28,330,1.14,9,0,-77,-5,28,88293,1146,4.96,-0.01,8.98,-0.09,0.00,0.09,1592,1098,289,-37,26,93,0, 35.702454, 51.350754,0.00,0.10,254

201,17682,37042,0,28,330,1.22,9,0,-77,-5,28,88294,1146,4.95,0.00,8.98,-0.03,-0.18,0.15,1592,1097,289,-37,26,92,0, 35.702454, 51.350754,0.00,0.10,254

201,17875,37233,0,28,330,1.22,9,0,-77,-5,28,88296,1146,4.91,0.06,8.99,-0.21,-0.12,-0.03,1593,1097,289,-37,26,90,0, 35.702454, 51.350754,0.00,0.10,254

201,18066,37425,0,28,330,1.22,9,0,-77,-5,28,88295,1146,4.92,0.02,8.98,0.03,-0.12,-0.03,1593,1097,289,-37,26,92,0, 35.702454, 51.350754,0.00,0.10,254

201,18257,37615,0,28,330,1.22,9,0,-77,-5,28,88292,1146,4.94,0.00,8.92,-0.03,0.06,-0.09,1592,1097,288,-37,26,92,0, 35.702454, 51.350754,0.00,0.10,254

201,18449,37809,0,28,330,1.14,9,0,-77,-5,28,88290,1146,4.92,-0.01,8.99,-0.03,-0.12,-0.03,1592,1097,289,-37,26,89,0, 35.702454, 51.350754,0.00,0.10,254

201,18736,37999,0,28,330,1.22,9,0,-77,-5,28,88292,1146,4.89,0.01,8.90,-0.15,-0.12,-0.03,1592,1098,289,-37,26,90,0, 35.702454, 51.350754,0.00,0.10,254

201,19022,38286,0,28,330,1.22,9,0,-77,-5,28,88294,1146,4.94,0.06,9.08,0.09,0.00,0.03,1592,1098,288,-37,26,90,0, 35.702454, 51.350754,0.00,0.10,254

201,19310,38572,0,28,330,1.22,9,0,-77,-5,28,88296,1146,4.94,0.04,8.88,-0.03,0.00,-0.15,1593,1098,289,-37,26,90,0, 35.702454, 51.350754,0.00,0.10,254

201,19502,38861,0,28,330,1.14,9,0,-77,-5,28,88294,1146,4.89,-0.00,8.98,-0.09,-0.12,0.03,1592,1098,289,-37,26,91,0, 35.702454, 51.350754,0.00,0.10,254

201,19693,39052,0,28,330,1.22,9,0,-77,-5,28,88295,1146,4.93,0.02,9.02,-0.03,0.00,-0.09,1593,1098,289,-37,26,90,0, 35.702454, 51.350754,0.00,0.10,254

201,19980,39243,0,28,330,1.14,9,0,-76,-5,28,88294,1146,4.90,0.09,8.96,-0.03,0.06,0.09,1591,1098,289,-37,26,90,0, 35.702454, 51.350754,0.00,0.10,254

201,20267,39530,0,28,330,1.14,9,0,-77,-5,28,88292,1146,4.97,0.01,9.06,-0.09,-0.06,0.03,1592,1097,289,-37,26,90,0, 35.702454, 51.350754,0.00,0.10,254

201,20554,39818,0,28,330,1.22,9,0,-77,-5,28,88293,1146,4.92,0.03,8.99,-0.09,0.06,-0.09,1592,1098,289,-37,26,91,0, 35.702454, 51.350754,0.00,0.10,254

201,20842,40104,0,28,330,1.22,9,0,-77,-5,28,88290,1146,4.87,-0.01,9.00,-0.21,-0.06,-0.15,1593,1097,289,-37,26,90,0, 35.702454, 51.350754,0.00,0.10,254

201,21128,40392,0,28,330,1.22,9,0,-77,-5,28,88291,1146,4.92,0.04,8.98,-0.03,0.00,0.03,1592,1098,289,-37,26,89,0, 35.702454, 51.350754,0.00,0.10,254

201,21415,40678,0,28,330,1.29,9,0,-77,-5,28,88292,1146,4.94,0.01,8.94,-0.03,0.00,-0.03,1591,1097,289,-37,26,91,0, 35.702454, 51.350754,0.00,0.10,254

201,21702,40967,0,28,330,1.22,9,0,-77,-5,28,88295,1146,4.90,0.00,9.08,-0.15,0.00,-0.15,1593,1098,289,-37,26,90,0, 35.702465, 51.350742,0.00,1.91,254

201,21894,41253,0,28,330,1.22,9,0,-77,-5,28,88292,1146,4.93,0.02,9.07,-0.34,-0.12,0.03,1593,1098,289,-37,26,88,0, 35.702465, 51.350742,0.00,1.91,254

201,22085,41444,0,28,330,1.14,9,0,-76,-5,28,88295,1146,4.87,0.04,8.98,0.03,-0.30,0.03,1593,1098,289,-37,26,88,0, 35.702465, 51.350742,0.00,1.91,254

201,22277,41634,0,28,330,1.14,9,0,-77,-5,28,88293,1146,4.94,0.04,8.92,-0.03,-0.06,-0.03,1592,1098,289,-37,26,90,0, 35.702465, 51.350742,0.00,1.91,254

201,22565,41828,0,28,330,1.29,9,0,-76,-5,28,88292,1146,4.91,0.03,8.95,-0.03,0.12,-0.03,1591,1098,289,-37,26,92,0, 35.702465, 51.350742,0.00,1.91,254

201,22851,42115,0,28,330,1.22,9,0,-77,-5,28,88295,1146,4.86,0.02,9.06,-0.09,0.12,-0.03,1592,1098,289,-37,26,90,0, 35.702465, 51.350742,0.00,1.91,254

201,23139,42401,0,28,330,1.22,9,0,-77,-5,28,88294,1146,4.87,-0.01,8.98,-0.03,-0.12,-0.03,1592,1098,289,-37,26,90,0, 35.702465, 51.350742,0.00,1.91,254

201,23426,42689,0,29,330,1.22,9,0,-77,-5,29,88293,1146,4.95,0.02,8.92,0.09,-0.24,0.09,1593,1098,289,-37,26,93,0, 35.702465, 51.350742,0.00,1.91,254

201,23713,42976,0,28,330,1.22,9,0,-77,-5,28,88292,1146,4.88,-0.01,9.12,-0.15,-0.30,-0.21,1592,1098,289,-37,26,93,0, 35.702461, 51.350739,0.00,0.04,254

201,24096,43264,0,28,330,1.14,9,0,-77,-5,28,88291,1146,4.91,0.08,8.94,-0.15,-0.06,-0.03,1592,1098,289,-37,26,89,0, 35.702461, 51.350739,0.00,0.04,254

201,24383,43645,0,28,330,1.22,9,0,-77,-5,28,88295,1146,4.94,0.02,8.98,-0.03,0.00,0.09,1593,1097,289,-37,26,91,0, 35.702461, 51.350739,0.00,0.04,254

201,24670,43933,0,28,330,1.22,9,0,-77,-5,28,88290,1146,4.94,0.09,8.98,-0.09,-0.12,-0.15,1593,1098,289,-37,26,90,0, 35.702461, 51.350739,0.00,0.04,254

201,24957,44220,0,28,330,1.22,9,0,-77,-5,28,88294,1146,4.90,-0.04,8.98,-0.15,-0.06,0.09,1592,1097,289,-37,26,92,0, 35.702461, 51.350739,0.00,0.04,254

201,25340,44507,0,28,330,1.22,9,0,-77,-5,28,88294,1146,4.88,0.05,9.02,-0.09,0.00,-0.03,1592,1098,289,-37,26,90,0, 35.702461, 51.350739,0.00,0.04,254

201,25627,44891,0,28,330,1.22,9,0,-77,-5,28,88292,1146,4.89,0.06,9.00,-0.09,0.12,-0.15,1592,1097,289,-37,26,91,0, 35.702461, 51.350739,0.00,0.04,254

201,25914,45177,0,28,330,1.29,9,0,-77,-5,28,88292,1146,4.93,0.03,8.99,-0.09,0.00,0.09,1592,1098,289,-37,26,90,0, 35.702461, 51.350739,0.00,0.04,254

201,26201,45464,0,28,330,1.14,9,0,-77,-5,28,88292,1146,4.96,0.02,8.91,-0.15,0.06,-0.09,1592,1098,289,-37,26,89,0, 35.702461, 51.350739,0.00,0.04,254

201,26488,45752,0,28,330,1.22,9,0,-77,-5,28,88291,1146,4.93,0.07,8.94,-0.09,-0.12,-0.03,1593,1098,289,-37,26,90,0, 35.702461, 51.350739,0.00,0.04,254

201,26776,46040,0,28,330,1.22,9,0,-77,-5,28,88291,1146,4.91,0.05,8.93,-0.03,0.00,-0.03,1592,1098,289,-37,26,88,0, 35.702461, 51.350739,0.00,0.04,254

201,27063,46325,0,28,330,1.29,9,0,-77,-5,28,88294,1146,4.90,0.02,8.98,-0.21,-0.06,-0.03,1593,1098,289,-37,26,89,0, 35.702461, 51.350739,0.00,0.04,254

201,27254,46612,0,28,330,1.22,9,0,-77,-5,28,88297,1146,4.91,0.03,8.98,0.15,-0.06,-0.15,1593,1098,289,-37,26,90,0, 35.702461, 51.350739,0.00,0.04,254

201,27446,46804,0,28,330,1.22,9,0,-77,-5,28,88294,1146,4.89,0.04,8.96,0.03,-0.24,-0.03,1592,1098,289,-37,26,90,0, 35.702461, 51.350739,0.00,0.04,254

201,27637,46995,0,28,330,1.14,9,0,-77,-5,28,88295,1146,4.90,-0.03,8.96,-0.09,-0.06,0.09,1592,1098,289,-37,26,93,0, 35.702461, 51.350739,0.00,0.04,254

201,27924,47186,0,28,330,1.22,9,0,-77,-5,28,88293,1146,4.90,-0.00,9.03,0.15,0.00,-0.15,1593,1098,289,-37,26,91,0, 35.702461, 51.350739,0.00,0.04,254

201,28211,47474,0,28,330,1.22,9,0,-77,-5,28,88291,1146,4.95,0.00,8.98,-0.09,-0.06,0.15,1592,1098,289,-37,26,91,0, 35.702461, 51.350739,0.00,0.04,254

201,28498,47762,0,28,330,1.22,9,0,-77,-5,28,88294,1146,4.92,0.00,8.99,0.09,0.06,-0.09,1593,1098,289,-37,26,90,0, 35.702461, 51.350739,0.00,0.04,254

201,28690,48048,0,28,330,1.29,9,0,-77,-5,28,88293,1146,4.92,0.04,8.95,-0.09,-0.06,-0.03,1592,1098,289,-37,26,91,0, 35.702461, 51.350739,0.00,0.04,254

201,28881,48240,0,28,330,1.22,9,0,-77,-5,28,88294,1146,4.85,0.04,8.98,0.09,-0.06,0.03,1592,1098,289,-37,26,89,0, 35.702461, 51.350739,0.00,0.04,254

201,29168,48431,0,28,330,1.29,9,0,-77,-5,28,88293,1146,4.91,0.00,9.05,0.03,0.19,-0.15,1592,1098,289,-37,26,92,0, 35.702461, 51.350739,0.00,0.04,254

201,29360,48718,0,28,330,1.22,9,0,-77,-5,28,88294,1146,4.92,0.02,9.09,0.03,-0.12,-0.03,1593,1098,289,-37,26,92,0, 35.702461, 51.350739,0.00,0.04,254

201,29551,48910,0,28,330,1.14,9,0,-77,-5,28,88296,1146,4.90,0.04,8.98,0.15,0.06,-0.09,1592,1098,289,-37,26,94,0, 35.702427, 51.350735,0.00,0.86,254

201,29742,49100,0,28,330,1.22,9,0,-77,-5,28,88293,1146,4.90,0.04,8.98,-0.15,0.12,0.09,1592,1098,289,-37,26,94,0, 35.702427, 51.350735,0.00,0.86,254

201,29934,49292,0,28,330,1.22,9,0,-77,-5,28,88293,1146,4.92,0.01,8.97,-0.09,0.06,-0.15,1592,1098,289,-37,26,90,0, 35.702427, 51.350735,0.00,0.86,254

201,30126,49483,0,28,330,1.22,9,0,-77,-5,28,88293,1146,4.91,0.07,8.99,-0.09,0.06,-0.03,1592,1098,289,-37,26,92,0, 35.702427, 51.350735,0.00,0.86,254

201,30316,49675,0,28,330,1.22,9,0,-76,-5,28,88295,1146,4.94,-0.00,8.91,-0.09,0.00,0.03,1592,1098,289,-37,26,92,0, 35.702427, 51.350735,0.00,0.86,254

201,30603,49867,0,28,330,1.22,9,0,-77,-5,28,88293,1146,4.91,0.02,8.98,0.09,-0.06,-0.15,1593,1098,289,-37,26,93,0, 35.702423, 51.350739,0.00,0.41,254

201,30891,50154,0,28,330,1.14,9,0,-77,-5,28,88292,1146,4.91,0.01,8.91,0.21,-0.06,0.09,1592,1098,289,-37,26,93,0, 35.702423, 51.350739,0.00,0.41,254

201,31082,50441,0,28,330,1.22,9,0,-77,-5,28,88292,1146,4.92,0.01,8.97,-0.15,-0.06,0.03,1592,1098,289,-37,26,93,0, 35.702423, 51.350739,0.00,0.41,254

201,31274,50631,0,28,330,1.22,9,0,-77,-5,28,88292,1146,4.92,0.05,9.04,-0.03,0.00,-0.09,1592,1098,289,-37,26,92,0, 35.702423, 51.350739,0.00,0.41,254

201,31465,50824,0,28,330,1.14,9,0,-77,-5,28,88293,1146,4.91,0.04,8.95,-0.09,0.12,-0.15,1592,1098,289,-37,26,90,0, 35.702423, 51.350739,0.00,0.41,254

201,31656,51015,0,28,330,1.22,9,0,-77,-5,28,88295,1146,4.92,0.04,8.97,-0.21,0.00,-0.09,1592,1098,289,-37,26,92,0, 35.702423, 51.350739,0.00,0.41,254

201,31944,51207,0,28,330,1.22,9,0,-77,-5,28,88292,1146,4.92,0.00,8.92,-0.15,0.06,0.03,1593,1098,289,-37,26,91,0, 35.702423, 51.350739,0.00,0.41,254

201,32231,51493,0,28,330,1.14,9,0,-77,-5,28,88292,1146,4.89,-0.03,8.97,-0.09,0.06,-0.21,1593,1098,289,-37,26,93,0, 35.702423, 51.350739,0.00,0.41,254

201,32518,51781,0,28,330,1.14,9,0,-76,-5,28,88292,1146,4.92,0.01,8.96,-0.15,-0.06,-0.03,1592,1098,289,-37,26,93,0, 35.702423, 51.350739,0.00,0.41,254

201,32805,52068,0,29,330,1.14,9,0,-76,-5,29,88293,1146,4.89,0.03,8.96,-0.09,-0.06,0.03,1593,1098,289,-37,26,95,0, 35.702423, 51.350739,0.00,0.41,254

201,33189,52355,0,28,330,1.14,9,0,-77,-5,28,88293,1146,4.86,-0.02,8.92,-0.15,0.06,-0.03,1593,1098,289,-37,26,93,0, 35.702423, 51.350739,0.00,0.41,254

201,33379,52739,0,28,330,1.22,9,0,-77,-5,28,88291,1146,4.91,0.03,8.92,0.03,0.00,-0.21,1593,1098,289,-37,26,91,0, 35.702423, 51.350739,0.00,0.41,254

201,33571,52929,0,28,330,1.22,9,0,-77,-5,28,88294,1146,4.89,0.03,8.93,-0.03,-0.18,-0.15,1592,1098,289,-37,26,91,0, 35.702423, 51.350739,0.00,0.41,254

201,33762,53121,0,28,330,1.14,9,0,-77,-5,28,88293,1146,4.94,0.01,9.01,-0.09,-0.12,0.03,1592,1098,289,-37,26,93,0, 35.702423, 51.350739,0.00,0.41,254

201,33953,53312,0,28,330,1.22,9,0,-77,-5,28,88295,1146,4.93,0.05,8.98,0.09,0.00,-0.03,1592,1098,289,-37,26,93,0, 35.702423, 51.350739,0.00,0.41,254

201,34145,53502,0,28,330,1.22,9,0,-77,-5,28,88294,1146,4.98,0.01,8.97,-0.03,-0.18,0.03,1593,1098,289,-37,26,90,0, 35.702423, 51.350739,0.00,0.41,254

201,34432,53695,0,28,330,1.22,9,0,-77,-5,28,88292,1146,4.88,-0.01,8.98,-0.03,0.00,0.15,1592,1098,289,-37,26,90,0, 35.702423, 51.350739,0.00,0.41,254

201,34719,53982,0,28,330,1.14,9,0,-76,-5,28,88293,1146,4.85,0.01,8.93,-0.09,-0.06,0.03,1592,1099,289,-37,26,92,0, 35.702408, 51.350758,0.00,0.09,254

201,35007,54269,0,28,330,1.22,9,0,-77,-5,28,88294,1146,4.88,0.02,8.97,0.15,0.06,-0.15,1593,1098,289,-37,26,91,0, 35.702408, 51.350758,0.00,0.09,254

201,35294,54555,0,28,330,1.22,9,0,-77,-5,28,88294,1146,4.92,0.02,8.97,0.03,-0.06,-0.21,1592,1099,289,-37,26,91,0, 35.702408, 51.350758,0.00,0.09,254

201,35581,54844,0,29,330,1.22,9,0,-77,-5,29,88294,1146,4.86,0.05,8.97,-0.15,-0.12,0.15,1593,1098,289,-37,26,90,0, 35.702408, 51.350758,0.00,0.09,254

201,35868,55131,0,29,330,1.14,9,0,-77,-5,29,88295,1146,4.89,0.03,9.04,0.03,0.00,-0.03,1593,1099,289,-37,26,92,0, 35.702408, 51.350758,0.00,0.09,254

201,36155,55417,0,28,330,1.22,9,0,-77,-5,28,88292,1146,4.89,0.00,8.98,-0.03,0.06,-0.09,1592,1099,289,-37,26,96,0, 35.702408, 51.350758,0.00,0.09,254

201,36443,55705,0,28,330,1.29,9,0,-77,-5,28,88294,1146,4.91,0.00,8.97,-0.21,-0.06,0.15,1592,1098,289,-37,26,93,0, 35.702408, 51.350758,0.00,0.09,254

201,36729,55992,0,28,330,1.22,9,0,-77,-5,28,88297,1146,4.93,0.03,9.01,-0.03,0.06,-0.09,1592,1098,289,-37,26,92,0, 35.702400, 51.350765,0.00,0.03,254

201,37016,56279,0,28,330,1.22,9,0,-77,-5,28,88294,1145,4.89,0.02,9.01,-0.27,0.06,0.15,1593,1099,289,-37,26,94,0, 35.702400, 51.350765,0.00,0.03,254

201,37306,56564,0,28,330,1.22,9,0,-77,-5,28,88295,1146,4.90,0.09,8.93,0.09,0.00,-0.15,1593,1099,289,-37,26,94,0, 35.702400, 51.350765,0.00,0.03,254

201,37591,56853,0,28,330,1.22,9,0,-77,-5,28,88293,1146,4.89,-0.01,9.03,0.03,-0.18,0.03,1593,1099,289,-37,26,90,0, 35.702400, 51.350765,0.00,0.03,254

201,37877,57140,0,28,330,1.22,9,0,-76,-5,28,88295,1146,4.90,0.03,8.98,-0.03,0.06,0.03,1592,1098,289,-37,26,94,0, 35.702400, 51.350765,0.00,0.03,254

201,38069,57426,0,28,330,1.29,9,0,-77,-5,28,88297,1146,4.91,0.06,9.06,-0.15,0.00,0.09,1592,1099,289,-37,26,94,0, 35.702400, 51.350765,0.00,0.03,254

201,38261,57617,0,28,330,1.22,9,0,-77,-5,28,88295,1146,4.93,0.03,8.97,-0.15,-0.06,-0.09,1592,1099,289,-37,26,89,0, 35.702400, 51.350765,0.00,0.03,254

201,38547,57810,0,28,330,1.14,9,0,-76,-5,28,88292,1146,4.92,0.01,8.88,-0.15,0.12,0.09,1592,1099,289,-37,26,92,0, 35.702400, 51.350765,0.00,0.03,254

201,38835,58097,0,28,330,1.22,9,0,-77,-5,28,88294,1146,4.91,0.02,8.99,-0.03,0.12,-0.03,1593,1098,289,-37,26,93,0, 35.702400, 51.350765,0.00,0.03,254

201,39122,58384,0,28,330,1.14,9,0,-76,-5,28,88291,1146,4.91,0.02,9.03,-0.03,-0.06,0.09,1592,1099,289,-37,26,93,0, 35.702400, 51.350765,0.00,0.03,254

201,39409,58671,0,28,330,1.22,9,0,-77,-5,28,88294,1146,4.89,0.02,9.05,-0.03,-0.18,-0.15,1593,1099,289,-37,26,93,0, 35.702400, 51.350765,0.00,0.03,254

201,39792,58959,0,28,330,1.22,9,0,-77,-5,28,88293,1146,4.91,0.04,8.91,0.03,-0.18,-0.15,1592,1099,289,-37,26,93,0, 35.702400, 51.350769,0.00,0.10,254

201,40175,59341,0,28,330,1.22,9,0,-77,-5,28,88292,1146,4.96,-0.01,8.97,-0.15,-0.12,0.03,1592,1099,289,-37,26,89,0, 35.702400, 51.350769,0.00,0.10,254

201,40366,59725,0,28,330,1.29,9,0,-77,-5,28,88294,1146,4.91,0.02,9.01,0.15,-0.30,0.22,1592,1099,289,-37,26,96,0, 35.702400, 51.350769,0.00,0.10,254

201,40558,59916,0,28,330,1.29,9,0,-77,-5,28,88294,1146,4.91,0.02,8.93,-0.15,-0.18,-0.21,1593,1099,289,-37,26,95,0, 35.702400, 51.350769,0.00,0.10,254

201,40750,60107,0,28,330,1.14,9,0,-76,-5,28,88296,1146,4.88,0.06,9.03,-0.03,0.00,-0.15,1593,1099,289,-37,26,95,0, 35.702400, 51.350769,0.00,0.10,254

201,41037,60298,0,28,330,1.22,9,0,-77,-5,28,88293,1146,4.93,-0.01,8.93,-0.09,-0.06,-0.15,1592,1099,289,-37,26,93,0, 35.702400, 51.350769,0.00,0.10,254

201,41228,60584,0,28,330,1.22,9,0,-77,-5,28,88294,1146,4.92,0.05,9.05,-0.15,-0.12,0.03,1593,1099,289,-37,26,95,0, 35.702400, 51.350769,0.00,0.10,254

201,41419,60777,0,28,330,1.14,9,0,-76,-5,28,88295,1146,4.92,-0.01,9.00,0.03,-0.06,0.03,1592,1098,289,-37,26,93,0, 35.702400, 51.350769,0.00,0.10,254

201,41610,60968,0,28,330,1.22,9,0,-77,-5,28,88296,1146,4.96,0.05,9.09,0.03,0.00,-0.03,1593,1098,289,-37,26,94,0, 35.702400, 51.350769,0.00,0.10,254

201,41802,61159,0,29,330,1.22,9,0,-76,-5,29,88295,1146,4.90,-0.01,8.97,-0.03,-0.06,-0.03,1593,1098,289,-37,26,94,0, 35.702400, 51.350769,0.00,0.10,254

201,41993,61351,0,28,330,1.22,9,0,-77,-5,28,88294,1145,4.88,0.01,8.91,0.09,0.00,-0.03,1593,1098,289,-37,26,95,0, 35.702400, 51.350769,0.00,0.10,254

201,42184,61541,0,28,330,1.22,9,0,-77,-5,28,88294,1146,4.91,0.01,8.95,0.09,-0.18,-0.09,1593,1099,289,-37,26,92,0, 35.702400, 51.350769,0.00,0.10,254

201,42472,61734,0,28,330,1.22,9,0,-77,-5,28,88296,1146,4.91,-0.06,8.95,-0.09,-0.06,-0.09,1592,1099,289,-37,26,92,0, 35.702400, 51.350769,0.00,0.10,254

201,42663,62022,0,28,330,1.14,9,0,-77,-5,28,88294,1146,4.88,-0.00,8.93,0.09,0.12,-0.09,1593,1099,289,-37,26,80,0, 35.702400, 51.350769,0.00,0.10,254

201,42855,62213,0,28,330,1.14,9,0,-77,-5,28,88294,1145,4.87,-0.04,8.90,-0.21,0.00,0.03,1592,1098,289,-37,26,82,0, 35.702400, 51.350769,0.00,0.10,254

201,43046,62403,0,28,330,1.22,9,0,-77,-5,28,88293,1146,4.87,-0.02,8.98,-0.15,-0.06,0.03,1592,1099,289,-37,26,83,0, 35.702400, 51.350769,0.00,0.10,254

201,43238,62595,0,28,330,1.22,9,0,-77,-5,28,88294,1146,4.92,0.01,8.99,-0.21,-0.06,-0.03,1593,1099,289,-37,26,84,0, 35.702400, 51.350769,0.00,0.10,254

201,43429,62787,0,28,330,1.22,9,0,-77,-5,28,88294,1146,4.91,0.03,8.95,-0.03,-0.12,0.03,1593,1099,289,-37,26,84,0, 35.702400, 51.350769,0.00,0.10,254

201,43716,62978,0,28,330,1.22,9,0,-77,-5,28,88291,1146,4.86,-0.02,8.92,-0.27,0.00,0.03,1593,1099,289,-37,26,82,0, 35.702400, 51.350769,0.00,0.10,254

201,44003,63265,0,28,330,1.29,9,0,-77,-5,28,88297,1146,4.92,0.02,9.01,-0.09,0.06,-0.03,1593,1099,289,-37,26,84,0, 35.702400, 51.350769,0.00,0.10,254

201,44290,63551,0,28,330,1.14,9,0,-77,-5,28,88294,1146,4.93,0.01,9.09,0.03,0.00,-0.09,1594,1099,289,-37,26,94,0, 35.702400, 51.350769,0.00,0.10,254

201,44578,63840,0,28,330,1.22,9,0,-77,-5,28,88291,1146,4.92,-0.02,8.94,-0.03,0.00,-0.03,1593,1099,289,-37,26,92,0, 35.702400, 51.350769,0.00,0.10,254

201,44864,64126,0,28,330,1.22,9,0,-77,-5,28,88294,1146,4.95,0.01,8.94,0.15,-0.18,-0.09,1593,1099,289,-37,26,95,0, 35.702400, 51.350769,0.00,0.10,254

201,45152,64413,0,28,330,1.29,9,0,-77,-5,28,88295,1146,4.92,0.02,8.96,-0.15,0.06,-0.09,1593,1099,289,-37,26,94,0, 35.702400, 51.350769,0.00,0.10,254

201,45343,64701,0,28,330,1.22,9,0,-77,-5,28,88292,1146,4.94,0.05,9.03,-0.09,-0.12,-0.15,1592,1099,289,-37,26,96,0, 35.702400, 51.350769,0.00,0.10,254

201,45534,64892,0,28,330,1.14,9,0,-77,-5,28,88293,1146,4.92,0.00,9.02,-0.03,0.06,-0.03,1592,1099,289,-37,26,94,0, 35.702415, 51.350758,0.00,1.03,254

201,45725,65083,0,28,330,1.29,9,0,-77,-5,28,88293,1145,4.91,0.02,8.99,-0.09,0.06,0.34,1592,1099,289,-37,26,94,0, 35.702415, 51.350758,0.00,1.03,254

201,45918,65274,0,28,330,1.07,9,0,-77,-5,28,88294,1146,4.96,-0.00,9.00,-0.03,-0.12,-0.09,1593,1099,289,-37,26,95,0, 35.702415, 51.350758,0.00,1.03,254

201,46109,65466,0,28,330,1.22,9,0,-77,-5,28,88293,1146,4.94,0.05,9.04,-0.09,0.06,-0.03,1593,1099,289,-37,26,95,0, 35.702415, 51.350758,0.00,1.03,254

201,46396,65656,0,28,330,1.22,9,0,-77,-5,28,88294,1146,4.97,0.01,9.04,0.03,-0.18,0.15,1593,1099,289,-37,26,93,0, 35.702415, 51.350758,0.00,1.03,254

201,46683,65945,0,29,330,1.22,9,0,-77,-5,29,88293,1146,4.89,-0.00,8.93,-0.09,-0.18,0.03,1593,1099,289,-37,26,84,0, 35.702415, 51.350758,0.00,1.03,254

201,46969,66232,0,28,330,1.22,9,0,-77,-5,28,88294,1146,4.89,0.03,8.97,-0.15,0.06,0.03,1592,1099,289,-37,26,84,0, 35.702412, 51.350758,0.00,0.45,254

201,47257,66519,0,28,330,1.22,9,0,-77,-5,28,88296,1145,4.91,0.02,9.01,-0.21,0.00,-0.03,1593,1099,289,-37,26,83,0, 35.702412, 51.350758,0.00,0.45,254

201,47449,66806,0,28,330,1.22,9,0,-77,-5,28,88296,1146,4.86,0.09,9.05,-0.09,-0.18,-0.15,1592,1099,289,-37,26,82,0, 35.702412, 51.350758,0.00,0.45,254

201,47736,66998,0,28,330,1.14,9,0,-76,-5,28,88297,1146,4.91,0.03,8.97,-0.03,-0.12,-0.03,1592,1099,289,-37,26,81,0, 35.702412, 51.350758,0.00,0.45,254

201,48022,67284,0,28,330,1.22,9,0,-77,-5,28,88296,1146,4.88,0.01,9.08,-0.03,-0.24,0.03,1593,1099,289,-37,26,82,0, 35.702412, 51.350758,0.00,0.45,254

201,48310,67570,0,28,330,1.14,9,0,-77,-5,28,88293,1146,4.93,0.07,8.99,0.03,-0.12,-0.03,1593,1099,289,-37,26,83,0, 35.702412, 51.350758,0.00,0.45,254

201,48597,67859,0,28,330,1.22,9,0,-77,-5,28,88296,1145,4.89,-0.01,8.94,-0.03,0.06,0.09,1593,1099,289,-37,26,81,0, 35.702412, 51.350758,0.00,0.45,254

201,48884,68146,0,28,330,1.14,9,0,-76,-5,28,88295,1146,4.93,0.05,9.04,-0.09,0.06,-0.09,1593,1099,289,-37,26,85,0, 35.702412, 51.350758,0.00,0.45,254

201,49171,68432,0,28,330,1.22,9,0,-77,-5,28,88295,1146,4.97,0.05,8.99,-0.09,-0.06,-0.03,1593,1099,289,-37,26,84,0, 35.702412, 51.350758,0.00,0.45,254

201,49459,68721,0,28,330,1.14,9,0,-76,-5,28,88293,1146,4.99,0.01,8.94,0.03,-0.12,0.09,1593,1099,289,-37,26,83,0, 35.702412, 51.350758,0.00,0.45,254

201,49650,69007,0,28,330,1.22,9,0,-77,-5,28,88293,1146,4.87,0.05,8.91,-0.09,0.00,-0.15,1592,1099,289,-37,26,84,0, 35.702412, 51.350758,0.00,0.45,254

201,49841,69198,0,28,330,1.22,9,0,-77,-5,28,88296,1146,4.96,0.03,9.01,0.27,-0.18,-0.03,1592,1099,289,-37,26,83,0, 35.702412, 51.350758,0.00,0.45,254

201,50033,69390,0,28,330,1.22,9,0,-77,-5,28,88293,1146,4.89,0.02,8.99,-0.03,0.06,-0.09,1592,1099,289,-37,26,88,0, 35.702412, 51.350758,0.00,0.45,254

201,50320,69580,0,29,330,1.22,9,0,-77,-5,29,88298,1146,4.91,0.03,8.93,-0.03,0.00,0.09,1593,1099,289,-37,26,90,0, 35.702412, 51.350758,0.00,0.45,254

201,50607,69869,0,28,330,1.14,9,0,-77,-5,28,88298,1145,4.94,0.01,8.94,-0.03,-0.12,-0.09,1593,1099,289,-37,26,91,0, 35.702412, 51.350758,0.00,0.45,254

201,50894,70156,0,28,330,1.14,9,0,-77,-5,28,88295,1146,4.98,-0.03,8.88,0.03,-0.18,-0.21,1592,1099,289,-37,26,94,0, 35.702412, 51.350758,0.00,0.45,254

201,51181,70443,0,28,330,1.22,9,0,-77,-5,28,88292,1146,4.96,0.03,8.96,-0.03,0.12,-0.03,1593,1099,289,-37,26,94,0, 35.702412, 51.350758,0.00,0.45,254

201,51469,70730,0,28,330,1.22,9,0,-77,-5,28,88294,1146,4.94,0.05,9.09,-0.09,-0.12,0.03,1593,1100,289,-37,26,91,0, 35.702412, 51.350758,0.00,0.45,254

201,51851,71017,0,28,330,1.22,9,0,-77,-5,28,88292,1146,4.87,0.02,8.97,-0.09,-0.12,0.03,1594,1099,289,-37,26,92,0, 35.702412, 51.350758,0.00,0.45,254

201,52138,71399,0,28,330,1.22,9,0,-77,-5,28,88295,1146,5.02,-0.03,8.99,-0.09,0.00,0.09,1593,1099,289,-37,26,90,0, 35.702412, 51.350758,0.00,0.45,254

201,52426,71687,0,28,330,1.14,9,0,-76,-5,28,88294,1145,4.90,0.03,8.97,-0.09,-0.06,0.03,1592,1099,289,-37,26,93,0, 35.702412, 51.350758,0.00,0.45,254

201,52712,71973,0,28,330,1.14,9,0,-77,-5,28,88296,1146,4.94,0.04,9.02,0.03,0.12,0.03,1593,1099,289,-37,26,90,0, 35.702377, 51.350746,0.00,0.05,254

201,53096,72260,0,29,330,1.22,9,0,-77,-5,29,88294,1146,4.93,0.00,8.98,-0.09,-0.06,-0.09,1593,1099,289,-37,26,91,0, 35.702377, 51.350746,0.00,0.05,254

201,53382,72643,0,28,330,1.22,9,0,-77,-5,28,88296,1146,4.96,0.04,8.92,-0.09,-0.18,0.03,1593,1099,289,-37,26,90,0, 35.702377, 51.350746,0.00,0.05,254

201,53574,72931,0,28,330,1.29,9,0,-77,-5,28,88296,1146,4.97,-0.02,8.94,-0.03,0.00,-0.09,1593,1099,289,-37,26,90,0, 35.702377, 51.350746,0.00,0.05,254

201,53765,73122,0,28,330,1.22,9,0,-77,-5,28,88295,1146,4.90,-0.01,8.90,-0.03,-0.06,-0.03,1593,1099,289,-37,26,91,0, 35.702377, 51.350746,0.00,0.05,254

201,53956,73314,0,28,330,1.22,9,0,-76,-5,28,88297,1146,4.93,0.03,9.01,-0.15,-0.12,0.22,1594,1100,289,-37,26,92,0, 35.702377, 51.350746,0.00,0.05,254

201,54243,73504,0,28,330,1.22,9,0,-77,-5,28,88296,1146,4.92,-0.03,8.96,0.15,0.06,0.03,1593,1099,289,-37,26,90,0, 35.702377, 51.350746,0.00,0.05,254

201,54435,73792,0,28,330,1.22,9,0,-77,-5,28,88296,1146,4.92,0.09,8.99,0.03,-0.06,-0.09,1593,1099,289,-37,26,90,0, 35.702377, 51.350746,0.00,0.05,254

201,54626,73984,0,28,330,1.22,9,0,-76,-5,28,88297,1146,4.90,0.05,8.95,0.03,0.19,0.03,1594,1100,289,-37,26,90,0, 35.702377, 51.350746,0.00,0.05,254

201,54818,74174,0,28,330,1.22,9,0,-77,-5,28,88293,1146,4.92,-0.01,8.96,-0.09,0.19,-0.15,1593,1099,289,-37,26,91,0, 35.702377, 51.350746,0.00,0.05,254

201,55010,74366,0,28,330,1.22,9,0,-77,-5,28,88295,1145,4.92,0.01,8.93,-0.15,-0.06,-0.09,1592,1099,289,-37,26,91,0, 35.702377, 51.350746,0.00,0.05,254

201,55200,74557,0,28,330,1.22,9,0,-77,-5,28,88294,1146,4.91,0.01,8.93,-0.15,0.00,0.03,1592,1099,289,-37,26,90,0, 35.702377, 51.350746,0.00,0.05,254

201,55487,74749,0,28,330,1.22,9,0,-77,-5,28,88292,1146,4.92,0.00,8.88,-0.21,0.00,0.09,1593,1099,289,-37,26,91,0, 35.702377, 51.350746,0.00,0.05,254

201,55775,75036,0,28,330,1.22,9,0,-76,-5,28,88296,1146,4.88,-0.03,9.09,-0.15,0.19,-0.03,1593,1099,289,-37,26,88,0, 35.702377, 51.350746,0.00,0.05,254

201,56062,75323,0,28,330,1.22,9,0,-77,-5,28,88294,1145,4.91,0.06,8.98,0.09,0.06,-0.15,1593,1099,289,-37,26,90,0, 35.702377, 51.350746,0.00,0.05,254

201,56349,75609,0,28,330,1.22,9,0,-77,-5,28,88293,1146,4.93,0.00,9.05,-0.09,-0.06,-0.15,1593,1100,289,-37,26,92,0, 35.702377, 51.350746,0.00,0.05,254

201,56541,75898,0,28,330,1.22,9,0,-77,-5,28,88293,1146,4.91,-0.03,8.93,-0.09,-0.06,0.03,1593,1099,289,-37,26,89,0, 35.702377, 51.350746,0.00,0.05,254

201,56827,76089,0,28,330,1.22,9,0,-77,-5,28,88295,1146,4.91,0.09,8.94,0.21,0.06,0.03,1593,1100,289,-36,26,91,0, 35.702377, 51.350746,0.00,0.05,254

201,57019,76375,0,29,330,1.29,9,0,-77,-5,29,88293,1146,4.92,-0.03,8.95,-0.15,-0.06,-0.09,1593,1100,289,-37,26,90,0, 35.702377, 51.350746,0.00,0.05,254

201,57211,76567,0,28,330,1.22,9,0,-77,-5,28,88298,1146,4.93,0.06,9.09,-0.15,-0.18,-0.15,1593,1100,289,-37,26,92,0, 35.702377, 51.350746,0.00,0.05,254

201,57404,76760,0,28,330,1.22,9,0,-77,-5,28,88297,1146,4.94,0.01,9.05,-0.09,-0.06,-0.21,1593,1099,289,-37,26,91,0, 35.702377, 51.350746,0.00,0.05,254

201,57594,76951,0,28,330,1.14,9,0,-77,-5,28,88292,1146,4.89,-0.02,8.90,-0.09,0.00,-0.09,1593,1100,289,-37,26,91,0, 35.702377, 51.350746,0.00,0.05,254

201,57787,77142,0,28,330,1.29,9,0,-77,-5,28,88292,1146,4.90,0.07,8.91,-0.09,0.12,0.03,1593,1099,289,-37,26,90,0, 35.702377, 51.350746,0.00,0.05,254

201,57976,77332,0,28,330,1.22,9,0,-77,-5,28,88298,1146,4.93,0.01,8.97,-0.03,-0.24,0.03,1593,1100,289,-37,26,90,0, 35.702377, 51.350746,0.00,0.05,254

201,58263,77523,0,28,330,1.22,9,0,-77,-5,28,88293,1146,4.93,0.05,8.97,-0.15,0.12,0.09,1593,1100,289,-37,26,90,0, 35.702377, 51.350746,0.00,0.05,254

201,58551,77811,0,28,330,1.22,9,0,-77,-5,28,88293,1146,4.86,0.01,9.00,-0.09,0.00,0.03,1593,1100,289,-36,26,91,0, 35.702377, 51.350746,0.00,0.05,254

201,58837,78098,0,29,330,1.29,9,0,-77,-5,29,88292,1146,4.87,-0.02,8.97,-0.27,0.06,0.03,1593,1100,289,-37,26,89,0, 35.702377, 51.350746,0.00,0.05,254

201,59029,78386,0,28,330,1.22,9,0,-77,-5,28,88294,1146,4.90,0.02,9.02,-0.09,-0.18,-0.09,1593,1100,289,-37,26,90,0, 35.702377, 51.350746,0.00,0.05,254

201,59220,78576,0,28,330,1.14,9,0,-77,-5,28,88299,1146,4.91,0.04,8.96,-0.15,-0.06,-0.09,1593,1099,289,-36,26,91,0, 35.702377, 51.350746,0.00,0.05,254

201,59508,78769,0,28,330,1.29,9,0,-77,-5,28,88296,1146,4.94,0.06,8.97,-0.15,0.00,0.03,1593,1100,289,-37,26,89,0, 35.702377, 51.350746,0.00,0.05,254

201,59797,79054,0,28,330,1.29,9,0,-77,-5,28,88292,1146,4.97,-0.01,9.05,-0.21,-0.12,0.03,1593,1100,289,-37,26,89,0, 35.702377, 51.350746,0.00,0.05,254

201,60082,79342,0,28,330,1.22,9,0,-77,-5,28,88293,1146,4.91,0.00,8.99,0.09,-0.06,0.09,1592,1100,289,-37,26,92,0, 35.702377, 51.350746,0.00,0.05,254

201,60369,79628,0,28,330,1.22,9,0,-77,-5,28,88295,1146,4.91,0.03,9.01,-0.03,-0.06,-0.09,1593,1099,289,-37,26,91,0, 35.702377, 51.350746,0.00,0.05,254

201,60656,79918,0,29,330,1.22,9,0,-77,-5,29,88295,1146,4.91,0.01,8.98,-0.03,-0.06,-0.15,1593,1100,289,-37,26,91,0, 35.702377, 51.350746,0.00,0.05,254

201,61039,80203,0,28,330,1.22,9,0,-77,-5,28,88294,1146,4.97,-0.06,8.95,0.03,-0.12,0.09,1593,1099,289,-37,26,91,0, 35.702377, 51.350746,0.00,0.05,254

201,61230,80586,0,28,330,1.22,9,0,-77,-5,28,88291,1146,4.91,-0.00,8.98,-0.09,-0.18,0.09,1592,1099,289,-37,26,90,0, 35.702377, 51.350746,0.00,0.05,254

201,61421,80779,0,28,330,1.22,9,0,-77,-5,28,88294,1146,4.93,-0.01,9.02,-0.03,-0.18,0.03,1593,1100,289,-37,26,90,0, 35.702377, 51.350746,0.00,0.05,254

201,61612,80969,0,28,330,1.22,9,0,-77,-5,28,88294,1146,4.90,0.00,9.03,-0.03,0.00,0.09,1593,1100,289,-37,26,90,0, 35.702377, 51.350746,0.00,0.05,254

201,61805,81160,0,28,330,1.22,9,0,-77,-5,28,88294,1146,4.97,-0.00,9.03,-0.09,0.06,-0.09,1592,1100,289,-37,26,90,0, 35.702377, 51.350746,0.00,0.05,254

201,62094,81352,0,28,330,1.22,9,0,-77,-5,28,88293,1146,4.92,0.03,8.93,-0.03,-0.06,0.15,1593,1100,289,-36,26,92,0, 35.702377, 51.350746,0.00,0.05,254

201,62378,81638,0,28,330,1.22,9,0,-77,-5,28,88294,1146,4.94,0.07,9.00,-0.09,-0.12,0.09,1593,1100,289,-37,26,89,0, 35.702377, 51.350746,0.00,0.05,254

201,62665,81927,0,28,330,1.22,9,0,-77,-5,28,88296,1146,4.95,-0.03,9.04,-0.15,0.00,0.03,1593,1100,289,-37,26,90,0, 35.702377, 51.350746,0.00,0.05,254

201,62953,82213,0,28,330,1.22,9,0,-77,-5,28,88296,1146,4.93,0.05,8.93,-0.03,-0.18,-0.21,1593,1100,289,-37,26,92,0, 35.702377, 51.350746,0.00,0.05,254

201,63239,82500,0,28,330,1.29,9,0,-77,-5,28,88295,1146,4.91,0.02,8.95,0.09,-0.06,-0.21,1593,1100,289,-37,26,88,0, 35.702377, 51.350746,0.00,0.05,254

201,63623,82788,0,28,330,1.14,9,0,-77,-5,28,88296,1146,4.91,0.02,9.01,-0.15,-0.12,0.03,1593,1100,289,-36,26,90,0, 35.702377, 51.350746,0.00,0.05,254

201,63910,83170,0,28,330,1.22,9,0,-77,-5,28,88294,1146,4.99,0.03,8.92,-0.09,-0.06,0.09,1593,1100,289,-37,26,91,0, 35.702377, 51.350746,0.00,0.05,254

201,64196,83458,0,28,330,1.22,9,0,-77,-5,28,88293,1146,4.94,-0.00,9.01,0.03,0.06,0.09,1593,1100,289,-36,26,89,0, 35.702377, 51.350746,0.00,0.05,254

201,64483,83744,0,28,330,1.22,9,0,-77,-5,28,88293,1146,4.86,0.01,8.99,0.15,0.00,0.03,1593,1100,289,-37,26,88,0, 35.702377, 51.350746,0.00,0.05,254

201,64867,84032,0,28,330,1.29,9,0,-77,-5,28,88291,1146,4.90,0.06,8.90,0.03,0.06,0.03,1593,1100,289,-36,26,90,0, 35.702377, 51.350746,0.00,0.05,254

201,65155,84414,0,28,330,1.14,9,0,-76,-5,28,88291,1146,4.88,-0.02,9.04,-0.15,-0.18,-0.03,1593,1100,289,-36,26,92,0, 35.702377, 51.350746,0.00,0.05,254

201,65441,84702,0,28,330,1.22,9,0,-77,-5,28,88297,1146,4.94,0.00,9.01,-0.15,0.06,0.15,1593,1100,289,-37,26,90,0, 35.702377, 51.350746,0.00,0.05,254

201,65728,84988,0,28,330,1.29,9,0,-77,-5,28,88296,1146,4.97,0.01,9.02,-0.09,0.06,-0.09,1593,1100,289,-37,26,91,0, 35.702293, 51.350746,0.00,0.03,254

201,65920,85275,0,28,330,1.22,9,0,-77,-5,28,88296,1146,4.89,-0.05,9.00,-0.09,0.00,0.15,1593,1100,290,-37,26,91,0, 35.702293, 51.350746,0.00,0.03,254

201,66207,85467,0,28,330,1.22,9,0,-77,-5,28,88294,1146,4.91,0.02,8.98,-0.15,-0.06,0.09,1593,1100,289,-37,26,91,0, 35.702293, 51.350746,0.00,0.03,254

201,66494,85754,0,28,330,1.22,9,0,-77,-5,28,88294,1146,4.91,0.02,8.92,-0.03,-0.06,-0.09,1593,1100,289,-37,26,89,0, 35.702293, 51.350746,0.00,0.03,254

201,66685,86042,0,28,330,1.22,9,0,-77,-5,28,88294,1146,4.90,0.00,9.01,-0.15,-0.06,0.03,1593,1100,290,-37,26,91,0, 35.702293, 51.350746,0.00,0.03,254

201,66877,86233,0,28,330,1.14,9,0,-77,-5,28,88295,1146,4.95,0.06,8.94,-0.15,0.00,-0.21,1593,1100,290,-37,26,90,0, 35.702293, 51.350746,0.00,0.03,254

201,67068,86424,0,28,330,1.22,9,0,-77,-5,28,88293,1146,4.95,0.03,8.98,-0.15,0.06,-0.03,1593,1100,290,-37,26,90,0, 35.702293, 51.350746,0.00,0.03,254

201,67260,86615,0,28,330,1.22,9,0,-77,-5,28,88296,1146,4.94,0.06,9.04,-0.03,-0.24,0.03,1593,1100,289,-37,26,91,0, 35.702293, 51.350746,0.00,0.03,254

201,67547,86807,0,28,330,1.22,9,0,-77,-5,28,88295,1146,4.91,0.07,8.98,-0.09,-0.06,-0.03,1593,1100,289,-36,26,90,0, 35.702293, 51.350746,0.00,0.03,254

201,67833,87094,0,28,330,1.22,9,0,-77,-5,28,88294,1146,4.87,0.04,9.03,0.15,-0.18,-0.03,1593,1100,290,-37,26,90,0, 35.702293, 51.350746,0.00,0.03,254

201,68121,87380,0,28,330,1.29,9,0,-77,-5,28,88293,1146,4.91,0.01,8.95,0.09,0.00,-0.03,1593,1100,289,-36,26,89,0, 35.702293, 51.350746,0.00,0.03,254

201,68313,87667,0,28,330,1.22,9,0,-77,-5,28,88297,1146,4.89,0.02,9.01,-0.09,-0.06,0.03,1593,1100,289,-36,26,90,0, 35.702293, 51.350746,0.00,0.03,254

201,68504,87860,0,28,330,1.22,9,0,-77,-5,28,88293,1146,4.89,0.04,8.93,-0.15,-0.06,-0.03,1593,1100,290,-37,26,90,0, 35.702290, 51.350742,0.00,0.08,254

201,68791,88051,0,28,330,1.22,9,0,-77,-5,28,88292,1146,4.97,0.08,9.08,0.09,-0.12,-0.03,1593,1100,290,-37,26,91,0, 35.702290, 51.350742,0.00,0.08,254

201,68983,88338,0,28,330,1.14,9,0,-76,-5,28,88293,1145,4.91,-0.08,8.98,-0.03,-0.12,-0.09,1593,1100,290,-36,26,91,0, 35.702290, 51.350742,0.00,0.08,254

201,69173,88529,0,28,330,1.22,9,0,-76,-5,28,88296,1146,4.93,0.06,9.04,0.09,-0.06,-0.03,1593,1100,290,-36,26,90,0, 35.702290, 51.350742,0.00,0.08,254

201,69365,88721,0,28,330,1.22,9,0,-77,-5,28,88295,1146,4.98,0.04,8.96,-0.03,-0.18,-0.03,1593,1100,290,-37,26,90,0, 35.702290, 51.350742,0.00,0.08,254

201,69557,88912,0,28,330,1.14,9,0,-77,-5,28,88296,1146,4.90,-0.03,8.92,-0.15,-0.12,0.09,1594,1100,290,-37,26,90,0, 35.702286, 51.350746,0.00,0.03,254

201,69749,89104,0,28,330,1.22,9,0,-77,-5,28,88294,1146,4.91,-0.01,8.93,-0.03,0.00,-0.09,1593,1100,290,-36,26,88,0, 35.702286, 51.350746,0.00,0.03,254

201,70035,89295,0,29,330,1.22,9,0,-77,-5,29,88294,1146,4.86,0.03,8.93,-0.03,0.00,-0.09,1594,1100,290,-36,26,91,0, 35.702286, 51.350746,0.00,0.03,254

201,70322,89581,0,28,330,1.14,9,0,-76,-5,28,88293,1146,4.87,0.03,8.98,-0.21,0.06,-0.09,1593,1100,290,-36,26,90,0, 35.702286, 51.350746,0.00,0.03,254

201,70514,89870,0,28,330,1.22,9,0,-77,-5,28,88294,1146,4.96,0.01,8.99,-0.09,-0.18,0.03,1593,1100,290,-36,26,90,0, 35.702286, 51.350746,0.00,0.03,254

201,70706,90060,0,28,330,1.22,9,0,-77,-5,28,88293,1146,4.89,0.00,8.97,-0.09,-0.12,0.03,1593,1101,290,-36,26,90,0, 35.702286, 51.350746,0.00,0.03,254

201,70897,90252,0,28,330,1.22,9,0,-77,-5,28,88293,1146,4.95,0.03,9.02,0.03,0.12,-0.03,1593,1101,290,-36,26,88,0, 35.702286, 51.350746,0.00,0.03,254

201,71088,90442,0,28,330,1.22,9,0,-77,-5,28,88295,1146,4.88,0.03,9.02,-0.03,-0.06,0.09,1593,1100,290,-36,26,90,0, 35.702286, 51.350746,0.00,0.03,254

201,71375,90634,0,29,330,1.22,9,0,-77,-5,29,88294,1146,4.93,-0.03,8.95,-0.09,-0.18,0.03,1593,1100,290,-36,26,92,0, 35.702286, 51.350746,0.00,0.03,254

201,71662,90923,0,28,330,1.22,9,0,-77,-5,28,88294,1146,4.93,0.04,8.96,-0.03,0.06,0.03,1593,1100,290,-36,26,90,0, 35.702286, 51.350746,0.00,0.03,254

201,71950,91208,0,28,330,1.14,9,0,-77,-5,28,88296,1146,4.97,0.02,8.96,-0.09,-0.12,-0.09,1593,1100,289,-37,26,91,0, 35.702286, 51.350746,0.00,0.03,254

201,72237,91496,0,28,330,1.22,9,0,-77,-5,28,88295,1146,4.86,-0.00,9.01,-0.09,-0.06,-0.03,1594,1101,290,-36,26,91,0, 35.702286, 51.350746,0.00,0.03,254

201,72524,91785,0,28,330,1.22,9,0,-77,-5,28,88293,1146,4.91,-0.02,9.00,-0.15,-0.24,0.09,1593,1100,290,-36,26,90,0, 35.702286, 51.350746,0.00,0.03,254

201,72905,92070,0,28,330,1.29,9,0,-77,-5,28,88297,1146,4.89,0.00,8.97,0.03,0.12,0.09,1594,1100,290,-36,26,91,0, 35.702286, 51.350746,0.00,0.03,254

201,73097,92452,0,28,330,1.22,9,0,-77,-5,28,88293,1145,4.91,0.02,9.03,0.15,0.19,0.15,1593,1101,290,-37,26,88,0, 35.702286, 51.350746,0.00,0.03,254

201,73289,92643,0,28,330,1.22,9,0,-77,-5,28,88295,1146,4.92,0.02,8.92,0.03,-0.06,0.03,1593,1100,290,-36,26,87,0, 35.702286, 51.350746,0.00,0.03,254

201,73480,92836,0,28,330,1.22,9,0,-76,-5,28,88296,1146,4.90,0.04,9.02,0.03,0.00,-0.15,1593,1100,290,-37,26,89,0, 35.702286, 51.350746,0.00,0.03,254

201,73671,93027,0,28,330,1.22,9,0,-77,-5,28,88297,1146,4.91,0.03,8.97,0.09,0.00,0.03,1594,1101,290,-36,26,91,0, 35.702286, 51.350746,0.00,0.03,254

201,73959,93218,0,28,330,1.22,9,0,-77,-5,28,88293,1146,4.93,0.06,9.08,-0.03,0.12,-0.09,1593,1100,290,-36,26,89,0, 35.702286, 51.350746,0.00,0.03,254

201,74247,93506,0,28,330,1.22,9,0,-77,-5,28,88294,1146,4.87,-0.02,8.91,-0.15,0.00,0.15,1593,1100,290,-36,26,90,0, 35.702286, 51.350746,0.00,0.03,254

201,74533,93794,0,28,330,1.22,9,0,-77,-5,28,88295,1146,4.86,0.04,9.00,-0.21,0.06,0.09,1593,1101,290,-36,26,90,0, 35.702286, 51.350746,0.00,0.03,254

201,74820,94080,0,28,330,1.22,9,0,-77,-5,28,88294,1146,4.94,0.05,9.03,-0.21,0.00,0.09,1593,1100,290,-36,26,90,0, 35.702286, 51.350746,0.00,0.03,254

201,75108,94366,0,28,330,1.14,9,0,-77,-5,28,88295,1145,4.95,0.03,9.03,-0.09,0.06,-0.15,1593,1100,290,-36,26,89,0, 35.702286, 51.350746,0.00,0.03,254

201,75394,94653,0,28,330,1.29,9,0,-77,-5,28,88292,1145,4.89,0.06,8.94,0.09,0.00,-0.15,1592,1100,290,-36,26,88,0, 35.702286, 51.350746,0.00,0.03,254

201,75682,94942,0,28,330,1.29,9,0,-77,-5,28,88292,1146,4.89,0.02,9.01,-0.03,-0.06,-0.09,1594,1100,290,-36,26,88,0, 35.702232, 51.350758,0.00,0.04,254

201,75968,95228,0,28,330,1.22,9,0,-76,-5,28,88294,1146,4.93,0.06,8.99,-0.09,0.06,-0.21,1593,1101,290,-37,26,90,0, 35.702232, 51.350758,0.00,0.04,254

201,76256,95515,0,28,330,1.22,9,0,-76,-5,28,88294,1146,4.89,-0.01,8.98,-0.03,0.00,-0.09,1594,1100,290,-36,26,88,0, 35.702232, 51.350758,0.00,0.04,254

201,76543,95804,0,28,330,1.14,9,0,-76,-5,28,88294,1146,4.91,0.02,9.05,0.15,0.12,0.03,1593,1100,290,-36,26,90,0, 35.702232, 51.350758,0.00,0.04,254

201,76831,96089,0,28,330,1.14,9,0,-77,-5,28,88295,1146,4.96,-0.02,9.00,0.03,-0.06,-0.03,1594,1101,290,-36,26,88,0, 35.702232, 51.350758,0.00,0.04,254

201,77117,96377,0,28,330,1.22,9,0,-77,-5,28,88292,1145,4.95,0.03,9.02,0.09,-0.18,-0.09,1593,1100,290,-36,26,88,0, 35.702232, 51.350758,0.00,0.04,254

201,77405,96663,0,28,330,1.29,9,0,-77,-5,28,88293,1146,4.91,0.00,8.97,-0.03,-0.06,-0.03,1594,1100,290,-36,26,90,0, 35.702232, 51.350758,0.00,0.04,254

201,77596,96952,0,28,330,1.22,9,0,-77,-5,28,88299,1146,4.92,0.05,8.97,-0.27,0.00,0.09,1593,1101,290,-36,26,89,0, 35.702209, 51.350761,0.00,0.07,254

201,77787,97142,0,28,330,1.22,9,0,-77,-5,28,88293,1146,4.93,-0.02,9.04,-0.03,0.12,0.03,1593,1101,290,-36,26,91,0, 35.702209, 51.350761,0.00,0.07,254

201,78075,97334,0,28,330,1.22,9,0,-77,-5,28,88296,1146,4.91,0.05,8.98,-0.09,0.06,0.09,1594,1101,290,-36,26,90,0, 35.702209, 51.350761,0.00,0.07,254

201,78362,97619,0,28,330,1.22,9,0,-77,-5,28,88292,1146,5.00,-0.02,8.92,-0.34,0.06,0.15,1594,1101,290,-36,26,90,0, 35.702209, 51.350761,0.00,0.07,254

201,78649,97908,0,29,330,1.22,9,0,-77,-5,29,88297,1146,4.91,-0.02,8.97,0.03,0.06,0.09,1594,1101,290,-36,26,90,0, 35.702209, 51.350761,0.00,0.07,254

201,78936,98195,0,28,330,1.22,9,0,-77,-5,28,88293,1146,4.91,-0.01,8.93,-0.21,-0.06,0.03,1594,1101,290,-36,26,90,0, 35.702209, 51.350761,0.00,0.07,254

201,79319,98483,0,28,330,1.22,9,0,-77,-5,28,88297,1146,4.94,0.03,8.90,-0.27,-0.06,-0.21,1594,1101,290,-36,26,87,0, 35.702209, 51.350761,0.00,0.07,254

201,79701,98866,0,28,330,1.22,9,0,-77,-5,28,88298,1146,4.87,0.02,8.94,-0.09,0.19,0.03,1593,1101,290,-36,26,88,0, 35.702209, 51.350761,0.00,0.07,254

201,79893,99248,0,28,330,1.14,9,0,-77,-5,28,88293,1146,4.91,-0.06,8.97,-0.03,-0.12,-0.03,1593,1101,290,-36,26,91,0, 35.702209, 51.350761,0.00,0.07,254

201,80084,99439,0,28,330,1.22,9,0,-77,-5,28,88295,1145,4.86,0.06,8.92,0.15,0.00,0.15,1594,1101,290,-36,26,90,0, 35.702209, 51.350761,0.00,0.07,254

201,80277,99630,0,28,330,1.14,9,0,-77,-5,28,88294,1146,4.91,0.07,8.98,-0.03,-0.24,-0.03,1594,1101,290,-36,26,90,0, 35.702209, 51.350761,0.00,0.07,254

201,80563,99823,0,28,330,1.22,9,0,-76,-5,28,88297,1146,4.92,0.02,8.93,0.03,-0.18,-0.03,1594,1101,290,-36,26,90,0, 35.702209, 51.350761,0.00,0.07,254

201,80754,100109,0,28,330,1.22,9,0,-77,-5,28,88294,1146,4.90,0.04,8.95,-0.21,0.00,0.03,1593,1101,290,-36,26,89,0, 35.702209, 51.350761,0.00,0.07,254

201,80946,100300,0,28,330,1.22,9,0,-77,-5,28,88297,1146,4.91,0.00,9.04,-0.21,-0.06,0.03,1593,1101,290,-36,26,90,0, 35.702209, 51.350761,0.00,0.07,254

201,81138,100492,0,28,330,1.22,9,0,-77,-5,28,88297,1146,4.90,-0.04,8.99,-0.15,-0.12,-0.03,1594,1101,290,-36,26,89,0, 35.702209, 51.350761,0.00,0.07,254

201,81329,100684,0,28,330,1.22,9,0,-77,-5,28,88295,1146,4.90,0.07,9.03,-0.21,0.06,-0.03,1594,1101,290,-36,26,88,0, 35.702209, 51.350761,0.00,0.07,254

201,81521,100876,0,28,330,1.22,9,0,-76,-5,28,88296,1146,4.96,0.00,8.93,0.15,-0.12,-0.03,1593,1101,290,-36,26,90,0, 35.702175, 51.350765,0.00,0.11,254

201,81712,101067,0,29,330,1.22,9,0,-77,-5,29,88294,1145,4.92,0.02,9.03,0.15,-0.06,0.03,1593,1101,290,-36,26,90,0, 35.702175, 51.350765,0.00,0.11,254

201,81999,101258,0,28,330,1.29,9,0,-77,-5,28,88296,1146,4.92,0.03,8.93,0.03,0.06,-0.03,1594,1101,290,-36,26,90,0, 35.702175, 51.350765,0.00,0.11,254

201,82192,101544,0,28,330,1.22,9,0,-77,-5,28,88297,1145,4.90,-0.01,8.97,-0.09,-0.12,-0.09,1593,1100,290,-36,26,90,0, 35.702175, 51.350765,0.00,0.11,254

201,82382,101738,0,28,330,1.14,9,0,-77,-5,28,88296,1146,4.89,0.03,9.02,-0.09,0.06,0.03,1593,1101,290,-36,26,87,0, 35.702175, 51.350765,0.00,0.11,254

201,82574,101928,0,29,330,1.14,9,0,-77,-5,29,88297,1146,4.91,0.03,9.02,-0.09,-0.06,0.09,1593,1100,290,-36,26,91,0, 35.702175, 51.350765,0.00,0.11,254

201,82766,102120,0,28,330,1.22,9,0,-77,-5,28,88298,1146,4.96,-0.07,8.92,-0.15,-0.12,0.28,1593,1101,290,-36,26,90,0, 35.702175, 51.350765,0.00,0.11,254

201,82956,102311,0,28,330,1.22,9,0,-77,-5,28,88297,1146,4.94,-0.02,8.95,-0.03,0.00,0.15,1593,1101,290,-36,26,90,0, 35.702175, 51.350765,0.00,0.11,254

201,83244,102502,0,28,330,1.22,9,0,-77,-5,28,88294,1146,4.90,0.02,9.00,-0.03,0.06,-0.09,1594,1101,290,-36,26,91,0, 35.702175, 51.350765,0.00,0.11,254

201,83530,102791,0,28,330,1.22,9,0,-77,-5,28,88295,1146,4.96,0.01,9.04,0.09,-0.12,-0.03,1593,1101,290,-36,26,90,0, 35.702175, 51.350765,0.00,0.11,254

201,83818,103077,0,28,330,1.14,9,0,-77,-5,28,88295,1146,4.91,0.03,8.97,0.03,-0.12,0.03,1594,1101,290,-36,26,87,0, 35.702175, 51.350765,0.00,0.11,254

201,84106,103364,0,28,330,1.22,9,0,-77,-5,28,88297,1145,4.92,-0.04,9.04,-0.09,0.00,0.09,1593,1101,290,-36,26,90,0, 35.702175, 51.350765,0.00,0.11,254

201,84393,103651,0,29,330,1.22,9,0,-77,-5,29,88296,1145,4.90,0.02,8.99,-0.15,-0.06,-0.15,1594,1101,290,-36,26,87,0, 35.702175, 51.350765,0.00,0.11,254

201,84680,103940,0,28,330,1.22,9,0,-77,-5,28,88295,1145,4.91,0.03,9.00,-0.09,0.00,0.03,1594,1101,290,-36,26,89,0, 35.702152, 51.350769,0.00,0.02,254

201,84871,104225,0,28,330,1.22,9,0,-77,-5,28,88294,1146,4.92,0.03,9.03,-0.09,0.12,-0.09,1593,1101,290,-36,26,90,0, 35.702152, 51.350769,0.00,0.02,254

201,85062,104417,0,28,330,1.22,9,0,-77,-5,28,88297,1146,4.88,-0.01,8.95,-0.15,-0.06,-0.09,1593,1101,290,-36,26,90,0, 35.702152, 51.350769,0.00,0.02,254

201,85254,104608,0,28,330,1.22,9,0,-77,-5,28,88297,1146,4.93,-0.01,8.93,0.03,-0.06,-0.09,1594,1101,290,-36,26,90,0, 35.702152, 51.350769,0.00,0.02,254

201,85446,104801,0,28,330,1.14,9,0,-77,-5,28,88297,1146,4.96,-0.06,9.07,-0.03,-0.12,-0.03,1594,1101,290,-36,26,90,0, 35.702152, 51.350769,0.00,0.02,254

201,85637,104991,0,28,330,1.22,9,0,-77,-5,28,88296,1145,4.94,-0.04,8.99,-0.09,0.12,-0.03,1593,1101,290,-36,26,88,0, 35.702152, 51.350769,0.00,0.02,254

201,85924,105183,0,28,330,1.22,9,0,-77,-5,28,88295,1146,4.87,0.01,9.04,-0.03,-0.12,-0.09,1593,1101,290,-36,26,90,0, 35.702152, 51.350769,0.00,0.02,254

201,86211,105469,0,28,330,1.22,9,0,-77,-5,28,88298,1146,4.92,0.06,8.91,-0.15,-0.24,-0.03,1593,1101,290,-36,26,90,0, 35.702152, 51.350769,0.00,0.02,254

201,86498,105757,0,28,330,1.22,9,0,-77,-5,28,88297,1146,4.90,0.07,8.99,-0.09,0.06,0.03,1593,1101,290,-36,26,88,0, 35.702152, 51.350769,0.00,0.02,254

201,86785,106044,0,28,330,1.22,9,0,-76,-5,28,88295,1145,4.92,0.00,8.99,-0.03,-0.12,-0.03,1594,1101,290,-36,26,89,0, 35.702152, 51.350769,0.00,0.02,254

201,86977,106331,0,28,330,1.22,9,0,-77,-5,28,88295,1146,4.93,0.01,9.02,-0.09,-0.06,0.09,1593,1101,290,-36,26,90,0, 35.702152, 51.350769,0.00,0.02,254

201,87264,106521,0,28,330,1.22,9,0,-77,-5,28,88297,1146,4.91,0.02,8.99,-0.09,-0.06,-0.09,1593,1101,290,-36,26,90,0, 35.702152, 51.350769,0.00,0.02,254

201,87550,106810,0,29,330,1.22,9,0,-77,-5,29,88300,1145,4.93,0.01,9.01,-0.15,0.00,0.09,1593,1101,290,-36,26,90,0, 35.702152, 51.350769,0.00,0.02,254

201,87838,107097,0,28,330,1.14,9,0,-77,-5,28,88294,1146,4.94,-0.01,8.97,0.15,0.06,-0.09,1594,1101,290,-36,26,90,0, 35.702152, 51.350769,0.00,0.02,254

201,88126,107383,0,28,330,1.22,9,0,-77,-5,28,88298,1146,4.90,-0.03,8.97,0.03,0.06,0.03,1594,1101,290,-36,26,86,0, 35.702152, 51.350769,0.00,0.02,254

201,88412,107670,0,28,330,1.22,9,0,-77,-5,28,88297,1146,4.90,0.02,8.97,-0.21,-0.06,-0.09,1594,1101,290,-36,26,88,0, 35.702152, 51.350769,0.00,0.02,254

201,88699,107959,0,28,330,1.22,9,0,-77,-5,28,88293,1146,4.95,0.03,8.98,0.15,0.06,0.22,1594,1101,290,-36,26,89,0, 35.702129, 51.350773,0.00,0.04,254

201,88986,108244,0,28,330,1.14,9,0,-77,-5,28,88297,1146,4.89,0.03,9.09,0.03,-0.12,-0.03,1594,1101,290,-36,26,90,0, 35.702129, 51.350773,0.00,0.04,254

201,89177,108531,0,28,330,1.22,9,0,-77,-5,28,88297,1145,4.93,0.00,9.01,-0.09,0.00,0.09,1594,1101,290,-36,26,88,0, 35.702129, 51.350773,0.00,0.04,254

201,89369,108724,0,28,330,1.14,9,0,-76,-5,28,88293,1145,4.86,-0.03,8.92,-0.09,0.06,-0.15,1594,1101,290,-36,26,87,0, 35.702129, 51.350773,0.00,0.04,254

201,89560,108915,0,28,330,1.14,9,0,-77,-5,28,88295,1146,4.88,0.00,8.97,-0.09,0.00,-0.21,1593,1101,290,-36,26,90,0, 35.702129, 51.350773,0.00,0.04,254

201,89848,109107,0,28,330,1.22,9,0,-77,-5,28,88296,1146,4.93,-0.01,8.93,-0.21,-0.12,-0.03,1594,1101,290,-36,26,90,0, 35.702129, 51.350773,0.00,0.04,254

201,90135,109393,0,28,330,1.14,9,0,-77,-5,28,88295,1145,4.91,0.05,9.09,-0.15,0.12,-0.21,1594,1101,290,-36,26,90,0, 35.702129, 51.350773,0.00,0.04,254

201,90422,109680,0,28,330,1.14,9,0,-76,-5,28,88296,1146,4.92,0.00,8.96,-0.15,-0.12,0.03,1593,1101,290,-36,26,88,0, 35.702129, 51.350773,0.00,0.04,254

201,90709,109968,0,28,330,1.29,9,0,-77,-5,28,88294,1146,4.87,0.03,8.99,-0.09,-0.06,0.09,1594,1101,290,-36,26,90,0, 35.702118, 51.350777,0.00,0.02,254

201,90996,110255,0,28,330,1.14,9,0,-77,-5,28,88297,1145,4.88,0.00,8.97,0.15,-0.12,0.09,1593,1101,290,-36,26,89,0, 35.702118, 51.350777,0.00,0.02,254

201,91379,110541,0,28,330,1.22,9,0,-77,-5,28,88295,1146,4.90,0.04,9.02,-0.09,0.19,-0.09,1593,1101,290,-36,26,90,0, 35.702118, 51.350777,0.00,0.02,254

201,91666,110925,0,28,330,1.22,9,0,-77,-5,28,88295,1146,4.96,0.03,8.99,-0.21,0.06,-0.09,1594,1101,290,-36,26,89,0, 35.702118, 51.350777,0.00,0.02,254

201,91953,111212,0,28,330,1.22,9,0,-77,-5,28,88294,1146,4.96,0.04,9.08,-0.09,0.06,0.03,1593,1101,290,-36,26,91,0, 35.702118, 51.350777,0.00,0.02,254

201,92240,111499,0,28,330,1.22,9,0,-77,-5,28,88296,1146,4.84,0.02,9.00,0.03,-0.12,0.09,1593,1102,290,-36,26,90,0, 35.702118, 51.350777,0.00,0.02,254

201,92623,111787,0,28,330,1.14,9,0,-77,-5,28,88297,1146,4.95,0.06,9.10,-0.21,0.00,0.15,1594,1101,290,-36,26,90,0, 35.702118, 51.350777,0.00,0.02,254

201,92815,112168,0,28,330,1.22,9,0,-77,-5,28,88293,1145,4.87,0.06,8.99,-0.03,-0.06,0.09,1593,1101,290,-36,26,90,0, 35.702118, 51.350777,0.00,0.02,254

201,93006,112360,0,28,330,1.29,9,0,-77,-5,28,88296,1146,4.91,0.01,8.97,-0.09,-0.18,-0.09,1594,1101,290,-36,26,90,0, 35.702118, 51.350777,0.00,0.02,254

201,93197,112551,0,28,330,1.14,9,0,-76,-5,28,88296,1146,4.87,0.05,8.95,0.03,-0.06,0.03,1594,1102,290,-36,26,91,0, 35.702118, 51.350777,0.00,0.02,254

201,93389,112744,0,28,330,1.22,9,0,-77,-5,28,88294,1146,4.92,0.04,9.01,-0.27,0.00,0.09,1593,1102,290,-36,26,91,0, 35.702118, 51.350777,0.00,0.02,254

201,93581,112934,0,28,330,1.22,9,0,-77,-5,28,88294,1146,4.91,0.03,8.88,-0.15,0.00,0.03,1594,1101,290,-36,26,90,0, 35.702118, 51.350777,0.00,0.02,254

201,93772,113126,0,28,330,1.14,9,0,-77,-5,28,88296,1145,4.92,0.01,8.94,-0.09,-0.12,0.03,1594,1101,290,-36,26,88,0, 35.702118, 51.350777,0.00,0.02,254

201,93964,113317,0,28,330,1.22,9,0,-77,-5,28,88294,1146,4.95,-0.01,8.95,-0.03,0.00,-0.09,1594,1102,290,-36,26,90,0, 35.702118, 51.350777,0.00,0.02,254

201,94155,113508,0,28,330,1.22,9,0,-77,-5,28,88295,1146,4.94,0.01,8.91,-0.09,0.00,0.15,1594,1101,290,-36,26,90,0, 35.702118, 51.350777,0.00,0.02,254

201,94347,113700,0,28,330,1.14,9,0,-76,-5,28,88298,1145,4.90,-0.00,8.92,-0.15,-0.06,-0.09,1593,1101,290,-36,26,90,0, 35.702118, 51.350777,0.00,0.02,254

201,94538,113892,0,28,330,1.29,9,0,-77,-5,28,88294,1146,4.97,0.04,9.10,-0.15,-0.12,-0.27,1594,1101,290,-36,26,88,0, 35.702099, 51.350784,0.00,0.04,254

201,94729,114083,0,28,330,1.29,9,0,-77,-5,28,88294,1145,4.92,0.03,8.90,-0.15,0.00,0.09,1593,1101,290,-36,26,92,0, 35.702099, 51.350784,0.00,0.04,254

201,95017,114274,0,28,330,1.22,9,0,-77,-5,28,88297,1146,4.90,0.00,8.98,-0.09,-0.18,-0.21,1594,1101,290,-36,26,89,0, 35.702099, 51.350784,0.00,0.04,254

201,95303,114561,0,28,330,1.22,9,0,-77,-5,28,88293,1146,4.94,0.01,9.00,0.03,0.06,-0.03,1594,1101,290,-36,26,90,0, 35.702099, 51.350784,0.00,0.04,254

201,95591,114849,0,28,330,1.22,9,0,-77,-5,28,88296,1146,4.93,0.02,8.94,-0.21,-0.18,0.15,1593,1102,290,-36,26,92,0, 35.702099, 51.350784,0.00,0.04,254

201,95877,115136,0,28,330,1.22,9,0,-77,-5,28,88293,1146,4.87,0.08,8.96,0.09,0.06,-0.09,1594,1102,290,-36,26,90,0, 35.702099, 51.350784,0.00,0.04,254

201,96069,115423,0,28,330,1.22,9,0,-77,-5,28,88294,1146,4.92,0.01,8.99,-0.15,0.06,0.15,1593,1101,290,-36,26,88,0, 35.702099, 51.350784,0.00,0.04,254

201,96359,115613,0,28,330,1.14,9,0,-77,-5,28,88293,1146,4.91,-0.01,8.96,-0.27,0.06,-0.03,1593,1101,290,-36,26,91,0, 35.702099, 51.350784,0.00,0.04,254

201,96547,115902,0,28,330,1.29,9,0,-77,-5,28,88295,1146,4.93,0.05,8.91,0.09,0.00,0.03,1593,1101,290,-36,26,89,0, 35.702099, 51.350784,0.00,0.04,254

201,96738,116092,0,28,330,1.14,9,0,-76,-5,28,88293,1146,4.95,-0.02,9.06,0.03,0.06,0.03,1594,1101,290,-36,26,90,0, 35.702099, 51.350784,0.00,0.04,254

201,96930,116284,0,28,330,1.29,9,0,-77,-5,28,88298,1145,4.90,-0.02,9.06,-0.27,0.00,0.03,1594,1102,290,-36,26,88,0, 35.702099, 51.350784,0.00,0.04,254

201,97122,116474,0,28,330,1.22,9,0,-77,-5,28,88294,1146,4.94,0.02,8.93,-0.09,-0.18,0.09,1593,1101,290,-36,26,90,0, 35.702099, 51.350784,0.00,0.04,254

201,97313,116666,0,28,330,1.22,9,0,-77,-5,28,88298,1146,4.96,-0.00,9.06,-0.09,-0.06,-0.09,1594,1102,290,-36,26,90,0, 35.702099, 51.350784,0.00,0.04,254

201,97505,116859,0,28,330,1.22,9,0,-77,-5,28,88299,1146,4.95,0.05,9.08,-0.03,-0.12,-0.03,1594,1101,290,-36,26,87,0, 35.702091, 51.350784,0.00,0.07,254

201,97791,117050,0,28,330,1.22,9,0,-77,-5,28,88295,1146,4.88,0.00,9.06,-0.15,0.12,-0.15,1593,1101,290,-36,26,87,0, 35.702091, 51.350784,0.00,0.07,254

201,98078,117337,0,28,330,1.22,9,0,-77,-5,28,88295,1146,4.94,0.01,8.94,0.03,0.00,-0.09,1594,1102,290,-36,26,89,0, 35.702091, 51.350784,0.00,0.07,254

201,98366,117622,0,29,330,1.22,9,0,-77,-5,29,88294,1146,4.91,-0.02,8.93,-0.09,0.06,0.15,1593,1102,290,-36,26,90,0, 35.702091, 51.350784,0.00,0.07,254

201,98558,117912,0,28,330,1.14,9,0,-76,-5,28,88294,1146,4.91,-0.01,8.92,-0.21,-0.24,0.15,1593,1102,290,-36,26,86,0, 35.702091, 51.350784,0.00,0.07,254

201,98750,118103,0,28,330,1.22,9,0,-77,-5,28,88294,1146,4.93,0.00,8.94,-0.03,-0.12,0.03,1594,1102,290,-36,26,89,0, 35.702091, 51.350784,0.00,0.07,254

201,99035,118294,0,28,330,1.14,9,0,-77,-5,28,88292,1146,4.95,0.01,9.03,-0.03,0.00,0.09,1594,1102,290,-36,26,92,0, 35.702091, 51.350784,0.00,0.07,254

201,99323,118580,0,28,330,1.22,9,0,-77,-5,28,88292,1146,4.95,0.01,8.96,-0.15,0.00,0.09,1594,1102,290,-36,26,92,0, 35.702091, 51.350784,0.00,0.07,254

201,99612,118868,0,28,330,1.14,9,0,-77,-5,28,88289,1146,4.90,0.03,9.05,-0.15,-0.12,0.28,1594,1102,290,-36,26,94,0, 35.702091, 51.350784,0.00,0.07,254

201,99897,119155,0,28,330,1.22,9,0,-77,-5,28,88294,1146,4.96,0.02,8.96,0.03,0.12,-0.09,1594,1101,290,-36,26,94,0, 35.702091, 51.350784,0.00,0.07,254

201,100185,119442,0,28,330,1.29,9,0,-77,-5,28,88293,1146,4.90,-0.00,9.04,-0.21,-0.06,-0.03,1594,1102,290,-36,26,94,0, 35.702091, 51.350784,0.00,0.07,254

201,100567,119731,0,28,330,1.22,9,0,-77,-5,28,88296,1146,4.91,0.03,8.97,-0.03,-0.12,-0.15,1594,1101,290,-36,26,91,0, 35.702091, 51.350784,0.00,0.07,254

201,100759,120113,0,28,330,1.22,9,0,-77,-5,28,88295,1146,4.91,0.04,9.04,0.03,0.00,-0.09,1594,1102,290,-36,26,93,0, 35.702091, 51.350784,0.00,0.07,254

201,100950,120304,0,29,330,1.22,9,0,-77,-5,29,88294,1146,4.93,-0.00,8.92,0.03,-0.18,0.09,1593,1102,290,-36,26,94,0, 35.702091, 51.350784,0.00,0.07,254

201,101142,120495,0,28,330,1.22,9,0,-76,-5,28,88296,1146,4.93,0.07,8.94,-0.15,0.12,-0.09,1594,1101,290,-36,26,93,0, 35.702091, 51.350784,0.00,0.07,254

201,101333,120686,0,28,330,1.29,9,0,-77,-5,28,88295,1146,4.91,0.07,8.90,0.03,0.06,0.03,1594,1102,290,-36,26,91,0, 35.702091, 51.350784,0.00,0.07,254

201,101620,120878,0,28,330,1.22,9,0,-77,-5,28,88293,1146,4.91,0.00,8.99,-0.15,0.00,0.22,1594,1102,290,-36,26,94,0, 35.702087, 51.350784,0.00,0.04,254

201,101907,121164,0,28,330,1.22,9,0,-77,-5,28,88292,1146,4.88,0.02,8.98,-0.03,-0.30,0.15,1593,1102,290,-36,26,92,0, 35.702087, 51.350784,0.00,0.04,254

201,102197,121452,0,28,330,1.22,9,0,-76,-5,28,88290,1146,4.93,0.03,9.01,-0.09,-0.12,0.15,1594,1102,290,-36,26,91,0, 35.702087, 51.350784,0.00,0.04,254

201,102481,121740,0,28,330,1.22,9,0,-77,-5,28,88295,1146,4.91,0.03,8.93,-0.09,-0.06,-0.03,1594,1102,290,-36,26,93,0, 35.702087, 51.350784,0.00,0.04,254

201,102769,122028,0,28,330,1.22,9,0,-77,-5,28,88292,1146,4.97,-0.01,9.05,-0.15,-0.12,0.09,1593,1102,290,-36,26,93,0, 35.702087, 51.350784,0.00,0.04,254

201,103152,122313,0,28,330,1.22,9,0,-77,-5,28,88293,1146,4.86,0.03,8.96,0.03,-0.18,-0.09,1593,1102,290,-36,26,92,0, 35.702087, 51.350784,0.00,0.04,254

201,103439,122696,0,28,330,1.29,9,0,-77,-5,28,88293,1146,4.91,-0.00,9.02,0.09,-0.24,-0.09,1594,1101,290,-36,26,94,0, 35.702087, 51.350784,0.00,0.04,254

201,103726,122984,0,28,330,1.22,9,0,-77,-5,28,88291,1146,4.99,0.03,9.04,-0.15,-0.12,-0.03,1593,1102,290,-36,26,93,0, 35.702084, 51.350784,0.00,0.01,254

201,104013,123271,0,28,330,1.22,9,0,-77,-5,28,88293,1146,4.92,-0.06,9.01,0.09,0.00,-0.03,1594,1102,290,-36,26,90,0, 35.702084, 51.350784,0.00,0.01,254

