checksumStart,missionTime,roll,pitch,heading,airSpeed,elevator,aileron,alfa,betha,standAngle,pressure,pressureAlt,ax,ay,az,gx,gy,gz,lc1,lc2,lc3,lc4,temprature,voltage,GPSSats,GPSLat,GPSLong,GPSAlt,GPSSpeed,checksumEnd
201,926701,-2,14,327,1.00,3,3,0,0,19,88640,1114,2.50,-0.46,10.03,-6.81,-16.26,13.71,122,1085,-16,-5,26,35.00,11, 35.702057, 51.350815,5.00,0.26,254

201,926988,-2,13,327,1.00,3,3,0,0,18,88640,1114,2.46,-0.50,10.05,-6.99,-15.41,13.47,126,1086,-16,-5,26,35.00,11, 35.702057, 51.350815,5.00,0.26,254

201,927275,-3,13,327,1.00,3,3,0,0,18,88637,1114,2.47,-0.50,10.11,-6.44,-16.08,13.40,125,1086,-16,-5,26,35.00,11, 35.702057, 51.350815,5.00,0.26,254

201,927562,-2,13,327,1.00,3,3,0,0,19,88638,1114,2.44,-0.51,10.08,-7.42,-14.43,13.04,123,1086,-16,-5,26,35.00,11, 35.702057, 51.350815,5.00,0.26,254

201,927849,-2,13,327,1.00,3,3,0,0,18,88638,1114,2.43,-0.53,9.99,-4.74,-17.66,14.14,126,1086,-16,-5,26,35.00,11, 35.702057, 51.350815,5.00,0.26,254

201,928039,-2,13,327,1.00,3,3,0,0,19,88640,1114,2.51,-0.50,10.00,-7.11,-16.63,13.22,123,1086,-16,-5,26,35.00,11, 35.702057, 51.350815,5.00,0.26,254

201,928327,-2,13,327,1.00,3,3,0,0,19,88640,1113,2.46,-0.54,10.07,-6.50,-15.16,13.77,125,1085,-16,-5,26,35.00,11, 35.702057, 51.350815,5.00,0.26,254

201,928615,-2,14,327,1.00,3,3,0,0,19,88640,1114,2.42,-0.48,10.03,-4.55,-17.18,14.14,128,1086,-16,-5,26,35.00,11, 35.702057, 51.350815,5.00,0.26,254

201,928902,-2,13,327,1.00,3,3,0,0,19,88640,1114,2.45,-0.54,10.07,-6.14,-16.93,12.67,125,1086,-16,-5,26,35.00,11, 35.702057, 51.350815,5.00,0.26,254

201,929093,-2,13,327,1.00,3,3,0,0,19,88642,1114,2.49,-0.47,10.01,-7.54,-15.90,13.83,124,1085,-16,-5,26,35.00,11, 35.702057, 51.350815,5.00,0.26,254

201,929285,-2,13,327,1.00,3,3,0,0,18,88641,1113,2.42,-0.50,9.90,-5.90,-15.16,13.71,125,1085,-16,-5,26,35.00,11, 35.702057, 51.350815,5.00,0.26,254

201,929572,-3,13,327,1.00,3,3,0,0,19,88639,1114,2.49,-0.51,10.13,-6.81,-13.58,14.26,124,1086,-16,-5,26,35.00,11, 35.702057, 51.350815,5.00,0.26,254

201,929859,-3,13,327,1.00,3,3,0,0,19,88641,1113,2.46,-0.49,10.07,-6.63,-16.87,13.47,126,1085,-16,-5,26,35.00,11, 35.702057, 51.350815,5.00,0.26,254

201,930146,-2,13,327,1.00,3,3,0,0,18,88638,1114,2.47,-0.48,10.07,-7.30,-16.44,13.77,123,1085,-16,-5,26,35.00,11, 35.702057, 51.350815,5.00,0.26,254

201,930336,-2,13,327,1.00,3,3,0,0,19,88641,1113,2.49,-0.50,10.09,-7.30,-15.90,12.55,123,1086,-16,-5,26,35.00,11, 35.702057, 51.350815,5.00,0.26,254

201,930530,-2,14,327,1.00,3,3,0,0,18,88640,1113,2.46,-0.50,10.02,-7.24,-15.90,14.20,124,1086,-16,-5,26,35.00,11, 35.702057, 51.350815,5.00,0.26,254

201,930720,-2,13,327,1.00,3,3,0,0,19,88641,1114,2.46,-0.45,10.04,-5.90,-17.42,13.40,123,1086,-16,-5,26,35.00,11, 35.702057, 51.350815,5.00,0.26,254

201,931007,-2,13,327,1.00,3,3,0,0,18,88642,1114,2.50,-0.51,10.08,-5.65,-16.32,13.65,126,1086,-16,-5,26,35.00,11, 35.702057, 51.350815,5.00,0.26,254

201,931295,-2,14,327,1.00,3,3,0,0,19,88640,1114,2.43,-0.48,10.12,-6.75,-16.38,13.40,123,1085,-16,-5,26,35.00,11, 35.702057, 51.350815,5.00,0.26,254

201,931582,-2,13,327,1.00,3,3,0,0,19,88644,1113,2.48,-0.48,10.06,-6.81,-15.65,13.04,124,1086,-16,-5,26,35.00,11, 35.702057, 51.350815,5.00,0.26,254

201,931868,-2,13,327,1.00,3,3,0,0,18,88641,1114,2.42,-0.54,10.03,-6.50,-16.14,13.22,125,1086,-16,-5,26,35.00,11, 35.702057, 51.350815,5.00,0.26,254

201,932156,-2,13,327,1.00,3,3,0,0,19,88638,1113,2.45,-0.46,10.07,-6.69,-14.68,12.86,126,1086,-16,-5,26,35.00,11, 35.702057, 51.350815,5.00,0.26,254

201,932540,-2,13,327,1.00,3,3,0,0,18,88638,1113,2.46,-0.49,10.03,-6.50,-16.57,14.01,125,1086,-16,-5,26,35.00,11, 35.702057, 51.350815,5.00,0.26,254

201,932826,-2,13,327,1.00,3,3,0,0,18,88640,1114,2.43,-0.51,10.01,-5.53,-16.02,14.14,122,1085,-16,-5,26,35.00,11, 35.702057, 51.350815,5.00,0.26,254

201,933113,-2,13,327,1.00,3,3,0,0,19,88641,1113,2.44,-0.43,9.99,-5.10,-16.32,12.67,125,1085,-16,-5,26,35.00,11, 35.702057, 51.350815,5.00,0.26,254

201,933304,-3,13,327,1.00,3,3,0,0,18,88641,1114,2.50,-0.47,10.09,-5.83,-16.57,13.77,126,1086,-16,-5,26,35.00,11, 35.702057, 51.350815,5.00,0.26,254

201,933593,-2,13,327,1.00,3,3,0,0,19,88641,1113,2.46,-0.44,10.02,-6.26,-16.38,12.43,122,1086,-16,-5,26,35.00,11, 35.702057, 51.350815,5.00,0.26,254

201,933878,-2,13,327,1.00,3,3,0,0,18,88641,1114,2.49,-0.53,9.99,-4.86,-16.81,13.71,124,1085,-16,-5,26,35.00,11, 35.702057, 51.350815,5.00,0.26,254

201,934166,-2,13,327,1.00,3,3,0,0,18,88638,1114,2.52,-0.46,10.01,-5.83,-14.68,10.78,124,1085,-16,-5,26,35.00,11, 35.702057, 51.350815,5.00,0.26,254

201,934454,-2,13,327,1.00,3,3,0,0,19,88641,1114,2.48,-0.44,10.00,-6.38,-15.96,14.20,123,1086,-16,-5,26,35.00,11, 35.702057, 51.350815,5.00,0.26,254

201,934740,-2,13,327,1.00,3,3,0,0,18,88645,1114,2.39,-0.45,9.98,-6.14,-15.71,13.22,126,1086,-16,-5,26,35.00,11, 35.702049, 51.350883,5.00,0.17,254

201,935027,-2,13,327,1.00,3,3,0,0,19,88640,1113,2.50,-0.54,9.98,-6.63,-17.12,12.98,123,1086,-16,-5,26,35.00,11, 35.702049, 51.350883,5.00,0.17,254

201,935314,-2,13,327,1.00,3,3,0,0,19,88641,1114,2.43,-0.41,10.07,-6.57,-16.75,14.01,125,1085,-16,-5,26,35.00,11, 35.702049, 51.350883,5.00,0.17,254

201,935603,-3,13,327,1.00,3,3,0,0,18,88643,1113,2.47,-0.50,10.07,-6.32,-16.32,12.25,125,1086,-16,-5,26,35.00,11, 35.702049, 51.350883,5.00,0.17,254

201,935888,-2,13,327,1.00,3,3,0,0,19,88640,1114,2.47,-0.49,10.09,-5.53,-16.32,13.28,123,1086,-16,-5,26,35.00,11, 35.702049, 51.350883,5.00,0.17,254

201,936176,-3,13,327,1.00,3,3,0,0,18,88639,1114,2.40,-0.54,10.04,-6.93,-16.99,13.22,125,1086,-16,-5,26,35.00,11, 35.702049, 51.350883,5.00,0.17,254

201,936559,-2,13,327,1.00,3,3,0,0,18,88639,1114,2.46,-0.50,10.08,-7.11,-16.08,14.14,124,1086,-16,-5,26,35.00,11, 35.702049, 51.350883,5.00,0.17,254

201,936846,-2,13,327,1.00,3,3,0,0,18,88640,1113,2.42,-0.50,10.02,-5.83,-15.65,13.71,120,1085,-16,-5,26,35.00,11, 35.702049, 51.350883,5.00,0.17,254

201,937133,-2,13,327,1.00,3,3,0,0,19,88640,1114,2.48,-0.56,10.08,-6.14,-15.10,12.43,122,1085,-16,-5,26,35.00,11, 35.702049, 51.350883,5.00,0.17,254

201,937324,-2,14,327,1.00,3,3,0,0,18,88642,1114,2.48,-0.50,10.01,-6.81,-16.38,13.59,126,1085,-16,-5,26,35.00,11, 35.702049, 51.350883,5.00,0.17,254

201,937517,-2,13,327,1.00,3,3,0,0,19,88640,1114,2.46,-0.50,10.08,-6.38,-16.93,11.94,123,1085,-16,-5,26,35.00,11, 35.702049, 51.350883,5.00,0.17,254

201,937708,-2,13,327,1.00,3,3,0,0,19,88641,1114,2.49,-0.48,10.05,-7.24,-17.42,13.40,125,1085,-16,-5,26,35.00,11, 35.702049, 51.350883,5.00,0.17,254

201,937899,-3,13,327,1.00,3,3,0,0,18,88637,1113,2.49,-0.39,9.99,-5.16,-15.59,13.28,126,1086,-16,-5,26,35.00,11, 35.702049, 51.350883,5.00,0.17,254

201,938090,-2,13,327,1.00,3,3,0,0,19,88638,1114,2.48,-0.45,10.10,-5.96,-16.08,12.49,123,1086,-16,-5,26,35.00,11, 35.702049, 51.350883,5.00,0.17,254

201,938281,-2,13,327,1.00,3,3,0,0,18,88640,1114,2.43,-0.50,10.10,-6.02,-16.38,12.67,121,1086,-16,-5,26,35.00,11, 35.702049, 51.350883,5.00,0.17,254

201,938474,-3,13,327,1.00,3,3,0,0,19,88641,1113,2.47,-0.45,9.99,-6.20,-16.14,13.53,127,1085,-16,-5,26,35.00,11, 35.702049, 51.350883,5.00,0.17,254

201,938664,-2,13,327,1.00,3,3,0,0,19,88642,1114,2.44,-0.47,10.00,-5.59,-16.87,12.31,128,1085,-16,-5,26,35.00,11, 35.702053, 51.350883,5.00,0.02,254

201,938951,-3,13,327,1.00,3,3,0,0,19,88641,1114,2.48,-0.53,10.10,-6.93,-16.99,12.19,125,1086,-16,-5,26,35.00,11, 35.702053, 51.350883,5.00,0.02,254

201,939239,-2,13,327,1.00,3,3,0,0,18,88639,1114,2.46,-0.42,10.05,-6.26,-15.90,15.17,126,1085,-16,-5,26,35.00,11, 35.702053, 51.350883,5.00,0.02,254

201,939527,-2,13,327,1.00,3,3,0,0,19,88639,1114,2.46,-0.47,10.06,-5.77,-16.75,13.89,128,1085,-16,-5,26,35.00,11, 35.702053, 51.350883,5.00,0.02,254

201,939717,-2,13,327,1.00,3,3,0,0,18,88638,1114,2.46,-0.44,10.01,-7.18,-16.75,12.55,126,1085,-16,-5,26,35.00,11, 35.702053, 51.350883,5.00,0.02,254

201,939909,-2,13,327,1.00,3,3,0,0,19,88640,1114,2.49,-0.50,10.07,-6.20,-16.38,13.53,122,1086,-16,-5,26,35.00,11, 35.702053, 51.350883,5.00,0.02,254

201,940100,-2,13,327,1.00,3,3,0,0,18,88637,1114,2.42,-0.48,10.07,-5.53,-16.08,12.55,120,1085,-16,-5,26,35.00,11, 35.702053, 51.350883,5.00,0.02,254

201,940387,-2,13,327,1.00,3,3,0,0,19,88640,1114,2.47,-0.49,9.94,-6.99,-16.26,13.22,123,1085,-16,-5,26,35.00,11, 35.702053, 51.350883,5.00,0.02,254

201,940675,-2,13,327,1.00,3,3,0,0,19,88638,1113,2.46,-0.50,9.98,-6.08,-16.14,13.22,124,1085,-16,-5,26,35.00,11, 35.702053, 51.350883,5.00,0.02,254

201,940961,-2,13,327,1.00,3,3,0,0,18,88638,1114,2.41,-0.50,10.06,-6.20,-15.90,12.37,124,1085,-16,-5,26,35.00,11, 35.702053, 51.350883,5.00,0.02,254

201,941249,-2,13,327,1.00,3,3,0,0,19,88637,1114,2.48,-0.53,10.03,-6.32,-15.41,12.79,129,1085,-16,-5,26,35.00,11, 35.702053, 51.350883,5.00,0.02,254

201,941537,-2,13,327,1.00,3,3,0,0,18,88641,1114,2.43,-0.48,10.16,-5.90,-15.29,12.86,124,1085,-16,-5,26,35.00,11, 35.702053, 51.350883,5.00,0.02,254

201,941824,-2,13,327,1.00,3,3,0,0,19,88638,1114,2.44,-0.43,10.02,-5.41,-15.35,13.77,128,1085,-16,-5,26,35.00,11, 35.702053, 51.350883,5.00,0.02,254

201,942014,-3,14,327,1.00,3,3,0,0,18,88637,1114,2.41,-0.53,10.06,-6.20,-16.75,12.79,126,1085,-16,-5,26,35.00,11, 35.702053, 51.350883,5.00,0.02,254

201,942205,-2,13,327,1.00,3,3,0,0,19,88638,1114,2.46,-0.47,9.98,-5.90,-15.65,11.70,127,1085,-16,-5,26,35.00,11, 35.702053, 51.350883,5.00,0.02,254

201,942396,-2,13,327,1.00,3,3,0,0,18,88640,1113,2.44,-0.46,10.06,-5.83,-17.12,14.20,125,1085,-16,-5,26,35.00,11, 35.702053, 51.350883,5.00,0.02,254

201,942589,-2,13,327,1.00,3,3,0,0,19,88642,1114,2.50,-0.52,10.07,-5.53,-15.90,13.10,121,1085,-16,-5,26,35.00,11, 35.702053, 51.350883,5.00,0.02,254

201,942780,-2,13,327,1.00,3,3,0,0,19,88643,1114,2.48,-0.43,10.11,-6.20,-16.14,13.16,130,1085,-16,-5,26,35.00,11, 35.702053, 51.350883,5.00,0.02,254

201,943068,-3,13,327,1.00,3,3,0,0,19,88638,1114,2.49,-0.53,10.03,-4.55,-16.44,14.14,124,1086,-16,-5,26,35.00,11, 35.702053, 51.350883,5.00,0.02,254

201,943354,-2,14,327,1.00,3,3,0,0,18,88641,1114,2.45,-0.56,10.05,-7.18,-17.42,13.83,130,1085,-16,-5,26,35.00,11, 35.702053, 51.350883,5.00,0.02,254

201,943642,-2,13,326,1.00,3,3,0,0,19,88638,1114,2.48,-0.46,10.03,-5.16,-16.32,13.22,122,1086,-16,-5,26,35.00,11, 35.702053, 51.350883,5.00,0.02,254

201,943929,-3,13,327,1.00,3,3,0,0,19,88638,1114,2.50,-0.53,10.10,-6.38,-15.35,13.04,124,1086,-16,-5,26,35.00,11, 35.702053, 51.350883,5.00,0.02,254

201,944216,-2,13,327,1.00,3,3,0,0,18,88637,1114,2.46,-0.51,10.05,-7.18,-15.90,12.31,124,1085,-16,-5,26,35.00,11, 35.702053, 51.350883,5.00,0.02,254

201,944503,-3,14,327,1.00,3,3,0,0,19,88637,1114,2.56,-0.45,10.06,-6.50,-15.29,13.16,129,1085,-16,-5,26,35.00,11, 35.702053, 51.350883,5.00,0.02,254

201,944791,-2,14,327,1.00,3,3,0,0,19,88637,1114,2.51,-0.50,10.05,-6.20,-17.73,15.11,121,1086,-16,-5,26,35.00,11, 35.702053, 51.350883,5.00,0.02,254

201,945078,-3,14,327,1.00,3,3,0,0,19,88641,1114,2.46,-0.48,10.05,-6.50,-15.77,13.04,125,1086,-16,-5,26,35.00,11, 35.702053, 51.350883,5.00,0.02,254

201,945364,-2,13,327,1.00,3,3,0,0,19,88636,1114,2.48,-0.46,10.11,-6.63,-16.02,13.10,128,1085,-16,-5,26,35.00,11, 35.702053, 51.350883,5.00,0.02,254

201,945652,-2,13,327,1.00,3,3,0,0,18,88636,1114,2.43,-0.48,10.03,-6.50,-16.63,13.28,123,1086,-16,-5,26,35.00,11, 35.702053, 51.350883,5.00,0.02,254

201,945939,-2,13,327,1.00,3,3,0,0,19,88639,1114,2.48,-0.46,10.02,-6.20,-17.66,13.71,128,1085,-16,-5,26,35.00,11, 35.702053, 51.350883,5.00,0.02,254

201,946226,-2,13,327,1.00,3,3,0,0,19,88639,1114,2.48,-0.49,10.01,-5.65,-16.57,13.65,126,1085,-16,-5,26,35.00,11, 35.702053, 51.350883,5.00,0.02,254

201,946513,-2,13,327,1.00,3,3,0,0,18,88637,1114,2.42,-0.42,10.02,-4.43,-16.38,13.28,122,1086,-16,-5,26,35.00,11, 35.702053, 51.350883,5.00,0.02,254

201,946705,-2,14,327,1.00,3,3,0,0,19,88634,1114,2.48,-0.49,10.03,-5.65,-16.87,13.28,127,1085,-16,-5,26,35.00,11, 35.702053, 51.350883,5.00,0.02,254

201,946992,-2,13,327,1.00,3,3,0,0,18,88636,1114,2.43,-0.51,10.03,-6.44,-14.68,13.40,126,1086,-16,-5,26,35.00,11, 35.702053, 51.350883,5.00,0.02,254

201,947278,-2,13,327,1.00,3,3,0,0,19,88639,1114,2.52,-0.46,10.03,-6.02,-15.10,13.40,129,1085,-16,-5,26,35.00,11, 35.702053, 51.350883,5.00,0.02,254

201,947567,-3,13,327,1.00,3,3,0,0,19,88635,1113,2.42,-0.49,9.94,-6.81,-16.44,13.71,126,1085,-16,-5,26,35.00,11, 35.702053, 51.350883,5.00,0.02,254

201,947853,-2,13,327,1.00,3,3,0,0,18,88638,1114,2.45,-0.47,10.00,-5.83,-15.77,13.71,127,1086,-16,-5,26,35.00,11, 35.702053, 51.350883,5.00,0.02,254

201,948141,-2,13,327,1.00,3,3,0,0,19,88640,1114,2.45,-0.47,10.14,-5.10,-15.84,13.28,128,1085,-16,-5,26,35.00,11, 35.702053, 51.350883,5.00,0.02,254

201,948524,-2,13,327,1.00,3,3,0,0,19,88638,1114,2.47,-0.45,10.03,-6.08,-17.05,12.55,125,1085,-16,-5,26,35.00,11, 35.702053, 51.350883,5.00,0.02,254

201,948905,-3,13,327,1.00,3,3,0,0,19,88640,1114,2.47,-0.49,10.06,-6.57,-15.04,13.65,131,1085,-16,-5,26,35.00,11, 35.702053, 51.350883,5.00,0.02,254

201,949193,-3,13,327,1.00,3,3,0,0,18,88644,1114,2.50,-0.50,10.00,-6.08,-16.81,12.73,127,1086,-16,-5,26,35.00,11, 35.702053, 51.350883,5.00,0.02,254

201,949481,-2,13,327,1.00,3,3,0,0,19,88642,1113,2.46,-0.48,10.09,-6.20,-16.69,12.98,125,1086,-16,-5,26,35.00,11, 35.702053, 51.350883,5.00,0.02,254

201,949672,-2,13,327,1.00,3,3,0,0,18,88641,1114,2.44,-0.43,10.05,-6.57,-15.41,12.79,130,1085,-16,-5,26,35.00,11, 35.702053, 51.350883,5.00,0.02,254

201,949863,-2,13,327,1.00,3,3,0,0,19,88639,1114,2.48,-0.44,10.07,-5.90,-15.84,12.73,129,1085,-16,-5,26,35.00,11, 35.702053, 51.350883,5.00,0.02,254

201,950054,-2,13,327,1.00,3,3,0,0,19,88640,1114,2.37,-0.44,10.08,-6.75,-15.35,13.71,129,1085,-16,-5,26,35.00,11, 35.702053, 51.350883,5.00,0.02,254

201,950246,-2,13,327,1.00,3,3,0,0,19,88641,1113,2.46,-0.44,10.01,-6.57,-17.30,12.37,121,1086,-16,-5,26,35.00,11, 35.702053, 51.350883,5.00,0.02,254

201,950437,-2,13,327,1.00,3,3,0,0,19,88641,1114,2.37,-0.47,10.05,-6.44,-16.57,14.20,127,1085,-16,-5,26,35.00,11, 35.702053, 51.350883,5.00,0.02,254

201,950629,-2,13,327,1.00,3,3,0,0,18,88639,1114,2.41,-0.54,10.04,-6.14,-15.77,14.14,127,1085,-16,-5,26,35.00,11, 35.702061, 51.350872,5.00,0.01,254

201,950820,-2,13,327,1.00,3,3,0,0,19,88640,1114,2.46,-0.51,10.01,-6.69,-15.84,12.73,125,1086,-16,-5,26,35.00,11, 35.702061, 51.350872,5.00,0.01,254

201,951107,-2,13,327,1.00,3,3,0,0,18,88639,1114,2.45,-0.50,10.03,-6.75,-16.57,12.37,127,1085,-16,-5,26,35.00,11, 35.702061, 51.350872,5.00,0.01,254

201,951299,-2,13,327,1.00,3,3,0,0,19,88641,1113,2.46,-0.51,10.04,-5.22,-16.20,12.92,126,1085,-16,-5,26,35.00,11, 35.702061, 51.350872,5.00,0.01,254

201,951491,-2,13,327,1.00,3,3,0,0,19,88642,1114,2.44,-0.49,10.06,-5.35,-14.74,13.04,128,1085,-16,-5,26,35.00,11, 35.702061, 51.350872,5.00,0.01,254

201,951683,-2,13,327,1.00,3,3,0,0,19,88637,1114,2.52,-0.45,9.98,-5.10,-16.02,13.95,123,1085,-16,-5,26,35.00,11, 35.702061, 51.350872,5.00,0.01,254

201,951873,-2,13,327,1.00,3,3,0,0,19,88638,1114,2.41,-0.43,10.01,-5.59,-15.35,13.83,129,1085,-16,-5,26,35.00,11, 35.702061, 51.350872,5.00,0.01,254

201,952065,-2,13,327,1.00,3,3,0,0,19,88640,1114,2.47,-0.48,10.04,-5.96,-16.69,12.86,129,1085,-16,-5,26,35.00,11, 35.702061, 51.350872,5.00,0.01,254

201,952351,-2,13,327,1.00,3,3,0,0,18,88638,1114,2.48,-0.50,10.08,-6.57,-16.08,13.34,131,1085,-16,-5,26,35.00,11, 35.702061, 51.350872,5.00,0.01,254

201,952640,-2,13,327,1.00,3,3,0,0,19,88639,1114,2.43,-0.45,10.13,-5.47,-16.38,13.65,130,1085,-16,-5,26,35.00,11, 35.702061, 51.350872,5.00,0.01,254

201,952926,-2,13,327,1.00,3,3,0,0,18,88638,1114,2.49,-0.48,10.03,-5.83,-18.58,12.86,130,1085,-16,-5,26,35.00,11, 35.702061, 51.350872,5.00,0.01,254

201,953213,-2,13,327,1.00,3,3,0,0,18,88636,1114,2.47,-0.54,9.99,-6.14,-14.92,14.20,130,1085,-16,-5,26,35.00,11, 35.702061, 51.350872,5.00,0.01,254

201,953501,-2,13,327,1.00,3,3,0,0,19,88637,1114,2.48,-0.47,10.12,-7.05,-16.75,12.67,130,1085,-16,-5,26,35.00,11, 35.702061, 51.350872,5.00,0.01,254

201,953788,-2,13,327,1.00,3,3,0,0,18,88638,1114,2.46,-0.46,10.02,-6.20,-16.20,13.89,130,1085,-16,-5,26,35.00,11, 35.702061, 51.350872,5.00,0.01,254

201,953979,-2,13,327,1.00,3,3,0,0,19,88636,1114,2.45,-0.47,10.01,-6.44,-15.84,14.01,127,1085,-16,-5,26,35.00,11, 35.702061, 51.350872,5.00,0.01,254

201,954170,-2,13,327,1.00,3,3,0,0,18,88638,1113,2.41,-0.46,10.10,-5.16,-16.20,13.16,127,1085,-16,-5,26,35.00,11, 35.702061, 51.350872,5.00,0.01,254

201,954361,-2,13,327,1.00,3,3,0,0,19,88639,1114,2.44,-0.48,10.02,-7.18,-16.44,13.47,131,1085,-16,-5,26,35.00,11, 35.702061, 51.350872,5.00,0.01,254

201,954554,-2,13,327,1.00,3,3,0,0,19,88640,1114,2.46,-0.49,10.05,-6.38,-17.30,13.95,129,1085,-16,-5,26,35.00,11, 35.702061, 51.350872,5.00,0.01,254

201,954744,-2,13,327,1.00,3,3,0,0,18,88637,1114,2.44,-0.56,10.09,-6.63,-16.87,12.61,130,1085,-16,-5,26,35.00,11, 35.702061, 51.350872,5.00,0.01,254

201,955032,-2,13,327,1.00,3,3,0,0,19,88638,1114,2.46,-0.48,10.06,-6.32,-16.32,13.59,130,1084,-16,-5,26,35.00,11, 35.702061, 51.350872,5.00,0.01,254

201,955319,-2,13,327,1.00,3,3,0,0,19,88635,1114,2.51,-0.46,9.95,-5.71,-15.59,12.73,131,1085,-16,-5,26,35.00,11, 35.702061, 51.350872,5.00,0.01,254

201,955607,-2,13,327,1.00,3,3,0,0,18,88638,1114,2.45,-0.52,10.09,-6.14,-16.99,13.53,126,1086,-16,-5,26,35.00,11, 35.702061, 51.350872,5.00,0.01,254

201,955893,-2,13,327,1.00,3,3,0,0,19,88637,1114,2.48,-0.47,10.17,-5.90,-15.71,12.00,131,1085,-16,-5,26,35.00,11, 35.702061, 51.350872,5.00,0.01,254

201,956085,-2,13,327,1.00,3,3,0,0,18,88634,1114,2.50,-0.42,10.01,-7.11,-15.53,12.49,133,1085,-16,-5,26,35.00,11, 35.702061, 51.350872,5.00,0.01,254

201,956371,-2,13,327,1.00,3,3,0,0,19,88637,1114,2.40,-0.48,10.08,-5.77,-16.87,12.31,130,1084,-16,-5,26,35.00,11, 35.702061, 51.350872,5.00,0.01,254

201,956659,-2,13,327,1.00,3,3,0,0,19,88638,1114,2.46,-0.53,10.06,-5.83,-17.36,13.47,128,1085,-16,-5,26,35.00,11, 35.702061, 51.350872,5.00,0.01,254

201,956946,-2,13,327,1.00,3,3,0,0,18,88638,1114,2.49,-0.50,10.06,-7.18,-16.26,12.73,125,1085,-16,-5,26,35.00,11, 35.702061, 51.350872,5.00,0.01,254

201,957234,-2,13,327,1.00,3,3,0,0,19,88637,1114,2.41,-0.48,10.02,-6.44,-15.90,13.47,130,1085,-16,-5,26,35.00,11, 35.702061, 51.350872,5.00,0.01,254

201,957521,-2,13,327,1.00,3,3,0,0,19,88638,1114,2.47,-0.45,10.04,-6.14,-15.41,12.67,130,1085,-16,-5,26,35.00,11, 35.702061, 51.350872,5.00,0.01,254

201,957903,-2,13,327,1.00,3,3,0,0,18,88637,1114,2.45,-0.47,10.02,-7.24,-17.12,12.37,132,1085,-16,-5,26,35.00,11, 35.702061, 51.350872,5.00,0.01,254

201,958190,-2,13,327,1.00,3,3,0,0,19,88640,1114,2.45,-0.48,10.06,-7.42,-16.93,13.28,129,1085,-16,-5,26,35.00,11, 35.702061, 51.350872,5.00,0.01,254

201,958381,-2,14,327,1.00,3,3,0,0,19,88639,1114,2.46,-0.46,10.12,-5.47,-16.69,13.59,131,1084,-16,-5,26,35.00,11, 35.702061, 51.350872,5.00,0.01,254

201,958574,-2,13,327,1.00,3,3,0,0,19,88640,1113,2.48,-0.48,9.99,-5.96,-17.42,12.98,131,1085,-16,-5,26,35.00,11, 35.702061, 51.350872,5.00,0.01,254

201,958765,-2,13,327,1.00,3,3,0,0,18,88639,1114,2.50,-0.46,10.06,-7.79,-16.69,11.76,130,1085,-16,-5,26,35.00,11, 35.702045, 51.350895,5.00,0.06,254

201,959052,-2,13,327,1.00,3,3,0,0,19,88636,1114,2.46,-0.50,10.06,-5.04,-16.38,14.99,133,1085,-16,-5,26,35.00,11, 35.702045, 51.350895,5.00,0.06,254

201,959339,-2,14,327,1.00,3,3,0,0,19,88636,1114,2.40,-0.47,10.07,-5.41,-16.08,11.39,124,1085,-16,-5,26,35.00,11, 35.702045, 51.350895,5.00,0.06,254

201,959627,-2,13,327,1.00,3,3,0,0,18,88636,1114,2.46,-0.44,10.03,-5.96,-17.05,14.08,127,1085,-16,-5,26,35.00,11, 35.702045, 51.350895,5.00,0.06,254

201,959913,-2,13,327,1.00,3,3,0,0,19,88637,1114,2.48,-0.51,10.03,-6.99,-16.32,12.06,126,1086,-16,-5,26,35.00,11, 35.702045, 51.350895,5.00,0.06,254

201,960200,-2,13,326,1.00,3,3,0,0,18,88636,1114,2.44,-0.51,10.02,-5.83,-17.48,11.94,131,1084,-16,-5,26,35.00,11, 35.702045, 51.350895,5.00,0.06,254

201,960584,-2,13,327,1.00,3,3,0,0,18,88637,1114,2.48,-0.49,10.00,-6.63,-16.69,13.47,125,1085,-16,-5,26,35.00,11, 35.702045, 51.350895,5.00,0.06,254

201,960871,-2,13,327,1.00,3,3,0,0,19,88638,1114,2.53,-0.53,10.05,-6.44,-16.02,13.10,126,1085,-16,-5,26,35.00,11, 35.702045, 51.350895,5.00,0.06,254

201,961158,-2,13,327,1.00,3,3,0,0,18,88636,1114,2.49,-0.47,10.03,-6.08,-15.59,13.10,130,1085,-16,-5,26,35.00,11, 35.702045, 51.350895,5.00,0.06,254

201,961445,-2,14,327,1.00,3,3,0,0,18,88634,1114,2.46,-0.49,9.98,-6.14,-16.51,13.28,129,1085,-16,-5,26,35.00,11, 35.702045, 51.350895,5.00,0.06,254

201,961827,-2,13,327,1.00,3,3,0,0,18,88635,1114,2.45,-0.52,10.03,-5.59,-16.26,14.93,131,1085,-16,-5,26,35.00,11, 35.702042, 51.350903,5.00,0.04,254

201,962210,-2,13,327,1.00,3,3,0,0,19,88635,1114,2.43,-0.49,10.08,-7.66,-16.26,14.26,132,1085,-16,-5,26,35.00,11, 35.702042, 51.350903,5.00,0.04,254

201,962401,-2,13,327,1.00,3,3,0,0,18,88637,1114,2.47,-0.52,10.05,-6.87,-14.92,13.95,133,1085,-16,-5,26,35.00,11, 35.702042, 51.350903,5.00,0.04,254

201,962594,-2,13,327,1.00,3,3,0,0,19,88635,1114,2.49,-0.49,10.12,-6.14,-16.75,13.53,129,1085,-16,-5,26,35.00,11, 35.702042, 51.350903,5.00,0.04,254

201,962785,-3,13,327,1.00,3,3,0,0,19,88632,1114,2.51,-0.52,9.98,-6.44,-15.71,12.49,129,1085,-16,-5,26,35.00,11, 35.702042, 51.350903,5.00,0.04,254

201,962976,-2,13,327,1.00,3,3,0,0,19,88635,1114,2.43,-0.50,10.04,-6.63,-16.87,13.34,128,1085,-16,-5,26,35.00,11, 35.702042, 51.350903,5.00,0.04,254

201,963168,-2,13,327,1.00,3,3,0,0,19,88637,1114,2.51,-0.49,10.10,-6.81,-16.20,12.37,126,1085,-16,-5,26,35.00,11, 35.702042, 51.350903,5.00,0.04,254

201,963358,-2,13,327,1.00,3,3,0,0,19,88636,1114,2.44,-0.54,10.04,-7.60,-15.35,13.34,130,1085,-16,-5,26,35.00,11, 35.702042, 51.350903,5.00,0.04,254

201,963552,-2,13,327,1.00,3,3,0,0,19,88634,1114,2.51,-0.47,9.99,-5.16,-16.51,12.49,129,1085,-16,-5,26,35.00,11, 35.702042, 51.350903,5.00,0.04,254

201,963742,-2,13,327,1.00,3,3,0,0,18,88635,1114,2.49,-0.46,9.96,-5.71,-17.73,14.38,131,1084,-16,-5,26,35.00,11, 35.702042, 51.350903,5.00,0.04,254

201,963934,-2,13,327,1.00,3,3,0,0,19,88639,1114,2.47,-0.47,10.07,-6.38,-16.02,14.44,129,1084,-16,-5,26,35.00,11, 35.702042, 51.350903,5.00,0.04,254

201,964125,-2,13,327,1.00,3,3,0,0,19,88636,1114,2.47,-0.50,10.09,-8.09,-15.35,12.19,131,1085,-16,-5,26,35.00,11, 35.702042, 51.350903,5.00,0.04,254

201,964412,-2,13,327,1.00,3,3,0,0,19,88638,1114,2.44,-0.44,10.10,-6.69,-17.30,13.16,129,1085,-16,-5,26,35.00,11, 35.702042, 51.350903,5.00,0.04,254

201,964700,-2,13,326,1.00,3,3,0,0,18,88634,1114,2.46,-0.51,10.01,-6.26,-14.68,13.34,130,1085,-16,-5,26,35.00,11, 35.702042, 51.350895,5.00,0.05,254

201,964986,-2,13,327,1.00,3,3,0,0,19,88636,1114,2.49,-0.45,10.01,-6.69,-15.47,13.83,131,1085,-16,-5,26,35.00,11, 35.702042, 51.350895,5.00,0.05,254

201,965178,-3,13,327,1.00,3,3,0,0,18,88635,1114,2.43,-0.48,10.08,-6.63,-15.65,13.22,132,1085,-16,-5,26,35.00,11, 35.702042, 51.350895,5.00,0.05,254

201,965368,-2,14,327,1.00,3,3,0,0,19,88634,1114,2.44,-0.49,10.03,-6.32,-16.63,12.73,128,1084,-16,-5,26,35.00,11, 35.702042, 51.350895,5.00,0.05,254

201,965657,-2,13,327,1.00,3,3,0,0,18,88634,1114,2.46,-0.49,9.95,-6.26,-16.02,13.47,128,1085,-16,-5,26,35.00,11, 35.702042, 51.350895,5.00,0.05,254

201,965943,-2,13,327,1.00,3,3,0,0,18,88635,1114,2.48,-0.49,9.96,-5.96,-17.24,13.40,129,1085,-16,-5,26,35.00,11, 35.702042, 51.350895,5.00,0.05,254

201,966231,-2,13,327,1.00,3,3,0,0,19,88637,1114,2.42,-0.49,10.09,-6.26,-15.77,12.79,130,1085,-16,-5,26,35.00,11, 35.702042, 51.350895,5.00,0.05,254

201,966422,-2,13,327,1.00,3,3,0,0,19,88636,1114,2.45,-0.40,10.12,-6.50,-16.87,13.95,128,1084,-16,-5,26,35.00,11, 35.702042, 51.350895,5.00,0.05,254

201,966615,-2,13,327,1.00,3,3,0,0,19,88635,1114,2.45,-0.43,10.07,-5.65,-17.48,12.43,129,1084,-16,-5,26,35.00,11, 35.702042, 51.350891,5.00,0.04,254

201,966805,-2,13,327,1.00,3,3,0,0,19,88633,1114,2.47,-0.49,10.07,-6.99,-17.54,12.98,134,1085,-16,-5,26,35.00,11, 35.702042, 51.350891,5.00,0.04,254

201,967092,-2,13,327,1.00,3,3,0,0,19,88635,1114,2.44,-0.54,10.02,-8.15,-16.26,13.59,129,1085,-16,-5,26,35.00,11, 35.702042, 51.350891,5.00,0.04,254

201,967379,-2,13,327,1.00,3,3,0,0,18,88637,1114,2.46,-0.44,10.06,-4.74,-16.02,14.32,129,1085,-16,-5,26,35.00,11, 35.702042, 51.350891,5.00,0.04,254

201,967571,-2,13,327,1.00,3,3,0,0,19,88633,1114,2.47,-0.54,10.01,-6.32,-16.38,12.79,126,1085,-16,-5,26,35.00,11, 35.702042, 51.350891,5.00,0.04,254

201,967762,-2,13,327,1.00,3,3,0,0,19,88635,1114,2.50,-0.46,10.05,-6.57,-15.53,14.32,130,1085,-16,-5,26,35.00,11, 35.702042, 51.350891,5.00,0.04,254

201,967954,-2,13,327,1.00,3,3,0,0,19,88633,1114,2.48,-0.49,10.07,-5.59,-15.71,13.16,132,1085,-16,-5,26,35.00,11, 35.702042, 51.350891,5.00,0.04,254

201,968145,-2,13,327,1.00,3,3,0,0,19,88636,1114,2.43,-0.50,10.04,-6.63,-15.41,13.71,131,1085,-16,-5,26,35.00,11, 35.702042, 51.350891,5.00,0.04,254

201,968432,-2,13,327,1.00,3,3,0,0,19,88635,1114,2.45,-0.50,9.99,-5.59,-16.87,14.44,130,1085,-16,-5,26,35.00,11, 35.702042, 51.350891,5.00,0.04,254

201,968720,-2,13,327,1.00,3,3,0,0,18,88635,1114,2.47,-0.46,10.08,-6.81,-16.63,12.98,129,1085,-16,-5,26,35.00,11, 35.702042, 51.350887,5.00,0.05,254

201,969007,-2,13,327,1.00,3,3,0,0,19,88635,1114,2.50,-0.50,9.96,-6.81,-16.38,13.40,130,1085,-16,-5,26,35.00,11, 35.702042, 51.350887,5.00,0.05,254

201,969293,-2,13,327,1.00,3,3,0,0,18,88637,1114,2.46,-0.51,10.09,-5.53,-16.69,13.28,130,1085,-16,-5,26,35.00,11, 35.702042, 51.350887,5.00,0.05,254

201,969581,-2,13,327,1.00,3,3,0,0,19,88633,1114,2.47,-0.53,10.11,-6.81,-14.98,12.00,130,1085,-16,-5,26,35.00,11, 35.702042, 51.350887,5.00,0.05,254

201,969868,-2,13,327,1.00,3,3,0,0,19,88633,1114,2.45,-0.47,9.99,-6.32,-16.57,12.67,132,1085,-16,-5,26,35.00,11, 35.702042, 51.350887,5.00,0.05,254

201,970155,-2,13,327,1.00,3,3,0,0,18,88635,1114,2.45,-0.56,9.98,-5.90,-15.53,14.32,130,1085,-16,-5,26,35.00,11, 35.702042, 51.350887,5.00,0.05,254

201,970345,-2,13,327,1.00,3,3,0,0,19,88635,1114,2.48,-0.45,10.09,-6.20,-16.87,12.98,131,1085,-16,-5,26,35.00,11, 35.702042, 51.350887,5.00,0.05,254

201,970539,-2,13,327,1.00,3,3,0,0,19,88635,1114,2.50,-0.53,10.00,-6.38,-16.14,12.00,136,1085,-16,-5,26,35.00,11, 35.702042, 51.350887,5.00,0.05,254

201,970729,-2,13,327,1.00,3,3,0,0,19,88632,1114,2.49,-0.49,10.00,-7.85,-15.53,13.22,130,1085,-16,-5,26,35.00,11, 35.702042, 51.350887,5.00,0.05,254

201,971017,-2,13,327,1.00,3,3,0,0,18,88632,1114,2.49,-0.48,10.08,-5.59,-16.26,12.98,129,1085,-16,-5,26,35.00,11, 35.702042, 51.350887,5.00,0.05,254

201,971303,-2,13,327,1.00,3,3,0,0,19,88633,1114,2.51,-0.48,10.01,-5.96,-15.71,12.92,130,1085,-16,-5,26,35.00,11, 35.702042, 51.350887,5.00,0.05,254

201,971591,-2,13,327,1.00,3,3,0,0,19,88637,1114,2.46,-0.51,10.04,-6.38,-15.77,12.31,130,1085,-16,-5,26,35.00,11, 35.702042, 51.350887,5.00,0.05,254

201,971878,-2,13,327,1.00,3,3,0,0,18,88633,1114,2.41,-0.47,10.03,-6.50,-15.65,12.49,131,1085,-16,-5,26,35.00,11, 35.702042, 51.350887,5.00,0.05,254

201,972165,-2,13,327,1.00,3,3,0,0,19,88636,1114,2.47,-0.49,10.03,-6.02,-14.86,14.20,131,1085,-16,-5,26,35.00,11, 35.702042, 51.350887,5.00,0.05,254

201,972453,-2,13,327,1.00,3,3,0,0,18,88631,1114,2.47,-0.49,10.04,-6.69,-16.02,11.88,130,1085,-16,-5,26,35.00,11, 35.702042, 51.350887,5.00,0.05,254

201,972740,-2,13,327,1.00,3,3,0,0,19,88638,1114,2.50,-0.52,10.00,-5.83,-16.02,13.71,131,1085,-16,-5,26,35.00,11, 35.702042, 51.350880,5.00,0.04,254

201,973027,-3,13,327,1.00,3,3,0,0,19,88632,1114,2.49,-0.47,9.99,-6.38,-15.53,12.98,133,1085,-16,-5,26,35.00,11, 35.702042, 51.350880,5.00,0.04,254

201,973314,-2,13,327,1.00,3,3,0,0,18,88634,1114,2.45,-0.48,10.01,-4.98,-15.04,12.12,129,1085,-16,-5,26,35.00,11, 35.702042, 51.350880,5.00,0.04,254

201,973601,-2,13,327,1.00,3,3,0,0,19,88635,1114,2.45,-0.50,10.05,-6.50,-16.57,13.28,130,1085,-16,-5,26,35.00,11, 35.702042, 51.350880,5.00,0.04,254

201,973983,-3,13,327,1.00,3,3,0,0,19,88632,1114,2.45,-0.47,10.04,-5.16,-16.75,13.71,130,1085,-16,-5,26,35.00,11, 35.702042, 51.350880,5.00,0.04,254

201,974366,-2,13,327,1.00,3,3,0,0,18,88633,1114,2.47,-0.51,10.07,-5.83,-16.38,13.04,131,1085,-16,-5,26,35.00,11, 35.702042, 51.350880,5.00,0.04,254

201,974559,-2,13,327,1.00,3,3,0,0,19,88634,1114,2.46,-0.49,10.02,-5.65,-16.08,12.73,134,1085,-16,-5,26,35.00,11, 35.702042, 51.350880,5.00,0.04,254

201,974749,-3,13,327,1.00,3,3,0,0,18,88633,1114,2.47,-0.47,10.05,-5.65,-13.94,12.55,130,1085,-16,-5,26,35.00,11, 35.702042, 51.350880,5.00,0.04,254

201,975037,-3,13,327,1.00,3,3,0,0,18,88634,1114,2.50,-0.43,10.07,-6.14,-14.74,13.65,129,1085,-16,-5,26,35.00,11, 35.702042, 51.350880,5.00,0.04,254

201,975227,-2,13,326,1.00,3,3,0,0,18,88633,1114,2.48,-0.48,10.02,-5.53,-16.75,13.34,126,1085,-16,-5,26,35.00,11, 35.702042, 51.350880,5.00,0.04,254

201,975419,-2,13,327,1.00,3,3,0,0,19,88636,1114,2.50,-0.52,10.02,-6.81,-16.75,13.53,130,1085,-16,-5,26,35.00,11, 35.702042, 51.350880,5.00,0.04,254

201,975611,-2,13,327,1.00,3,3,0,0,18,88636,1114,2.45,-0.47,10.01,-6.14,-16.93,14.14,131,1085,-16,-5,26,35.00,11, 35.702049, 51.350845,5.00,0.02,254

201,975802,-2,13,327,1.00,3,3,0,0,19,88633,1114,2.44,-0.47,10.06,-6.08,-15.90,13.28,130,1085,-16,-5,26,35.00,11, 35.702049, 51.350845,5.00,0.02,254

201,975993,-2,13,327,1.00,3,3,0,0,18,88632,1114,2.45,-0.44,10.07,-5.04,-16.02,13.53,131,1085,-16,-5,26,35.00,11, 35.702049, 51.350845,5.00,0.02,254

201,976185,-2,13,327,1.00,3,3,0,0,19,88634,1114,2.41,-0.42,10.10,-6.14,-15.53,13.10,125,1085,-16,-5,26,35.00,11, 35.702049, 51.350845,5.00,0.02,254

201,976473,-2,13,327,1.00,3,3,0,0,18,88630,1114,2.45,-0.50,10.06,-5.96,-15.59,14.32,129,1085,-16,-5,26,35.00,11, 35.702049, 51.350845,5.00,0.02,254

201,976759,-2,13,327,1.00,3,3,0,0,19,88632,1114,2.43,-0.49,10.02,-6.57,-16.32,12.73,128,1085,-16,-5,26,35.00,11, 35.702049, 51.350845,5.00,0.02,254

201,976951,-2,13,327,1.00,3,3,0,0,19,88634,1114,2.46,-0.48,10.02,-6.38,-17.42,12.37,128,1085,-16,-5,26,35.00,11, 35.702049, 51.350845,5.00,0.02,254

201,977142,-2,13,327,1.00,3,3,0,0,19,88630,1114,2.47,-0.45,10.07,-6.44,-16.26,12.49,129,1085,-16,-5,26,35.00,11, 35.702049, 51.350845,5.00,0.02,254

201,977333,-2,13,327,1.00,3,3,0,0,18,88635,1114,2.37,-0.52,10.02,-7.30,-15.65,12.25,131,1085,-16,-5,26,35.00,11, 35.702049, 51.350845,5.00,0.02,254

201,977526,-2,13,327,1.00,3,3,0,0,19,88634,1114,2.43,-0.48,10.09,-5.96,-16.20,13.71,131,1085,-16,-5,26,35.00,11, 35.702049, 51.350845,5.00,0.02,254

201,977812,-2,13,327,1.00,3,3,0,0,18,88635,1114,2.48,-0.48,10.07,-5.41,-16.87,13.59,133,1085,-16,-5,26,35.00,11, 35.702049, 51.350845,5.00,0.02,254

201,978100,-2,13,327,1.00,3,3,0,0,19,88633,1114,2.50,-0.47,9.95,-5.90,-16.44,13.34,131,1085,-16,-5,26,35.00,11, 35.702049, 51.350845,5.00,0.02,254

201,978385,-2,13,327,1.00,3,3,0,0,18,88634,1114,2.49,-0.47,10.05,-7.11,-16.44,13.59,130,1085,-16,-5,26,35.00,11, 35.702049, 51.350845,5.00,0.02,254

201,978579,-2,13,327,1.00,3,3,0,0,19,88633,1114,2.52,-0.46,10.03,-6.50,-16.32,12.79,130,1085,-16,-5,26,35.00,11, 35.702049, 51.350845,5.00,0.02,254

201,978769,-2,13,327,1.00,3,3,0,0,18,88633,1114,2.49,-0.45,10.07,-6.38,-16.26,12.31,123,1085,-16,-5,26,35.00,11, 35.702049, 51.350845,5.00,0.02,254

201,979056,-2,13,327,1.00,3,3,0,0,19,88634,1114,2.53,-0.49,10.06,-6.81,-15.23,13.71,131,1085,-16,-5,26,35.00,11, 35.702049, 51.350845,5.00,0.02,254

201,979248,-2,13,327,1.00,3,3,0,0,18,88630,1114,2.47,-0.50,10.02,-6.81,-15.47,13.65,129,1085,-16,-5,26,35.00,11, 35.702049, 51.350845,5.00,0.02,254

201,979440,-2,13,327,1.00,3,3,0,0,19,88635,1114,2.45,-0.50,10.03,-7.24,-16.14,12.19,132,1086,-16,-5,26,35.00,11, 35.702049, 51.350845,5.00,0.02,254

201,979631,-2,13,327,1.00,3,3,0,0,19,88634,1114,2.49,-0.46,10.05,-6.63,-15.71,13.16,132,1085,-16,-5,26,35.00,11, 35.702049, 51.350822,5.00,0.07,254

201,979822,-2,13,327,1.00,3,3,0,0,19,88633,1114,2.49,-0.47,10.10,-6.02,-14.49,12.73,131,1085,-16,-5,26,35.00,11, 35.702049, 51.350822,5.00,0.07,254

201,980014,-2,13,327,1.00,3,3,0,0,19,88630,1114,2.46,-0.51,10.09,-5.83,-16.32,13.77,128,1085,-16,-5,26,35.00,11, 35.702049, 51.350822,5.00,0.07,254

201,980300,-2,13,327,1.00,3,3,0,0,19,88636,1114,2.50,-0.48,10.04,-5.53,-16.93,13.16,126,1085,-16,-5,26,35.00,11, 35.702049, 51.350822,5.00,0.07,254

201,980589,-2,13,327,1.00,3,3,0,0,18,88636,1114,2.52,-0.56,10.03,-6.14,-15.90,13.22,129,1086,-16,-5,26,35.00,11, 35.702049, 51.350822,5.00,0.07,254

201,980875,-2,13,327,1.00,3,3,0,0,19,88633,1114,2.53,-0.48,10.08,-7.18,-16.51,14.26,128,1085,-16,-5,26,35.00,11, 35.702049, 51.350822,5.00,0.07,254

201,981163,-2,13,327,1.00,3,3,0,0,19,88635,1114,2.47,-0.49,10.09,-5.65,-16.69,13.10,124,1086,-16,-5,26,35.00,11, 35.702049, 51.350822,5.00,0.07,254

201,981450,-2,13,327,1.00,3,3,0,0,18,88635,1114,2.47,-0.51,10.01,-5.59,-17.73,12.98,128,1085,-16,-5,26,35.00,11, 35.702049, 51.350822,5.00,0.07,254

201,981737,-2,13,327,1.00,3,3,0,0,19,88633,1114,2.49,-0.49,10.06,-7.30,-16.20,11.76,129,1084,-16,-5,26,35.00,11, 35.702049, 51.350819,5.00,0.11,254

201,982024,-2,14,327,1.00,3,3,0,0,18,88637,1114,2.47,-0.49,10.05,-6.44,-18.34,12.55,129,1085,-16,-5,26,35.00,11, 35.702049, 51.350819,5.00,0.11,254

201,982310,-2,13,327,1.00,3,3,0,0,19,88637,1114,2.44,-0.50,10.01,-5.53,-16.93,13.77,126,1085,-16,-5,26,35.00,11, 35.702049, 51.350819,5.00,0.11,254

201,982599,-2,13,327,1.00,3,3,0,0,19,88634,1114,2.47,-0.53,10.02,-7.11,-15.29,12.61,130,1085,-16,-5,26,35.00,11, 35.702049, 51.350819,5.00,0.11,254

201,982790,-2,13,327,1.00,3,3,0,0,18,88634,1114,2.50,-0.46,10.09,-6.69,-17.18,13.34,131,1085,-16,-5,26,35.00,11, 35.702049, 51.350819,5.00,0.11,254

201,983076,-2,13,327,1.00,3,3,0,0,19,88635,1114,2.47,-0.51,10.09,-6.14,-16.75,13.65,131,1085,-16,-5,26,35.00,11, 35.702049, 51.350819,5.00,0.11,254

201,983364,-2,14,327,1.00,3,3,0,0,18,88636,1114,2.50,-0.46,10.03,-5.29,-15.96,12.98,131,1085,-16,-5,26,35.00,11, 35.702049, 51.350819,5.00,0.11,254

201,983652,-2,14,327,1.00,3,3,0,0,19,88633,1114,2.46,-0.49,10.04,-7.48,-16.20,13.77,129,1085,-16,-5,26,35.00,11, 35.702049, 51.350819,5.00,0.11,254

201,983842,-2,14,327,1.00,3,3,0,0,19,88634,1114,2.46,-0.48,10.06,-6.26,-13.64,11.88,129,1085,-16,-5,26,35.00,11, 35.702049, 51.350819,5.00,0.11,254

201,984034,-2,13,326,1.00,3,3,0,0,19,88631,1114,2.47,-0.47,10.16,-6.26,-16.08,13.47,132,1085,-16,-5,26,35.00,11, 35.702049, 51.350819,5.00,0.11,254

201,984321,-2,14,327,1.00,3,3,0,0,19,88634,1114,2.46,-0.55,10.10,-6.32,-16.69,12.98,126,1086,-16,-5,26,35.00,11, 35.702049, 51.350819,5.00,0.11,254

201,984609,-2,13,327,1.00,3,3,0,0,18,88637,1114,2.50,-0.52,10.09,-5.71,-15.65,13.89,128,1085,-16,-5,26,35.00,11, 35.702049, 51.350819,5.00,0.11,254

201,984895,-2,13,327,1.00,3,3,0,0,19,88634,1114,2.43,-0.51,10.08,-6.14,-15.23,12.43,130,1085,-16,-5,26,35.00,11, 35.702049, 51.350819,5.00,0.11,254

201,985183,-2,13,327,1.00,3,3,0,0,18,88634,1114,2.45,-0.55,10.09,-6.81,-14.74,13.04,131,1085,-16,-5,26,35.00,11, 35.702049, 51.350819,5.00,0.11,254

201,985470,-2,13,327,1.00,3,3,0,0,19,88636,1114,2.49,-0.53,10.10,-6.20,-16.02,14.26,130,1085,-16,-5,26,35.00,11, 35.702049, 51.350819,5.00,0.11,254

201,985852,-2,13,327,1.00,3,3,0,0,19,88634,1114,2.51,-0.45,10.10,-6.08,-16.32,13.59,131,1085,-16,-5,26,35.00,11, 35.702049, 51.350819,5.00,0.11,254

201,986235,-2,13,327,1.00,3,3,0,0,19,88636,1114,2.46,-0.52,10.10,-6.14,-15.41,12.98,131,1085,-16,-5,26,35.00,11, 35.702049, 51.350819,5.00,0.11,254

201,986523,-2,13,327,1.00,3,3,0,0,18,88634,1114,2.41,-0.49,9.97,-5.35,-14.92,14.08,131,1085,-16,-5,26,35.00,11, 35.702049, 51.350819,5.00,0.11,254

201,986809,-2,13,327,1.00,3,3,0,0,18,88634,1114,2.44,-0.48,10.01,-5.35,-16.87,12.06,130,1085,-16,-5,26,35.00,11, 35.702049, 51.350819,5.00,0.11,254

201,987097,-2,13,327,1.00,3,3,0,0,19,88632,1114,2.48,-0.44,10.11,-6.87,-15.77,13.04,129,1085,-16,-5,26,35.00,11, 35.702049, 51.350819,5.00,0.11,254

201,987383,-2,13,327,1.00,3,3,0,0,18,88633,1114,2.48,-0.52,10.08,-6.26,-15.10,12.12,129,1085,-16,-5,26,35.00,11, 35.702049, 51.350819,5.00,0.11,254

201,987672,-2,13,327,1.00,3,3,0,0,19,88633,1114,2.45,-0.50,10.00,-6.63,-16.26,12.86,128,1085,-16,-5,26,35.00,11, 35.702049, 51.350819,5.00,0.11,254

201,987958,-2,13,327,1.00,3,3,0,0,19,88634,1114,2.49,-0.50,10.03,-7.66,-16.20,13.89,129,1084,-16,-5,26,35.00,11, 35.702049, 51.350819,5.00,0.11,254

201,988149,-2,13,327,1.00,3,3,0,0,18,88636,1114,2.50,-0.47,10.05,-6.08,-16.08,12.98,131,1085,-16,-5,26,35.00,11, 35.702049, 51.350819,5.00,0.11,254

201,988437,-2,13,327,1.00,3,3,0,0,19,88633,1114,2.48,-0.45,10.06,-5.71,-16.20,12.37,129,1085,-16,-5,26,35.00,11, 35.702049, 51.350819,5.00,0.11,254

201,988628,-2,13,327,1.00,3,3,0,0,18,88633,1114,2.45,-0.50,10.08,-6.20,-16.38,13.71,130,1084,-16,-5,26,35.00,11, 35.702053, 51.350819,5.00,0.11,254

201,988820,-2,14,327,1.00,3,3,0,0,19,88635,1114,2.47,-0.48,10.07,-6.20,-14.62,12.19,126,1085,-16,-5,26,35.00,11, 35.702053, 51.350819,5.00,0.11,254

201,989011,-2,13,327,1.00,3,3,0,0,19,88638,1114,2.47,-0.50,10.13,-7.60,-17.79,12.43,123,1086,-16,-5,26,35.00,11, 35.702053, 51.350819,5.00,0.11,254

201,989202,-2,13,326,1.00,3,3,0,0,19,88635,1114,2.49,-0.46,10.07,-6.08,-16.69,12.79,129,1085,-16,-5,26,35.00,11, 35.702053, 51.350819,5.00,0.11,254

201,989393,-2,13,327,1.00,3,3,0,0,20,88635,1114,2.49,-0.42,10.10,-6.69,-15.53,12.92,131,1085,-16,-5,26,35.00,11, 35.702053, 51.350819,5.00,0.11,254

201,989682,-2,13,327,1.00,3,3,0,0,19,88632,1114,2.49,-0.55,10.01,-6.63,-14.01,13.47,131,1085,-16,-5,26,35.00,11, 35.702053, 51.350819,5.00,0.11,254

201,989968,-3,13,327,1.00,3,3,0,0,18,88632,1114,2.45,-0.50,9.94,-5.29,-16.08,14.44,131,1085,-16,-5,26,35.00,11, 35.702053, 51.350819,5.00,0.15,254

201,990255,-2,13,327,1.00,3,3,0,0,19,88632,1114,2.50,-0.51,10.10,-6.93,-15.84,13.40,131,1085,-16,-5,26,35.00,11, 35.702053, 51.350819,5.00,0.15,254

201,990543,-2,13,327,1.00,3,3,0,0,18,88638,1114,2.50,-0.45,10.03,-5.10,-14.55,12.37,131,1085,-16,-5,26,35.00,11, 35.702053, 51.350819,5.00,0.15,254

201,990830,-2,13,327,1.00,3,3,0,0,18,88634,1114,2.46,-0.46,10.02,-5.90,-16.99,12.98,126,1085,-16,-5,26,35.00,11, 35.702053, 51.350819,5.00,0.15,254

201,991021,-2,13,327,1.00,3,3,0,0,18,88634,1114,2.43,-0.51,9.98,-6.02,-16.69,14.32,127,1085,-16,-5,26,35.00,11, 35.702053, 51.350819,5.00,0.15,254

201,991212,-2,13,327,1.00,3,3,0,0,19,88633,1114,2.44,-0.55,10.01,-6.20,-15.10,13.95,127,1085,-16,-5,26,35.00,11, 35.702053, 51.350819,5.00,0.15,254

201,991404,-2,13,327,1.00,3,3,0,0,19,88635,1114,2.47,-0.50,10.04,-7.30,-16.44,13.10,129,1085,-16,-5,26,35.00,11, 35.702053, 51.350819,5.00,0.15,254

201,991596,-2,13,327,1.00,3,3,0,0,19,88636,1114,2.48,-0.46,10.14,-6.63,-16.44,14.44,132,1085,-16,-5,26,35.00,11, 35.702061, 51.350830,5.00,0.52,254

201,991787,-3,13,327,1.00,3,3,0,0,18,88632,1114,2.49,-0.49,10.03,-6.69,-17.12,13.40,131,1085,-16,-5,26,35.00,11, 35.702061, 51.350830,5.00,0.52,254

201,991978,-2,13,327,1.00,3,3,0,0,19,88634,1114,2.49,-0.45,10.07,-5.71,-15.84,13.53,129,1085,-16,-5,26,35.00,11, 35.702061, 51.350830,5.00,0.52,254

201,992169,-3,13,327,1.00,3,3,0,0,19,88637,1114,2.41,-0.55,10.05,-5.29,-16.99,12.79,130,1085,-16,-5,26,35.00,11, 35.702061, 51.350830,5.00,0.52,254

201,992457,-2,13,327,1.00,3,3,0,0,19,88633,1114,2.49,-0.52,10.00,-6.14,-15.96,13.95,130,1085,-16,-5,26,35.00,11, 35.702061, 51.350830,5.00,0.52,254

201,992744,-2,13,327,1.00,3,3,0,0,18,88631,1114,2.43,-0.49,10.08,-5.96,-16.38,12.49,129,1086,-16,-5,26,35.00,11, 35.702061, 51.350830,5.00,0.32,254

201,993032,-2,13,327,1.00,3,3,0,0,19,88638,1114,2.52,-0.50,10.10,-6.63,-15.84,13.95,126,1086,-16,-5,26,35.00,11, 35.702061, 51.350830,5.00,0.32,254

201,993222,-2,14,327,1.00,3,3,0,0,18,88634,1114,2.42,-0.46,9.98,-6.99,-16.81,13.71,123,1086,-16,-5,26,35.00,11, 35.702061, 51.350830,5.00,0.32,254

201,993413,-2,13,327,1.00,3,3,0,0,20,88634,1114,2.49,-0.43,10.04,-7.91,-16.57,14.26,129,1085,-16,-5,26,35.00,11, 35.702061, 51.350830,5.00,0.32,254

201,993702,-2,13,327,1.00,3,3,0,0,18,88634,1114,2.42,-0.48,10.03,-5.22,-15.90,13.53,133,1085,-16,-5,26,35.00,11, 35.702068, 51.350834,5.00,0.54,254

201,993988,-2,13,327,1.00,3,3,0,0,18,88635,1114,2.47,-0.45,10.10,-7.24,-16.14,12.98,132,1085,-16,-5,26,35.00,11, 35.702068, 51.350834,5.00,0.54,254

201,994276,-2,13,327,1.00,3,3,0,0,19,88636,1114,2.44,-0.52,9.99,-7.54,-16.57,13.10,131,1084,-16,-5,26,35.00,11, 35.702068, 51.350834,5.00,0.54,254

201,994563,-2,14,327,1.00,3,3,0,0,18,88634,1114,2.48,-0.44,10.07,-6.32,-14.55,13.71,127,1085,-16,-5,26,35.00,11, 35.702068, 51.350834,5.00,0.54,254

201,994849,-2,13,327,1.00,3,3,0,0,19,88637,1114,2.50,-0.47,10.06,-5.96,-16.99,14.32,128,1085,-16,-5,26,35.00,11, 35.702068, 51.350834,5.00,0.54,254

201,995137,-2,13,327,1.00,3,3,0,0,19,88635,1114,2.48,-0.45,10.02,-6.02,-16.75,13.71,125,1085,-16,-5,26,35.00,11, 35.702068, 51.350834,5.00,0.54,254

201,995424,-2,13,327,1.00,3,3,0,0,18,88633,1114,2.47,-0.51,10.00,-6.81,-16.08,12.61,128,1085,-16,-5,26,35.00,11, 35.702068, 51.350834,5.00,0.54,254

201,995616,-2,13,327,1.00,3,3,0,0,19,88635,1114,2.51,-0.45,10.02,-7.60,-17.36,13.04,123,1086,-16,-5,26,35.00,11, 35.702080, 51.350849,5.00,0.64,254

201,995807,-2,13,327,1.00,3,3,0,0,18,88631,1114,2.46,-0.51,10.02,-5.71,-15.77,12.79,128,1085,-16,-5,26,35.00,11, 35.702080, 51.350849,5.00,0.64,254

201,995998,-2,13,327,1.00,3,3,0,0,19,88633,1114,2.47,-0.48,10.07,-6.50,-15.84,12.55,126,1085,-16,-5,26,35.00,11, 35.702080, 51.350849,5.00,0.64,254

201,996190,-2,13,327,1.00,3,3,0,0,19,88634,1114,2.47,-0.48,10.02,-5.77,-16.26,13.95,129,1085,-16,-5,26,35.00,11, 35.702080, 51.350849,5.00,0.64,254

201,996477,-2,13,327,1.00,3,3,0,0,19,88635,1114,2.44,-0.48,10.09,-6.20,-16.51,14.32,130,1085,-16,-5,26,35.00,11, 35.702080, 51.350849,5.00,0.64,254

201,996765,-2,14,327,1.00,3,3,0,0,18,88635,1114,2.42,-0.47,10.01,-5.90,-15.65,14.14,130,1085,-16,-5,26,35.00,11, 35.702080, 51.350849,5.00,0.64,254

201,997051,-2,13,327,1.00,3,3,0,0,19,88638,1114,2.50,-0.48,10.04,-6.57,-15.84,14.14,123,1085,-16,-5,26,35.00,11, 35.702080, 51.350849,5.00,0.64,254

201,997339,-3,14,327,1.00,3,3,0,0,19,88634,1114,2.51,-0.50,10.00,-6.08,-15.77,13.10,129,1085,-16,-5,26,35.00,11, 35.702080, 51.350849,5.00,0.64,254

201,997626,-2,14,327,1.00,3,3,0,0,19,88637,1115,2.44,-0.47,10.08,-6.93,-16.93,13.10,127,1086,-16,-5,26,35.00,11, 35.702080, 51.350849,5.00,0.64,254

201,997913,-2,13,327,1.00,3,3,0,0,19,88634,1114,2.48,-0.50,9.99,-7.42,-15.96,13.22,129,1085,-16,-5,26,35.00,11, 35.702080, 51.350849,5.00,0.64,254

201,998200,-2,13,326,1.00,3,3,0,0,19,88635,1114,2.51,-0.45,10.01,-6.44,-17.24,14.38,128,1086,-16,-5,26,35.00,11, 35.702080, 51.350849,5.00,0.64,254

201,998488,-2,13,327,1.00,3,3,0,0,18,88632,1114,2.46,-0.51,10.06,-6.50,-15.59,13.40,127,1085,-16,-5,26,35.00,11, 35.702080, 51.350849,5.00,0.64,254

201,998775,-2,13,327,1.00,3,3,0,0,19,88633,1114,2.49,-0.47,9.99,-6.02,-16.87,14.44,127,1085,-16,-5,26,35.00,11, 35.702080, 51.350849,5.00,0.64,254

201,999156,-2,13,327,1.00,3,3,0,0,19,88636,1114,2.49,-0.49,10.06,-7.42,-16.26,14.08,130,1085,-16,-5,26,35.00,11, 35.702080, 51.350849,5.00,0.64,254

201,999445,-2,13,327,1.00,3,3,0,0,18,88633,1114,2.46,-0.49,10.07,-5.77,-16.44,12.37,128,1085,-16,-5,26,35.00,11, 35.702080, 51.350849,5.00,0.64,254

201,999732,-2,13,327,1.00,3,3,0,0,19,88634,1114,2.44,-0.48,10.10,-6.63,-15.59,13.04,125,1085,-16,-5,26,35.00,11, 35.702095, 51.350834,5.00,0.19,254

201,1000018,-2,13,327,1.00,3,3,0,0,18,88635,1114,2.45,-0.43,10.10,-6.50,-15.71,14.14,125,1085,-16,-5,26,35.00,11, 35.702095, 51.350834,5.00,0.19,254

201,1000210,-2,13,327,1.00,3,3,0,0,19,88636,1114,2.46,-0.50,10.08,-5.16,-16.75,14.08,131,1085,-16,-5,26,35.00,11, 35.702095, 51.350834,5.00,0.19,254

201,1000498,-2,13,327,1.00,3,3,0,0,19,88633,1114,2.45,-0.47,10.00,-6.08,-16.32,13.77,123,1086,-16,-5,26,35.00,11, 35.702095, 51.350834,5.00,0.19,254

201,1000785,-2,13,327,1.00,3,3,0,0,18,88634,1114,2.42,-0.46,10.06,-7.05,-16.63,13.04,132,1085,-16,-5,26,35.00,11, 35.702095, 51.350834,5.00,0.19,254

201,1000976,-2,13,327,1.00,3,3,0,0,19,88634,1114,2.53,-0.43,10.04,-6.32,-16.57,14.26,132,1085,-16,-5,26,35.00,11, 35.702095, 51.350834,5.00,0.19,254

201,1001167,-2,13,327,1.00,3,3,0,0,19,88635,1114,2.48,-0.46,10.08,-5.77,-17.24,13.04,127,1085,-16,-5,26,35.00,11, 35.702095, 51.350834,5.00,0.19,254

201,1001358,-2,13,327,1.00,3,3,0,0,19,88635,1114,2.45,-0.44,9.94,-7.30,-15.16,13.53,130,1085,-16,-5,26,35.00,11, 35.702095, 51.350834,5.00,0.19,254

201,1001550,-2,13,327,1.00,3,3,0,0,19,88632,1114,2.44,-0.46,10.00,-6.87,-16.93,11.76,131,1085,-16,-5,26,35.00,11, 35.702095, 51.350834,5.00,0.19,254

201,1001837,-3,13,327,1.00,3,3,0,0,19,88634,1114,2.49,-0.51,10.03,-6.57,-16.26,13.16,130,1085,-16,-5,26,35.00,11, 35.702095, 51.350834,5.00,0.19,254

201,1002125,-2,13,327,1.00,3,3,0,0,18,88634,1114,2.42,-0.49,10.08,-5.71,-15.77,13.28,131,1085,-16,-5,26,35.00,11, 35.702095, 51.350834,5.00,0.19,254

201,1002412,-2,13,327,1.00,3,3,0,0,19,88635,1114,2.45,-0.47,10.06,-5.53,-15.96,12.86,128,1085,-16,-5,26,35.00,11, 35.702095, 51.350834,5.00,0.19,254

201,1002604,-2,13,327,1.00,3,3,0,0,18,88634,1114,2.44,-0.46,10.07,-7.36,-17.18,12.19,129,1085,-16,-5,26,35.00,11, 35.702099, 51.350834,5.00,0.11,254

201,1002795,-2,13,327,1.00,3,3,0,0,19,88635,1114,2.45,-0.43,9.96,-5.96,-16.51,13.22,127,1085,-16,-5,26,35.00,11, 35.702099, 51.350834,5.00,0.11,254

201,1003081,-2,13,327,1.00,3,3,0,0,18,88633,1114,2.50,-0.49,10.04,-7.18,-16.14,12.86,130,1085,-16,-5,26,35.00,11, 35.702099, 51.350834,5.00,0.11,254

201,1003369,-2,13,327,1.00,3,3,0,0,19,88634,1114,2.47,-0.46,9.96,-4.86,-17.12,12.86,130,1085,-16,-5,26,35.00,11, 35.702099, 51.350834,5.00,0.11,254

201,1003560,-2,14,327,1.00,3,3,0,0,18,88635,1114,2.45,-0.50,10.12,-7.54,-16.02,13.16,128,1085,-16,-5,26,35.00,11, 35.702099, 51.350834,5.00,0.11,254

201,1003752,-2,13,327,1.00,3,3,0,0,19,88635,1114,2.47,-0.50,10.00,-8.09,-15.10,13.04,130,1085,-16,-5,26,35.00,11, 35.702099, 51.350834,5.00,0.11,254

201,1003943,-2,13,327,1.00,3,3,0,0,18,88635,1114,2.42,-0.53,10.10,-6.44,-16.63,12.86,129,1085,-16,-5,26,35.00,11, 35.702099, 51.350834,5.00,0.11,254

201,1004135,-3,13,327,1.00,3,3,0,0,19,88635,1114,2.45,-0.51,10.10,-6.26,-17.60,13.89,130,1085,-16,-5,26,35.00,11, 35.702099, 51.350834,5.00,0.11,254

201,1004421,-2,13,327,1.00,3,3,0,0,18,88635,1114,2.50,-0.54,10.01,-6.44,-15.41,12.12,130,1085,-16,-5,26,35.00,11, 35.702099, 51.350834,5.00,0.11,254

201,1004709,-2,13,327,1.00,3,3,0,0,19,88635,1114,2.46,-0.55,10.12,-7.72,-15.90,14.99,128,1085,-16,-5,26,35.00,11, 35.702103, 51.350811,5.00,0.48,254

201,1004900,-2,14,327,1.00,3,3,0,0,18,88632,1114,2.49,-0.53,10.05,-7.54,-17.12,13.53,126,1085,-16,-5,26,35.00,11, 35.702103, 51.350811,5.00,0.48,254

201,1005091,-2,13,327,1.00,3,3,0,0,19,88633,1114,2.42,-0.44,10.00,-6.26,-16.14,13.65,131,1085,-16,-5,26,35.00,11, 35.702103, 51.350811,5.00,0.48,254

201,1005283,-2,13,327,1.00,3,3,0,0,18,88634,1114,2.47,-0.52,10.09,-5.35,-14.62,13.89,129,1085,-16,-5,26,35.00,11, 35.702103, 51.350811,5.00,0.48,254

201,1005475,-2,13,326,1.00,3,3,0,0,19,88637,1114,2.48,-0.46,10.10,-6.81,-16.63,14.32,126,1085,-16,-5,26,35.00,11, 35.702103, 51.350811,5.00,0.48,254

201,1005762,-2,13,327,1.00,3,3,0,0,19,88634,1114,2.42,-0.47,10.03,-6.14,-16.08,12.86,130,1085,-16,-5,26,35.00,11, 35.702103, 51.350811,5.00,0.48,254

201,1006049,-2,14,327,1.00,3,3,0,0,19,88635,1114,2.46,-0.47,9.97,-6.44,-15.65,14.62,131,1085,-16,-5,26,35.00,11, 35.702103, 51.350811,5.00,0.48,254

201,1006336,-2,13,327,1.00,3,3,0,0,19,88635,1114,2.48,-0.50,10.11,-5.65,-15.77,14.75,130,1085,-16,-5,26,35.00,11, 35.702103, 51.350811,5.00,0.48,254

201,1006624,-2,14,327,1.00,3,3,0,0,18,88633,1114,2.51,-0.52,10.08,-6.99,-14.19,12.86,128,1085,-16,-5,26,35.00,11, 35.702103, 51.350811,5.00,0.48,254

201,1006910,-2,13,327,1.00,3,3,0,0,19,88636,1114,2.44,-0.54,10.01,-6.38,-15.10,13.65,130,1085,-16,-5,26,35.00,11, 35.702103, 51.350811,5.00,0.48,254

201,1007198,-2,13,327,1.00,3,3,0,0,19,88631,1114,2.51,-0.54,10.11,-6.08,-16.32,12.25,129,1085,-16,-5,26,35.00,11, 35.702103, 51.350811,5.00,0.48,254

201,1007485,-2,13,327,1.00,3,3,0,0,18,88632,1114,2.45,-0.52,9.99,-7.42,-16.51,14.38,130,1085,-16,-5,26,35.00,11, 35.702103, 51.350811,5.00,0.48,254

201,1007676,-2,14,327,1.00,3,3,0,0,19,88637,1114,2.49,-0.50,10.05,-6.08,-14.80,15.29,126,1085,-16,-5,26,35.00,11, 35.702103, 51.350811,5.00,0.22,254

201,1007867,-2,14,327,1.00,3,3,0,0,19,88632,1114,2.49,-0.53,10.06,-6.93,-16.87,13.59,125,1085,-16,-5,26,35.00,11, 35.702103, 51.350811,5.00,0.22,254

201,1008059,-2,13,327,1.00,3,3,0,0,19,88636,1114,2.48,-0.52,10.02,-6.69,-16.93,13.10,128,1085,-16,-5,26,35.00,11, 35.702103, 51.350811,5.00,0.22,254

201,1008346,-2,13,327,1.00,3,3,0,0,18,88632,1114,2.46,-0.51,9.98,-6.57,-16.20,13.40,126,1085,-16,-5,26,35.00,11, 35.702103, 51.350811,5.00,0.22,254

201,1008633,-2,13,327,1.00,3,3,0,0,19,88634,1114,2.43,-0.43,10.05,-6.02,-14.80,12.73,129,1085,-16,-5,26,35.00,11, 35.702103, 51.350811,5.00,0.22,254

201,1008920,-2,13,327,1.00,3,3,0,0,18,88636,1114,2.49,-0.54,10.10,-4.68,-16.63,12.79,128,1085,-16,-5,26,35.00,11, 35.702103, 51.350811,5.00,0.22,254

201,1009208,-2,14,327,1.00,3,3,0,0,18,88633,1114,2.50,-0.49,10.05,-6.32,-15.47,13.59,129,1085,-16,-5,26,35.00,11, 35.702103, 51.350811,5.00,0.22,254

201,1009496,-2,13,327,1.00,3,3,0,0,19,88636,1114,2.43,-0.52,9.99,-8.09,-16.32,13.22,129,1085,-16,-5,26,35.00,11, 35.702103, 51.350811,5.00,0.22,254

201,1009782,-2,14,327,1.00,3,3,0,0,18,88633,1114,2.46,-0.51,10.02,-6.32,-15.16,13.47,122,1086,-16,-5,26,35.00,11, 35.702103, 51.350811,5.00,0.22,254

201,1010069,-2,13,327,1.00,3,3,0,0,19,88634,1114,2.42,-0.48,10.10,-7.48,-15.16,14.20,128,1085,-16,-5,26,35.00,11, 35.702103, 51.350811,5.00,0.22,254

201,1010356,-2,13,327,1.00,3,3,0,0,19,88633,1114,2.47,-0.49,10.09,-7.60,-16.08,12.37,129,1085,-16,-5,26,35.00,11, 35.702103, 51.350811,5.00,0.22,254

201,1010643,-2,13,327,1.00,3,3,0,0,18,88634,1114,2.46,-0.50,9.99,-6.08,-16.63,13.71,130,1084,-16,-5,26,35.00,11, 35.702103, 51.350811,5.00,0.22,254

201,1010930,-2,13,327,1.00,3,3,0,0,19,88632,1115,2.45,-0.46,10.07,-5.59,-17.05,12.79,131,1086,-16,-5,26,35.00,11, 35.702103, 51.350811,5.00,0.22,254

201,1011313,-2,13,327,1.00,3,3,0,0,19,88634,1114,2.48,-0.49,10.05,-6.63,-17.54,13.59,130,1085,-16,-5,26,35.00,11, 35.702103, 51.350811,5.00,0.22,254

201,1011697,-2,13,327,1.00,3,3,0,0,18,88632,1115,2.47,-0.49,10.05,-5.41,-15.47,13.28,131,1085,-16,-5,26,35.00,11, 35.702103, 51.350811,5.00,0.22,254

201,1011888,-2,13,327,1.00,3,3,0,0,18,88637,1114,2.45,-0.47,10.05,-7.18,-16.20,13.16,133,1085,-16,-5,26,35.00,11, 35.702103, 51.350811,5.00,0.22,254

201,1012079,-2,13,327,1.00,3,3,0,0,19,88634,1114,2.46,-0.48,10.08,-6.63,-15.84,12.86,131,1085,-16,-5,26,35.00,11, 35.702103, 51.350811,5.00,0.22,254

201,1012366,-2,13,327,1.00,3,3,0,0,18,88634,1114,2.41,-0.48,10.05,-5.41,-15.84,13.65,129,1085,-16,-5,26,35.00,11, 35.702103, 51.350811,5.00,0.22,254

201,1012654,-2,13,327,1.00,3,3,0,0,19,88633,1114,2.49,-0.46,9.96,-7.11,-17.12,12.98,126,1086,-16,-5,26,35.00,11, 35.702103, 51.350811,5.00,0.22,254

201,1012940,-2,14,327,1.00,3,3,0,0,18,88634,1114,2.41,-0.48,10.10,-6.87,-15.65,12.55,124,1086,-16,-5,26,35.00,11, 35.702103, 51.350811,5.00,0.22,254

201,1013227,-2,13,327,1.00,3,3,0,0,19,88633,1114,2.39,-0.47,9.99,-6.26,-13.40,13.53,125,1085,-16,-5,26,35.00,11, 35.702103, 51.350811,5.00,0.22,254

201,1013515,-2,13,327,1.00,3,3,0,0,19,88638,1114,2.47,-0.52,9.98,-6.08,-15.59,12.06,125,1086,-16,-5,26,35.00,11, 35.702103, 51.350811,5.00,0.22,254

201,1013801,-2,13,327,1.00,3,3,0,0,18,88633,1114,2.55,-0.45,10.10,-6.38,-16.14,13.28,126,1085,-16,-5,26,35.00,11, 35.702103, 51.350811,5.00,0.22,254

201,1014089,-3,13,327,1.00,3,3,0,0,19,88633,1114,2.49,-0.48,10.08,-6.93,-16.32,11.58,128,1085,-16,-5,26,35.00,11, 35.702103, 51.350811,5.00,0.22,254

201,1014280,-3,13,326,1.00,3,3,0,0,19,88630,1114,2.45,-0.54,10.06,-6.87,-14.37,12.55,123,1086,-16,-5,26,35.00,11, 35.702103, 51.350811,5.00,0.22,254

201,1014472,-2,13,327,1.00,3,3,0,0,19,88633,1114,2.52,-0.61,9.96,-6.63,-16.38,13.65,123,1085,-16,-5,26,35.00,11, 35.702103, 51.350811,5.00,0.22,254

201,1014664,-2,13,327,1.00,3,3,0,0,19,88636,1114,2.42,-0.48,10.06,-6.44,-16.44,12.25,129,1085,-16,-5,26,35.00,11, 35.702103, 51.350811,5.00,0.22,254

201,1014855,-2,13,327,1.00,3,3,0,0,19,88635,1114,2.45,-0.50,10.03,-6.50,-16.87,13.65,132,1085,-16,-5,26,35.00,11, 35.702103, 51.350811,5.00,0.22,254

201,1015142,-2,13,327,1.00,3,3,0,0,18,88630,1114,2.55,-0.50,10.14,-7.11,-18.03,13.83,130,1085,-16,-5,26,35.00,11, 35.702103, 51.350811,5.00,0.22,254

201,1015429,-3,13,327,1.00,3,3,0,0,19,88635,1114,2.46,-0.41,10.10,-7.24,-17.12,12.79,127,1085,-16,-5,26,35.00,11, 35.702103, 51.350811,5.00,0.22,254

201,1015716,-2,13,327,1.00,3,3,0,0,19,88630,1114,2.46,-0.46,10.08,-7.18,-16.02,11.70,125,1086,-16,-5,26,35.00,11, 35.702095, 51.350830,5.00,0.02,254

201,1015908,-2,13,327,1.00,3,3,0,0,19,88634,1114,2.42,-0.55,10.02,-5.59,-14.01,13.04,128,1085,-16,-5,26,35.00,11, 35.702095, 51.350830,5.00,0.02,254

201,1016099,-2,13,327,1.00,3,3,0,0,18,88635,1114,2.48,-0.44,9.99,-6.32,-16.32,14.38,126,1086,-16,-5,26,35.00,11, 35.702095, 51.350830,5.00,0.02,254

201,1016385,-2,13,327,1.00,3,3,0,0,18,88633,1114,2.49,-0.44,10.05,-5.77,-18.09,13.83,129,1085,-16,-5,26,35.00,11, 35.702095, 51.350830,5.00,0.02,254

201,1016579,-2,13,327,1.00,3,3,0,0,18,88634,1114,2.44,-0.45,9.99,-6.20,-16.20,13.71,130,1085,-16,-5,26,35.00,11, 35.702095, 51.350830,5.00,0.02,254

201,1016769,-2,14,327,1.00,3,3,0,0,19,88634,1114,2.49,-0.48,10.01,-8.40,-14.49,13.22,129,1085,-16,-5,26,35.00,11, 35.702095, 51.350830,5.00,0.02,254

201,1016961,-2,13,327,1.00,3,3,0,0,18,88632,1114,2.49,-0.48,10.01,-6.32,-16.57,11.82,123,1086,-16,-5,26,35.00,11, 35.702095, 51.350830,5.00,0.02,254

201,1017152,-2,13,327,1.00,3,3,0,0,19,88635,1114,2.43,-0.54,10.05,-5.96,-16.38,13.65,125,1085,-16,-5,26,35.00,11, 35.702095, 51.350830,5.00,0.02,254

201,1017342,-2,13,327,1.00,3,3,0,0,18,88636,1114,2.42,-0.53,10.02,-6.44,-17.18,13.22,130,1086,-16,-5,26,35.00,11, 35.702095, 51.350830,5.00,0.02,254

201,1017535,-2,13,327,1.00,3,3,0,0,19,88636,1114,2.46,-0.50,10.01,-5.53,-16.44,13.59,126,1086,-16,-5,26,35.00,11, 35.702095, 51.350830,5.00,0.02,254

201,1017822,-3,13,327,1.00,3,3,0,0,18,88636,1114,2.45,-0.50,9.99,-6.38,-18.46,12.98,132,1085,-16,-5,26,35.00,11, 35.702095, 51.350830,5.00,0.02,254

201,1018108,-2,13,327,1.00,3,3,0,0,19,88635,1114,2.44,-0.49,10.09,-6.38,-15.16,10.97,133,1085,-16,-5,26,35.00,11, 35.702095, 51.350830,5.00,0.02,254

201,1018395,-2,13,327,1.00,3,3,0,0,19,88634,1114,2.49,-0.52,10.03,-6.32,-16.14,11.82,129,1085,-16,-5,26,35.00,11, 35.702095, 51.350830,5.00,0.02,254

201,1018684,-2,13,327,1.00,3,3,0,0,19,88635,1114,2.43,-0.53,10.05,-6.87,-16.69,13.71,126,1086,-16,-5,26,35.00,11, 35.702095, 51.350830,5.00,0.02,254

201,1018874,-2,14,327,1.00,3,3,0,0,19,88635,1114,2.48,-0.52,10.04,-6.99,-15.16,13.04,129,1085,-16,-5,26,35.00,11, 35.702095, 51.350830,5.00,0.02,254

201,1019162,-2,13,327,1.00,3,3,0,0,18,88635,1114,2.50,-0.50,10.00,-5.59,-16.87,13.89,128,1085,-16,-5,26,35.00,11, 35.702095, 51.350830,5.00,0.02,254

201,1019450,-2,13,327,1.00,3,3,0,0,19,88634,1114,2.49,-0.50,9.99,-6.38,-16.08,12.67,123,1086,-16,-5,26,32.00,11, 35.702095, 51.350830,5.00,0.02,254

201,1019736,-2,14,325,1.00,3,3,0,0,18,88634,1114,2.42,-0.42,10.07,-2.91,-12.79,15.11,119,1085,-16,-5,26,35.00,11, 35.702087, 51.350842,5.00,0.09,254

201,1019928,-3,14,325,1.00,3,3,0,0,19,88639,1114,2.46,-0.50,9.65,-1.87,-2.79,11.51,107,1085,-25,-5,26,35.00,11, 35.702087, 51.350842,5.00,0.09,254

201,1020119,-2,13,327,1.00,3,3,0,0,18,88636,1114,2.52,-0.69,10.03,-11.38,-21.20,10.66,102,1091,-16,-6,26,35.00,11, 35.702087, 51.350842,5.00,0.09,254201,1020405,-3,13,326,1.00,3,3,0,0,19,88636,1114,2.44,-0.46,10.32,-5.96,-16.87,13.22,102,1090,-16,-6,26,35.00,11, 35.702087, 51.350842,5.00,0.09,254

201,1020695,-2,13,328,1.00,3,3,0,0,18,88637,1114,2.48,-0.49,10.05,-7.42,-14.01,17.12,100,1088,-15,-6,26,34.00,11, 35.702087, 51.350842,5.00,0.03,254

201,1020981,-1,12,327,1.00,3,3,0,0,18,88635,1114,2.45,-0.37,10.10,-6.38,-15.16,14.38,102,1089,-12,-6,26,35.00,11, 35.702087, 51.350842,5.00,0.03,254

201,1021172,-3,19,328,1.00,3,3,0,0,18,88632,1114,2.91,-0.42,10.75,2.28,-43.52,15.72,98,1083,-29,-6,26,35.00,11, 35.702087, 51.350842,5.00,0.03,254

201,1021363,-4,15,327,1.00,3,3,0,0,18,88635,1114,2.79,-0.22,9.76,0.20,-3.82,9.44,101,1091,-10,-6,26,35.00,11, 35.702087, 51.350842,5.00,0.03,254

201,1021555,-3,12,328,1.00,3,3,0,0,19,88635,1114,2.68,-0.74,9.84,-7.79,-26.26,11.45,99,1084,-18,-6,26,35.00,11, 35.702087, 51.350842,5.00,0.03,254

201,1021842,-3,15,327,1.00,3,3,0,0,19,88634,1114,2.68,-0.50,10.19,-14.07,-8.52,10.84,102,1089,-15,-6,26,34.00,11, 35.702087, 51.350842,5.00,0.03,254

201,1022130,-3,13,325,1.00,3,3,0,0,19,88635,1114,2.35,-0.55,10.11,-6.32,-11.45,12.79,104,1090,-13,-6,26,35.00,11, 35.702087, 51.350842,5.00,0.03,254

201,1022416,-1,14,328,1.00,3,3,0,0,18,88636,1114,2.50,-0.47,9.92,-4.19,-7.48,15.84,104,1088,-9,-6,26,35.00,11, 35.702087, 51.350842,5.00,0.03,254

201,1022704,-2,13,327,1.00,3,3,0,0,18,88636,1114,2.62,-0.71,10.04,-7.30,-19.74,15.17,100,1088,-16,-6,26,35.00,11, 35.702084, 51.350849,5.00,0.04,254

201,1022991,-3,12,326,1.00,3,3,0,0,19,88634,1114,2.45,-0.47,10.22,-11.26,-14.07,10.30,103,1087,-14,-6,26,34.00,11, 35.702084, 51.350849,5.00,0.04,254201,1023374,-2,12,327,1.00,3,3,0,0,19,88633,1114,2.44,-0.42,10.29,-9.37,-15.90,13.53,103,1088,-20,-6,26,35.00,11, 35.702084, 51.350849,5.00,0.04,254

201,1023662,-3,13,327,1.00,3,3,0,0,18,88637,1114,2.30,-0.53,10.07,-9.43,-22.18,8.59,100,1088,-13,-6,26,35.00,11, 35.702084, 51.350849,5.00,0.04,254

201,1023948,-2,15,328,1.00,3,3,0,0,18,88632,1114,2.71,-0.43,9.84,-9.49,-17.97,12.43,102,1088,-15,-6,26,35.00,11, 35.702084, 51.350849,5.00,0.04,254

201,1024140,-3,15,327,1.00,3,3,0,0,19,88636,1114,2.58,-0.48,10.08,-6.75,-14.74,13.47,104,1087,-16,-6,26,35.00,11, 35.702084, 51.350849,5.00,0.04,254

201,1024427,-2,14,328,1.00,3,3,0,0,19,88637,1114,2.56,-0.57,9.70,-7.60,-11.63,12.92,101,1088,-13,-6,26,35.00,11, 35.702084, 51.350849,5.00,0.04,254

201,1024714,-2,13,327,1.00,3,3,0,0,19,88632,1114,2.65,-0.51,10.58,-4.49,-21.93,11.64,103,1086,-18,-6,26,35.00,11, 35.702080, 51.350857,5.00,0.06,254

201,1025001,-3,14,327,1.00,3,3,0,0,18,88636,1114,2.54,-0.55,9.96,-9.74,-12.79,12.00,98,1088,-14,-6,26,35.00,11, 35.702080, 51.350857,5.00,0.06,254

201,1025288,-2,13,326,1.00,3,3,0,0,19,88637,1114,2.49,-0.47,10.01,-7.18,-17.30,13.04,103,1088,-14,-6,26,34.00,11, 35.702080, 51.350857,5.00,0.06,254

201,1025576,-2,15,327,1.00,3,3,0,0,19,88635,1114,2.63,-0.59,10.05,-5.96,-11.93,13.95,103,1088,-14,-6,26,35.00,11, 35.702080, 51.350857,5.00,0.06,254

201,1025862,-2,13,327,1.00,3,3,0,0,19,88635,1114,2.51,-0.63,10.13,-1.63,-15.53,14.56,101,1086,-21,-6,26,35.00,11, 35.702080, 51.350857,5.00,0.06,254

201,1026150,-2,13,327,1.00,3,3,0,0,19,88636,1114,2.53,-0.51,10.18,-6.57,-14.49,13.53,104,1088,-14,-6,26,35.00,11, 35.702080, 51.350857,5.00,0.06,254

201,1026437,-2,13,327,1.00,3,3,0,0,18,88633,1114,2.48,-0.49,9.89,-10.35,-14.43,11.45,101,1088,-14,-6,26,35.00,11, 35.702080, 51.350857,5.00,0.06,254

201,1026724,-3,15,327,1.00,3,3,0,0,19,88633,1114,2.63,-0.55,9.66,-6.20,-13.58,12.86,101,1087,-14,-6,26,34.00,11, 35.702076, 51.350864,5.00,0.05,254

201,1026915,-2,15,327,1.00,3,3,0,0,19,88636,1114,2.66,-0.56,10.11,-6.99,-18.70,15.90,101,1088,-22,-6,26,35.00,11, 35.702076, 51.350864,5.00,0.05,254

201,1027203,-3,12,327,1.00,3,3,0,0,19,88638,1114,2.32,-0.45,10.16,-5.71,-19.86,12.12,105,1088,-14,-6,26,35.00,11, 35.702076, 51.350864,5.00,0.05,254

201,1027490,-2,14,328,1.00,3,3,0,0,18,88637,1114,2.69,-0.52,9.84,-10.29,-14.68,11.88,99,1087,-14,-6,26,34.00,11, 35.702076, 51.350864,5.00,0.05,254

201,1027777,-1,13,327,1.00,3,3,0,0,18,88638,1114,2.54,-0.63,9.52,-10.41,-11.63,13.77,105,1088,-13,-6,26,34.00,11, 35.702076, 51.350864,5.00,0.05,254

201,1028064,-2,13,326,1.00,3,3,0,0,19,88638,1114,2.55,-0.41,9.91,-7.85,-14.92,12.25,109,1088,-12,-6,26,34.00,11, 35.702076, 51.350864,5.00,0.05,254

