checksumStart,logTime,missionTime,roll,pitch,heading,airSpeed,elevator,aileron,alfa,betha,standAngle,pressure,pressureAlt,ax,ay,az,p,q,r,lc1,lc2,lc3,lc4,temprature,voltage,GPSSats,GPSLat,GPSLong,GPSAlt,GPSSpeed,checksumEnd201,18668,6863,-1,-10,352,4.89,10,0,-17,39,-10,88006,1172,-1.79,-0.24,9.63,0.06,0.32,0.07,1366,973,-294,24,25,0,0, 35.702179, 51.350883,0.00,0.44,254
201,18956,7150,-1,-10,353,4.89,10,0,-17,39,-10,88006,1172,-1.75,-0.23,9.64,0.00,-0.16,0.13,1367,972,-294,24,25,0,0, 35.702179, 51.350883,0.00,0.44,254
201,19148,7438,-1,-10,352,3.46,11,0,-17,40,-10,88005,1173,-1.75,-0.18,9.64,0.06,0.08,0.01,1367,972,-294,24,25,0,0, 35.702175, 51.350895,0.00,0.34,254
201,19435,7629,-1,-10,352,3.46,11,0,-17,39,-10,88006,1173,-1.72,-0.17,9.65,-0.12,0.14,0.01,1367,972,-294,24,25,0,0, 35.702175, 51.350895,0.00,0.34,254
201,19722,7916,-1,-10,352,3.46,11,0,-17,39,-10,88003,1173,-1.72,-0.27,9.64,0.19,0.02,-0.05,1367,973,-294,24,25,0,0, 35.702175, 51.350895,0.00,0.34,254
201,20009,8204,-1,-10,352,3.46,10,0,-17,40,-10,88005,1173,-1.79,-0.28,9.63,-0.06,-0.16,0.20,1367,973,-293,24,25,0,0, 35.702175, 51.350895,0.00,0.34,254
201,20201,8492,-1,-10,352,4.89,10,0,-17,39,-10,88006,1172,-1.80,-0.25,9.63,-0.12,0.08,-0.11,1366,972,-294,24,25,0,0, 35.702175, 51.350895,0.00,0.34,254
201,20392,8682,-1,-10,352,3.46,11,0,-17,39,-10,88005,1173,-1.73,-0.27,9.64,0.06,-0.16,0.07,1364,974,-293,24,25,0,0, 35.702175, 51.350895,0.00,0.34,254
201,20679,8873,-1,-10,352,4.89,10,0,-17,39,-10,88005,1173,-1.80,-0.25,9.63,-0.12,0.02,-0.11,1366,973,-293,24,25,0,0, 35.702175, 51.350895,0.00,0.34,254
201,20966,9161,-1,-10,352,4.89,10,0,-17,40,-10,88007,1173,-1.82,-0.25,9.63,0.12,-0.10,0.01,1366,972,-293,24,25,0,0, 35.702175, 51.350895,0.00,0.34,254
201,21253,9448,-1,-10,352,4.89,10,0,-18,39,-10,87999,1173,-1.77,-0.25,9.64,0.12,0.02,-0.05,1366,973,-293,24,25,0,0, 35.702171, 51.350903,0.00,0.26,254
201,21444,9735,-1,-10,352,3.46,10,0,-17,40,-10,88005,1173,-1.72,-0.20,9.65,0.00,0.02,0.07,1368,973,-293,24,25,0,0, 35.702171, 51.350903,0.00,0.26,254
201,21637,9925,-1,-10,353,4.89,10,0,-18,39,-10,88006,1173,-1.83,-0.24,9.63,-0.12,0.02,-0.11,1367,972,-293,24,25,0,0, 35.702171, 51.350903,0.00,0.26,254
201,21924,10118,-1,-10,353,3.46,11,0,-17,39,-10,88004,1173,-1.80,-0.24,9.63,0.06,-0.10,-0.05,1367,973,-293,24,25,0,0, 35.702171, 51.350903,0.00,0.26,254
201,22211,10406,-1,-10,353,4.89,10,0,-18,39,-10,88004,1173,-1.70,-0.27,9.65,0.00,-0.16,0.20,1367,973,-294,24,25,0,0, 35.702171, 51.350906,0.00,0.25,254
201,22498,10692,-1,-10,353,3.46,11,0,-17,39,-10,88005,1173,-1.77,-0.27,9.64,0.00,-0.04,0.13,1366,973,-294,24,25,0,0, 35.702171, 51.350906,0.00,0.25,254
201,22785,10980,-1,-10,352,4.89,10,0,-17,39,-10,88006,1173,-1.75,-0.24,9.64,0.00,-0.16,0.07,1365,973,-294,24,25,0,0, 35.702171, 51.350906,0.00,0.25,254
201,23073,11268,-1,-10,352,3.46,10,0,-18,39,-10,88002,1173,-1.73,-0.27,9.64,-0.30,0.02,0.07,1363,974,-293,24,25,0,0, 35.702171, 51.350906,0.00,0.25,254
201,23456,11554,-1,-10,352,5.99,10,0,-18,39,-10,88001,1173,-1.73,-0.25,9.64,-0.06,0.02,-0.17,1360,974,-294,24,25,0,0, 35.702171, 51.350906,0.00,0.25,254
201,23743,11937,-1,-10,352,3.46,10,0,-18,39,-10,88003,1173,-1.75,-0.25,9.64,0.12,-0.10,0.07,1368,971,-294,24,25,0,0, 35.702171, 51.350906,0.00,0.25,254
201,24030,12225,-1,-10,352,3.46,10,0,-17,39,-10,88003,1173,-1.82,-0.24,9.63,0.06,0.08,-0.05,1372,971,-293,24,25,0,0, 35.702171, 51.350906,0.00,0.25,254
201,24221,12512,-1,-10,352,3.46,10,0,-17,40,-10,88003,1173,-1.82,-0.29,9.62,-0.12,-0.04,0.13,1368,972,-293,24,25,0,0, 35.702171, 51.350906,0.00,0.25,254
201,24509,12703,-1,-10,353,4.89,10,0,-17,40,-10,88005,1173,-1.78,-0.33,9.63,0.00,-0.16,0.13,1361,975,-293,24,25,0,0, 35.702171, 51.350906,0.00,0.25,254
201,24796,12989,-1,-10,353,3.46,11,0,-17,39,-10,88002,1173,-1.83,-0.30,9.62,-0.06,0.02,0.01,1367,973,-293,24,25,0,0, 35.702171, 51.350906,0.00,0.25,254
201,25083,13278,-1,-10,353,4.89,11,0,-17,39,-10,88001,1173,-1.76,-0.25,9.64,-0.18,0.08,-0.05,1368,972,-293,25,25,0,0, 35.702171, 51.350906,0.00,0.25,254
201,25370,13564,-1,-10,352,3.46,11,0,-17,39,-10,88002,1173,-1.78,-0.22,9.64,-0.06,0.02,0.07,1368,972,-294,24,25,0,0, 35.702171, 51.350906,0.00,0.25,254
201,25654,13851,-1,-10,353,3.46,10,0,-17,39,-10,88005,1173,-1.74,-0.25,9.64,0.06,-0.16,0.13,1368,972,-294,24,25,0,0, 35.702171, 51.350906,0.00,0.25,254
201,26041,14138,-1,-10,353,3.46,10,0,-18,39,-10,88002,1173,-1.77,-0.27,9.64,0.00,-0.04,-0.05,1367,971,-293,24,25,0,0, 35.702171, 51.350906,0.00,0.25,254
201,26325,14523,-1,-10,352,4.89,10,0,-18,39,-10,88000,1173,-1.78,-0.21,9.63,0.06,0.26,-0.17,1367,972,-293,24,25,0,0, 35.702171, 51.350925,0.00,0.13,254
201,26519,14809,-1,-10,353,4.89,10,0,-17,39,-10,88003,1173,-1.75,-0.28,9.64,0.12,-0.22,0.20,1366,973,-294,24,25,0,0, 35.702171, 51.350925,0.00,0.13,254
201,26711,14999,-1,-10,352,4.89,10,0,-17,39,-10,88003,1173,-1.73,-0.22,9.64,-0.06,0.14,-0.05,1366,972,-294,24,25,0,0, 35.702171, 51.350925,0.00,0.13,254
201,26899,15193,-1,-10,353,4.89,11,0,-18,39,-10,88003,1173,-1.83,-0.31,9.62,0.00,-0.10,0.13,1366,973,-294,24,25,0,0, 35.702171, 51.350925,0.00,0.13,254
201,27187,15383,-1,-10,353,4.89,10,0,-18,39,-10,88003,1173,-1.75,-0.25,9.64,-0.18,-0.10,0.01,1366,973,-292,24,25,0,0, 35.702171, 51.350925,0.00,0.13,254
201,27475,15671,-1,-10,353,4.89,11,0,-17,40,-10,88003,1173,-1.74,-0.24,9.64,0.12,-0.04,0.13,1366,973,-292,24,25,0,0, 35.702171, 51.350925,0.00,0.13,254
201,27761,15956,-1,-10,353,3.46,10,0,-18,39,-10,88002,1173,-1.79,-0.23,9.63,-0.12,0.08,0.01,1367,972,-293,24,25,0,0, 35.702171, 51.350925,0.00,0.13,254
201,27953,16245,-1,-10,353,4.89,10,0,-18,39,-10,88005,1172,-1.77,-0.21,9.64,0.12,-0.04,0.13,1368,972,-293,24,25,0,0, 35.702171, 51.350925,0.00,0.13,254
201,28145,16436,-1,-10,353,3.46,11,0,-17,39,-10,88004,1173,-1.79,-0.20,9.63,-0.06,-0.16,0.20,1368,972,-293,24,25,0,0, 35.702171, 51.350925,0.00,0.13,254
201,28334,16627,-1,-10,353,4.89,10,0,-18,39,-10,88005,1173,-1.76,-0.27,9.64,0.00,0.26,0.01,1367,972,-293,25,25,0,0, 35.702171, 51.350925,0.00,0.13,254
201,28526,16819,-1,-10,352,4.89,10,0,-18,39,-10,88003,1173,-1.72,-0.27,9.64,-0.06,-0.35,0.01,1367,972,-293,24,25,0,0, 35.702171, 51.350925,0.00,0.13,254
201,28718,17009,-2,-10,352,4.89,10,0,-18,39,-10,88008,1173,-1.74,-0.17,9.64,0.00,0.32,-0.17,1367,972,-293,24,25,0,0, 35.702171, 51.350925,0.00,0.13,254
201,28910,17202,-1,-10,353,3.46,11,0,-17,39,-10,88003,1173,-1.76,-0.35,9.63,0.00,0.02,0.01,1367,971,-294,24,25,0,0, 35.702171, 51.350925,0.00,0.13,254
201,29102,17393,-1,-10,353,4.89,10,0,-18,39,-10,88004,1173,-1.72,-0.26,9.64,-0.18,-0.22,0.07,1366,972,-293,24,25,0,0, 35.702171, 51.350925,0.00,0.13,254
201,29294,17585,-1,-10,352,3.46,11,0,-17,40,-10,88005,1173,-1.75,-0.28,9.64,-0.06,0.26,0.01,1366,973,-293,24,25,0,0, 35.702171, 51.350925,0.00,0.13,254
201,29486,17775,-1,-10,353,3.46,10,0,-17,39,-10,88003,1173,-1.72,-0.25,9.64,-0.06,-0.04,0.20,1366,972,-294,24,25,0,0, 35.702171, 51.350925,0.00,0.13,254
201,29770,17967,-1,-10,352,4.89,10,0,-18,39,-10,88005,1173,-1.79,-0.22,9.63,0.06,0.08,0.20,1366,972,-292,24,25,0,0, 35.702171, 51.350925,0.00,0.13,254
201,30058,18254,-1,-10,352,4.89,10,0,-18,39,-10,88005,1173,-1.73,-0.30,9.64,-0.12,-0.04,-0.11,1367,972,-293,24,25,0,0, 35.702171, 51.350925,0.00,0.13,254
201,30346,18542,-1,-10,353,4.89,10,0,-18,39,-10,88007,1173,-1.72,-0.20,9.65,-0.06,-0.04,0.07,1367,972,-293,24,25,0,0, 35.702171, 51.350925,0.00,0.13,254
201,30634,18828,-1,-10,352,3.46,11,0,-17,40,-10,88003,1173,-1.77,-0.27,9.63,0.06,0.08,-0.05,1367,972,-293,25,25,0,0, 35.702171, 51.350925,0.00,0.13,254
201,30822,19115,-1,-10,353,4.89,10,0,-18,39,-10,88005,1173,-1.74,-0.26,9.64,-0.06,0.02,-0.05,1367,974,-292,24,25,0,0, 35.702171, 51.350925,0.00,0.13,254
201,31110,19307,-1,-10,353,3.46,11,0,-17,39,-10,88006,1173,-1.76,-0.29,9.64,0.12,-0.16,0.07,1366,974,-293,24,25,0,0, 35.702171, 51.350925,0.00,0.13,254
201,31397,19594,-1,-10,352,4.89,10,0,-18,39,-10,88004,1173,-1.77,-0.25,9.64,-0.06,0.02,0.01,1365,974,-293,24,25,0,0, 35.702171, 51.350925,0.00,0.13,254
201,31686,19880,-1,-10,352,4.89,10,0,-18,39,-10,88004,1173,-1.79,-0.27,9.63,-0.06,-0.10,-0.11,1366,974,-292,25,25,0,0, 35.702171, 51.350925,0.00,0.13,254
201,31878,20169,0,-10,353,4.89,10,0,-17,40,-10,88008,1173,-1.80,-0.22,9.63,0.00,-0.10,0.07,1371,971,-293,24,25,0,0, 35.702171, 51.350925,0.00,0.13,254
201,32067,20359,-1,-10,352,4.89,10,0,-17,39,-10,88005,1173,-1.71,-0.25,9.65,0.06,-0.04,-0.05,1371,972,-293,24,25,0,0, 35.702183, 51.350933,0.00,0.13,254
201,32355,20551,-1,-10,352,4.89,11,0,-17,40,-10,88006,1173,-1.78,-0.24,9.63,0.00,0.02,-0.05,1369,972,-294,24,25,0,0, 35.702183, 51.350933,0.00,0.13,254
201,32643,20838,-1,-10,352,4.89,10,0,-18,39,-10,88006,1173,-1.75,-0.26,9.64,0.06,-0.16,0.13,1365,973,-293,24,25,0,0, 35.702183, 51.350933,0.00,0.13,254
201,32931,21125,-1,-10,352,3.46,11,0,-17,40,-10,88006,1173,-1.79,-0.31,9.63,0.12,0.02,0.13,1367,973,-293,24,25,0,0, 35.702183, 51.350933,0.00,0.13,254
201,33123,21412,-1,-10,353,4.89,10,0,-17,39,-10,88006,1173,-1.81,-0.29,9.63,0.00,0.20,0.07,1364,974,-293,24,25,0,0, 35.702175, 51.350941,0.00,0.22,254
201,33311,21603,-1,-10,353,3.46,11,0,-17,39,-10,88005,1173,-1.79,-0.29,9.63,0.00,0.14,0.01,1364,973,-293,24,25,0,0, 35.702175, 51.350941,0.00,0.22,254
201,33503,21794,-1,-10,353,5.99,10,0,-18,39,-10,88006,1173,-1.72,-0.30,9.64,-0.18,0.08,0.01,1367,973,-293,24,25,0,0, 35.702175, 51.350941,0.00,0.22,254
201,33791,21986,-1,-10,352,4.89,11,0,-17,39,-10,88007,1173,-1.81,-0.31,9.63,0.06,0.20,0.13,1367,973,-293,24,25,0,0, 35.702175, 51.350941,0.00,0.22,254
201,34079,22274,-1,-10,353,3.46,10,0,-17,39,-10,88005,1173,-1.72,-0.19,9.65,0.06,-0.35,0.01,1365,973,-293,25,25,0,0, 35.702175, 51.350941,0.00,0.22,254
201,34367,22560,-1,-10,352,3.46,10,0,-18,39,-10,88007,1173,-1.78,-0.31,9.63,0.00,0.02,-0.11,1369,972,-293,24,25,0,0, 35.702175, 51.350941,0.00,0.22,254
201,34651,22848,-1,-10,353,3.46,11,0,-17,40,-10,88006,1173,-1.74,-0.29,9.64,0.00,-0.16,0.13,1369,973,-293,24,25,0,0, 35.702175, 51.350941,0.00,0.22,254
201,34939,23135,-1,-10,352,3.46,11,0,-17,39,-10,88004,1173,-1.73,-0.23,9.64,0.19,0.08,-0.05,1368,972,-293,24,25,0,0, 35.702175, 51.350941,0.00,0.22,254
201,35227,23422,-1,-10,353,4.89,11,0,-17,39,-10,88004,1173,-1.76,-0.14,9.64,-0.12,0.02,-0.05,1369,972,-293,24,25,0,0, 35.702175, 51.350945,0.00,0.07,254
201,35515,23709,-1,-10,353,3.46,11,0,-17,40,-10,88004,1173,-1.78,-0.22,9.63,-0.06,-0.04,0.13,1367,973,-293,24,25,0,0, 35.702175, 51.350945,0.00,0.07,254
201,35800,23996,-1,-10,353,3.46,11,0,-17,40,-10,88004,1173,-1.70,-0.20,9.65,-0.06,-0.16,0.26,1365,973,-292,24,25,0,0, 35.702175, 51.350945,0.00,0.07,254
201,35991,24285,-1,-10,353,4.89,11,0,-17,39,-10,88001,1172,-1.77,-0.22,9.64,-0.06,-0.10,0.07,1368,973,-293,25,25,0,0, 35.702175, 51.350945,0.00,0.07,254
201,36280,24475,-1,-10,353,4.89,11,0,-17,40,-10,88002,1173,-1.75,-0.25,9.64,0.00,0.08,0.20,1369,973,-293,24,25,0,0, 35.702175, 51.350948,0.00,0.09,254
201,36568,24762,-1,-10,352,4.89,10,0,-18,39,-10,88005,1173,-1.74,-0.25,9.64,0.00,-0.10,0.01,1367,973,-293,24,25,0,0, 35.702175, 51.350948,0.00,0.09,254
201,36856,25049,-1,-10,352,3.46,11,0,-17,39,-10,88004,1173,-1.80,-0.25,9.63,0.12,-0.04,0.01,1370,972,-293,25,25,0,0, 35.702175, 51.350948,0.00,0.09,254
201,37140,25337,-1,-10,353,3.46,11,0,-17,39,-10,88007,1173,-1.76,-0.24,9.64,-0.06,0.02,0.01,1369,972,-293,25,25,0,0, 35.702175, 51.350948,0.00,0.09,254
201,37428,25623,-1,-10,352,4.89,10,0,-18,39,-10,88004,1173,-1.74,-0.32,9.64,-0.12,0.08,-0.11,1366,973,-293,25,25,0,0, 35.702175, 51.350948,0.00,0.09,254
201,37716,25911,-1,-10,353,4.89,10,0,-17,40,-10,88005,1173,-1.71,-0.24,9.65,-0.30,0.26,0.01,1368,973,-292,25,25,0,0, 35.702175, 51.350948,0.00,0.09,254
201,38004,26199,-1,-10,353,4.89,10,0,-18,39,-10,88002,1173,-1.76,-0.20,9.64,-0.06,-0.29,0.13,1368,973,-293,25,25,0,0, 35.702175, 51.350948,0.00,0.09,254
201,38292,26485,-1,-10,352,3.46,11,0,-17,39,-10,88004,1173,-1.71,-0.27,9.65,-0.12,0.08,0.07,1368,973,-292,25,25,0,0, 35.702175, 51.350948,0.00,0.09,254
201,38576,26772,-1,-10,353,3.46,10,0,-17,40,-10,88004,1173,-1.78,-0.26,9.63,-0.18,0.08,0.07,1369,972,-293,25,25,0,0, 35.702175, 51.350948,0.00,0.09,254
201,38864,27058,-1,-10,353,3.46,11,0,-17,40,-10,88004,1173,-1.73,-0.25,9.64,0.19,0.08,-0.05,1368,972,-293,25,25,0,0, 35.702175, 51.350948,0.00,0.09,254
201,39248,27346,-1,-10,352,4.89,10,0,-18,39,-10,88005,1173,-1.75,-0.29,9.64,0.06,0.02,-0.05,1366,973,-293,25,25,0,0, 35.702175, 51.350948,0.00,0.09,254
201,39536,27728,-1,-10,352,3.46,10,0,-17,40,-10,88006,1173,-1.78,-0.28,9.63,0.12,-0.29,-0.11,1367,970,-293,25,25,0,0, 35.702175, 51.350948,0.00,0.09,254
201,39724,28016,-1,-10,352,3.46,11,0,-17,39,-10,88005,1173,-1.75,-0.28,9.64,0.06,-0.04,0.13,1367,973,-293,25,25,0,0, 35.702175, 51.350948,0.00,0.09,254
201,39916,28208,-1,-10,352,4.89,10,0,-18,39,-10,88010,1173,-1.83,-0.28,9.62,-0.06,-0.16,0.20,1367,971,-293,25,25,0,0, 35.702175, 51.350948,0.00,0.09,254
201,40108,28400,-1,-10,352,3.46,11,0,-17,40,-10,88006,1173,-1.71,-0.23,9.65,-0.06,-0.16,0.01,1368,972,-293,25,25,0,0, 35.702175, 51.350948,0.00,0.09,254
201,40302,28591,-1,-10,352,3.46,10,0,-17,39,-10,88008,1172,-1.76,-0.24,9.64,-0.06,-0.04,-0.11,1368,971,-293,24,25,0,0, 35.702175, 51.350948,0.00,0.09,254
201,40490,28782,-1,-10,353,3.46,10,0,-17,40,-10,88008,1172,-1.79,-0.25,9.63,-0.12,-0.10,0.07,1367,973,-292,24,25,0,0, 35.702175, 51.350948,0.00,0.09,254
201,40682,28973,-1,-10,353,3.46,10,0,-17,40,-10,88006,1172,-1.81,-0.15,9.63,-0.18,0.08,0.07,1366,972,-293,25,25,0,0, 35.702175, 51.350948,0.00,0.09,254
201,40874,29165,-1,-10,353,4.89,10,0,-17,39,-10,88007,1172,-1.78,-0.20,9.64,-0.06,-0.04,0.01,1366,972,-294,25,25,0,0, 35.702175, 51.350948,0.00,0.09,254
201,41064,29357,-1,-10,352,3.46,11,0,-17,39,-10,88008,1173,-1.75,-0.26,9.64,-0.24,-0.29,0.13,1367,973,-294,25,25,0,0, 35.702156, 51.350975,0.00,0.19,254
201,41256,29548,-1,-10,353,4.89,10,0,-18,39,-10,88005,1172,-1.76,-0.26,9.64,0.00,-0.16,0.26,1368,972,-293,25,25,0,0, 35.702156, 51.350975,0.00,0.19,254
201,41544,29739,-1,-10,353,4.89,10,0,-18,39,-10,88008,1172,-1.72,-0.26,9.64,0.06,-0.10,0.07,1368,972,-293,25,25,0,0, 35.702156, 51.350975,0.00,0.19,254
201,41832,30025,-1,-10,353,3.46,10,0,-18,39,-10,88005,1172,-1.74,-0.25,9.64,-0.24,-0.04,0.13,1367,972,-292,25,25,0,0, 35.702156, 51.350975,0.00,0.19,254
201,42120,30314,-1,-9,352,3.46,11,0,-17,40,-9,88005,1172,-1.72,-0.27,9.64,-0.12,0.02,-0.05,1367,972,-292,25,25,0,0, 35.702156, 51.350975,0.00,0.19,254
201,42308,30600,-1,-10,353,3.46,11,0,-17,39,-10,88007,1172,-1.81,-0.25,9.63,-0.12,-0.10,0.01,1368,972,-293,25,25,0,0, 35.702156, 51.350975,0.00,0.19,254
201,42500,30792,-1,-10,352,4.89,10,0,-18,39,-10,88006,1172,-1.80,-0.23,9.63,0.12,-0.04,0.01,1366,972,-293,25,25,0,0, 35.702156, 51.350975,0.00,0.19,254
201,42692,30983,-1,-10,352,4.89,10,0,-18,39,-10,88008,1172,-1.77,-0.22,9.64,0.00,0.02,-0.11,1368,973,-293,25,25,0,0, 35.702156, 51.350975,0.00,0.19,254
201,42980,31175,-1,-10,353,3.46,10,0,-17,40,-10,88008,1173,-1.70,-0.24,9.65,-0.06,-0.16,0.01,1367,973,-293,25,25,0,0, 35.702156, 51.350975,0.00,0.19,254
201,43268,31462,-1,-10,353,5.99,10,0,-18,39,-10,88011,1173,-1.78,-0.31,9.63,-0.06,0.14,-0.05,1366,973,-293,25,25,0,0, 35.702148, 51.350990,0.00,0.12,254
201,43552,31749,-1,-10,352,3.46,11,0,-17,39,-10,88009,1172,-1.78,-0.24,9.63,0.00,0.08,0.13,1365,973,-293,24,25,0,0, 35.702148, 51.350990,0.00,0.12,254
201,43745,32034,-1,-10,352,3.46,10,0,-18,39,-10,88007,1173,-1.74,-0.25,9.64,-0.30,-0.10,-0.11,1366,973,-293,25,25,0,0, 35.702148, 51.350990,0.00,0.12,254
201,43936,32229,-1,-10,353,5.99,10,0,-18,39,-10,88009,1173,-1.74,-0.25,9.64,0.00,0.08,0.07,1367,973,-293,25,25,0,0, 35.702148, 51.350990,0.00,0.12,254
201,44224,32418,-1,-10,353,4.89,11,0,-17,40,-10,88008,1172,-1.79,-0.27,9.63,0.00,0.08,-0.05,1365,973,-293,25,25,0,0, 35.702148, 51.350990,0.00,0.12,254
201,44416,32706,-1,-10,353,3.46,10,0,-18,39,-10,88009,1172,-1.79,-0.26,9.63,-0.06,-0.10,0.20,1362,974,-293,25,25,0,0, 35.702148, 51.350990,0.00,0.12,254
201,44608,32897,-1,-10,353,4.89,11,0,-17,39,-10,88006,1173,-1.80,-0.23,9.63,0.06,0.14,0.07,1366,973,-293,25,25,0,0, 35.702148, 51.350990,0.00,0.12,254
201,44800,33088,-1,-10,353,3.46,11,0,-17,39,-10,88007,1173,-1.79,-0.16,9.63,-0.06,-0.04,0.20,1367,972,-294,25,25,0,0, 35.702148, 51.350990,0.00,0.12,254
201,44988,33282,-1,-10,352,4.89,10,0,-18,39,-10,88007,1172,-1.74,-0.22,9.64,-0.06,-0.16,0.13,1367,972,-293,25,25,0,0, 35.702148, 51.350990,0.00,0.12,254
201,45180,33472,-1,-10,352,4.89,10,0,-18,39,-10,88009,1173,-1.80,-0.26,9.63,-0.06,0.20,0.07,1367,973,-294,24,25,0,0, 35.702148, 51.350990,0.00,0.12,254
201,45468,33662,-1,-10,353,4.89,10,0,-17,39,-10,88010,1172,-1.74,-0.27,9.64,-0.18,-0.35,0.07,1366,973,-293,25,25,0,0, 35.702148, 51.350990,0.00,0.12,254
201,45756,33950,-1,-10,353,4.89,10,0,-17,40,-10,88006,1172,-1.72,-0.30,9.64,0.12,0.26,-0.17,1366,973,-293,25,25,0,0, 35.702148, 51.350990,0.00,0.12,254
201,46044,34238,-1,-9,353,3.46,11,0,-17,39,-9,88003,1172,-1.74,-0.24,9.64,0.06,-0.22,-0.05,1365,973,-292,25,25,0,0, 35.702148, 51.350990,0.00,0.12,254
201,46332,34524,-1,-10,352,3.46,11,0,-17,40,-10,88004,1173,-1.79,-0.24,9.63,0.00,-0.04,0.20,1366,974,-293,25,25,0,0, 35.702133, 51.351017,0.00,0.23,254
201,46616,34811,-1,-10,353,3.46,11,0,-17,40,-10,88006,1173,-1.79,-0.27,9.63,0.06,0.08,-0.05,1366,973,-293,25,25,0,0, 35.702133, 51.351017,0.00,0.23,254
201,46904,35098,-1,-10,352,4.89,10,0,-17,39,-10,88005,1173,-1.73,-0.29,9.64,0.00,0.08,0.01,1368,973,-293,25,25,0,0, 35.702133, 51.351017,0.00,0.23,254
201,47192,35386,-1,-10,352,3.46,10,0,-17,39,-10,88006,1173,-1.80,-0.31,9.63,0.06,-0.16,0.01,1365,973,-293,25,25,0,0, 35.702133, 51.351017,0.00,0.23,254
201,47479,35673,-1,-10,352,4.89,10,0,-18,39,-10,88004,1173,-1.80,-0.26,9.63,0.00,0.02,-0.11,1365,973,-293,25,25,0,0, 35.702133, 51.351017,0.00,0.23,254
201,47669,35960,-1,-10,352,4.89,10,0,-18,39,-10,88007,1173,-1.81,-0.26,9.63,-0.06,0.02,-0.05,1366,973,-293,25,25,0,0, 35.702133, 51.351017,0.00,0.23,254
201,47861,36152,-1,-10,352,3.46,10,0,-18,39,-10,88008,1173,-1.75,-0.28,9.64,0.00,0.02,-0.11,1364,973,-293,25,25,0,0, 35.702133, 51.351017,0.00,0.23,254
201,48150,36343,-1,-10,353,3.46,11,0,-17,40,-10,88004,1173,-1.78,-0.23,9.64,0.00,-0.04,-0.05,1369,972,-293,25,25,0,0, 35.702126, 51.351021,0.00,0.14,254
201,48437,36630,-1,-10,353,4.89,10,0,-18,39,-10,88003,1173,-1.78,-0.25,9.63,-0.06,-0.04,0.20,1369,972,-293,25,25,0,0, 35.702126, 51.351021,0.00,0.14,254
201,48724,36918,-1,-10,352,4.89,10,0,-17,39,-10,88006,1173,-1.79,-0.24,9.63,0.00,-0.10,0.01,1369,972,-293,25,25,0,0, 35.702126, 51.351021,0.00,0.14,254
201,49008,37204,-1,-10,353,3.46,10,0,-18,39,-10,88005,1173,-1.74,-0.26,9.64,0.06,0.08,0.01,1368,971,-293,25,25,0,0, 35.702126, 51.351021,0.00,0.14,254
201,49200,37491,-1,-10,353,4.89,10,0,-18,39,-10,88005,1173,-1.76,-0.28,9.64,0.00,0.02,-0.11,1368,972,-293,25,25,0,0, 35.702126, 51.351021,0.00,0.14,254
201,49488,37683,-1,-10,352,3.46,10,0,-17,39,-10,88006,1173,-1.77,-0.26,9.64,-0.06,0.14,0.07,1367,973,-293,25,25,0,0, 35.702126, 51.351021,0.00,0.14,254
201,49776,37969,-1,-10,353,4.89,10,0,-17,40,-10,88003,1173,-1.78,-0.27,9.63,-0.06,0.02,-0.11,1369,973,-292,25,25,0,0, 35.702126, 51.351021,0.00,0.14,254
201,50064,38258,-1,-10,352,4.89,10,0,-17,39,-10,88005,1173,-1.76,-0.26,9.64,0.00,0.02,0.13,1368,973,-292,25,25,0,0, 35.702126, 51.351021,0.00,0.14,254
201,50348,38544,-1,-10,352,4.89,10,0,-18,39,-10,88006,1173,-1.73,-0.29,9.64,-0.06,0.14,0.01,1365,972,-293,25,25,0,0, 35.702126, 51.351021,0.00,0.14,254
201,50637,38832,-1,-10,352,3.46,11,0,-17,40,-10,88007,1173,-1.75,-0.28,9.64,0.06,0.02,0.07,1369,973,-293,25,25,0,0, 35.702126, 51.351021,0.00,0.14,254
201,51021,39117,-1,-10,352,4.89,10,0,-18,40,-10,88006,1173,-1.77,-0.21,9.64,0.12,-0.16,0.07,1368,972,-292,25,25,0,0, 35.702126, 51.351021,0.00,0.14,254
201,51404,39502,-1,-10,352,4.89,10,0,-17,40,-10,88007,1172,-1.75,-0.26,9.64,-0.18,0.08,0.01,1368,973,-292,25,25,0,0, 35.702114, 51.351028,0.00,0.10,254
201,51596,39884,-1,-10,353,4.89,10,0,-17,39,-10,88003,1173,-1.81,-0.27,9.63,-0.06,-0.04,0.01,1366,974,-292,25,25,0,0, 35.702114, 51.351028,0.00,0.10,254
201,51784,40075,-1,-10,352,3.46,11,0,-17,39,-10,88006,1173,-1.79,-0.23,9.63,-0.18,0.02,-0.05,1367,972,-293,25,25,0,0, 35.702114, 51.351028,0.00,0.10,254
201,52072,40268,-1,-10,352,3.46,11,0,-17,39,-10,88005,1172,-1.75,-0.24,9.64,-0.06,-0.04,0.26,1368,972,-294,25,25,0,0, 35.702114, 51.351028,0.00,0.10,254
201,52360,40554,-1,-10,352,3.46,10,0,-17,40,-10,88004,1173,-1.82,-0.25,9.63,0.12,-0.10,0.01,1369,972,-293,25,25,0,0, 35.702114, 51.351028,0.00,0.10,254
201,52648,40841,-1,-10,352,3.46,11,0,-17,40,-10,88007,1173,-1.75,-0.29,9.64,-0.12,0.02,-0.11,1368,972,-293,25,25,0,0, 35.702114, 51.351028,0.00,0.10,254
201,52840,41128,-1,-10,352,4.89,10,0,-18,39,-10,88007,1173,-1.82,-0.25,9.63,-0.12,0.20,0.07,1367,972,-293,25,25,0,0, 35.702114, 51.351028,0.00,0.10,254
201,53032,41321,-1,-10,352,3.46,11,0,-17,39,-10,88007,1173,-1.73,-0.25,9.64,0.12,0.20,-0.17,1367,973,-293,25,25,0,0, 35.702106, 51.351032,0.00,0.10,254
201,53316,41511,-1,-10,353,3.46,11,0,-17,40,-10,88004,1173,-1.78,-0.27,9.63,0.19,0.02,0.20,1367,973,-293,25,25,0,0, 35.702106, 51.351032,0.00,0.10,254
201,53604,41798,-1,-10,352,4.89,10,0,-18,39,-10,88003,1173,-1.77,-0.20,9.64,0.06,-0.04,-0.11,1363,973,-293,25,25,0,0, 35.702106, 51.351032,0.00,0.10,254
201,53796,42085,-1,-10,352,4.89,10,0,-17,39,-10,88004,1173,-1.77,-0.27,9.63,-0.06,-0.10,-0.23,1367,974,-293,25,25,0,0, 35.702106, 51.351032,0.00,0.10,254
201,53988,42278,-1,-10,352,4.89,10,0,-18,39,-10,88004,1173,-1.82,-0.23,9.63,0.12,-0.04,0.13,1368,973,-293,25,25,0,0, 35.702106, 51.351032,0.00,0.10,254
201,54180,42468,-1,-10,352,3.46,11,0,-17,39,-10,88004,1173,-1.77,-0.27,9.64,-0.12,-0.04,0.07,1365,973,-293,25,25,0,0, 35.702106, 51.351032,0.00,0.10,254
201,54372,42660,-1,-10,353,4.89,10,0,-18,39,-10,88006,1173,-1.78,-0.27,9.63,0.00,0.08,0.01,1365,974,-293,25,25,0,0, 35.702106, 51.351032,0.00,0.10,254
201,54656,42851,-1,-10,352,4.89,11,0,-17,39,-10,88006,1173,-1.77,-0.29,9.63,0.00,-0.16,0.07,1367,973,-293,25,25,0,0, 35.702106, 51.351032,0.00,0.10,254
201,54944,43138,-1,-10,352,4.89,10,0,-17,39,-10,88005,1173,-1.79,-0.24,9.63,-0.06,0.08,-0.17,1367,973,-293,25,25,0,0, 35.702106, 51.351032,0.00,0.10,254
201,55232,43426,-1,-10,353,3.46,10,0,-17,39,-10,88002,1173,-1.75,-0.22,9.64,0.12,-0.29,-0.11,1367,973,-293,25,25,0,0, 35.702095, 51.351025,0.00,0.25,254
201,55520,43713,-1,-10,352,4.89,10,0,-18,39,-10,88003,1173,-1.77,-0.20,9.64,-0.12,0.02,0.01,1368,974,-293,25,25,0,0, 35.702095, 51.351025,0.00,0.25,254
201,55712,43999,-1,-10,352,4.89,10,0,-17,39,-10,88005,1173,-1.76,-0.24,9.64,-0.18,0.08,0.07,1368,974,-293,25,25,0,0, 35.702095, 51.351025,0.00,0.25,254
201,55904,44192,-1,-10,352,4.89,10,0,-17,39,-10,88004,1173,-1.81,-0.24,9.63,0.06,-0.04,-0.11,1366,975,-294,25,25,0,0, 35.702095, 51.351025,0.00,0.25,254
201,56092,44383,-1,-10,353,4.89,10,0,-18,39,-10,88003,1173,-1.77,-0.24,9.64,0.19,-0.10,0.01,1366,974,-294,25,25,0,0, 35.702095, 51.351025,0.00,0.25,254
201,56286,44574,-1,-10,352,3.46,10,0,-18,40,-10,88002,1173,-1.79,-0.28,9.63,0.06,0.08,-0.23,1366,974,-294,25,25,0,0, 35.702095, 51.351025,0.00,0.25,254
201,56478,44766,-1,-10,352,3.46,10,0,-18,39,-10,88005,1173,-1.79,-0.30,9.63,0.00,-0.04,0.07,1367,974,-294,25,25,0,0, 35.702095, 51.351025,0.00,0.25,254
201,56668,44956,-1,-10,353,4.89,10,0,-18,39,-10,88006,1173,-1.75,-0.23,9.64,0.00,-0.04,0.07,1365,973,-293,25,25,0,0, 35.702095, 51.351025,0.00,0.25,254
201,56861,45149,-1,-10,352,3.46,11,0,-17,40,-10,88003,1173,-1.72,-0.25,9.64,0.06,-0.04,-0.05,1366,974,-293,25,25,0,0, 35.702095, 51.351025,0.00,0.25,254
201,57051,45340,-1,-10,353,4.89,11,0,-18,39,-10,88004,1173,-1.72,-0.23,9.65,0.00,-0.10,0.07,1366,974,-292,25,25,0,0, 35.702087, 51.351017,0.00,0.24,254
201,57337,45532,-1,-10,352,3.46,10,0,-17,39,-10,88004,1173,-1.72,-0.25,9.64,-0.06,0.14,-0.11,1368,974,-293,25,25,0,0, 35.702087, 51.351017,0.00,0.24,254
201,57625,45818,-1,-10,353,3.46,10,0,-17,39,-10,88005,1173,-1.72,-0.30,9.64,-0.24,0.02,-0.05,1365,973,-293,25,25,0,0, 35.702087, 51.351017,0.00,0.24,254
201,57913,46105,-1,-10,353,4.89,10,0,-18,39,-10,88004,1173,-1.76,-0.24,9.64,0.12,0.02,0.07,1367,973,-293,25,25,0,0, 35.702087, 51.351017,0.00,0.24,254
201,58197,46393,-1,-10,352,4.89,10,0,-17,39,-10,88001,1173,-1.74,-0.28,9.64,-0.36,0.20,0.01,1369,973,-293,25,25,0,0, 35.702087, 51.351017,0.00,0.24,254
201,58389,46680,-1,-10,353,3.46,11,0,-17,40,-10,88001,1173,-1.75,-0.22,9.64,-0.24,0.02,0.01,1368,972,-294,25,25,0,0, 35.702087, 51.351017,0.00,0.24,254
201,58677,46871,-1,-10,352,3.46,11,0,-17,40,-10,88003,1173,-1.76,-0.25,9.64,0.06,-0.22,-0.05,1367,972,-293,25,25,0,0, 35.702087, 51.351017,0.00,0.24,254
201,58965,47159,-1,-10,353,3.46,10,0,-18,39,-10,88005,1173,-1.78,-0.27,9.63,0.00,0.02,0.20,1368,974,-292,25,25,0,0, 35.702087, 51.351017,0.00,0.24,254
201,59253,47446,-1,-10,353,3.46,10,0,-17,40,-10,88003,1173,-1.84,-0.22,9.62,-0.12,0.02,0.07,1368,973,-292,25,25,0,0, 35.702080, 51.351006,0.00,0.33,254
201,59537,47732,0,-10,353,3.46,10,0,-17,40,-10,88003,1173,-1.76,-0.21,9.64,-0.12,-0.16,0.01,1368,975,-293,25,25,0,0, 35.702080, 51.351006,0.00,0.33,254
201,59729,48019,-1,-10,352,3.46,11,0,-17,40,-10,88005,1173,-1.79,-0.32,9.63,0.00,0.32,-0.17,1368,973,-293,25,25,0,0, 35.702080, 51.351006,0.00,0.33,254
201,60017,48211,-1,-10,353,3.46,10,0,-18,40,-10,88006,1173,-1.76,-0.21,9.64,0.06,-0.10,0.01,1367,972,-294,25,25,0,0, 35.702080, 51.351006,0.00,0.33,254
201,60305,48499,-1,-10,353,3.46,10,0,-17,40,-10,88005,1173,-1.77,-0.33,9.63,0.00,0.08,-0.17,1367,973,-293,25,25,0,0, 35.702080, 51.351006,0.00,0.33,254
201,60593,48785,-1,-10,353,4.89,10,0,-18,39,-10,88004,1173,-1.76,-0.21,9.64,0.00,-0.10,0.13,1367,973,-292,25,25,0,0, 35.702080, 51.351006,0.00,0.33,254
201,60781,49072,-1,-10,353,3.46,11,0,-17,40,-10,88003,1173,-1.75,-0.19,9.64,0.12,0.08,0.01,1367,973,-292,25,25,0,0, 35.702080, 51.351006,0.00,0.33,254
201,60973,49264,-1,-10,353,4.89,10,0,-17,40,-10,88006,1173,-1.76,-0.14,9.64,-0.12,0.08,0.01,1367,974,-292,25,25,0,0, 35.702080, 51.351006,0.00,0.33,254
201,61261,49456,-1,-10,353,4.89,10,0,-17,39,-10,88002,1173,-1.77,-0.24,9.64,0.00,-0.16,0.07,1369,975,-292,25,25,0,0, 35.702080, 51.351006,0.00,0.33,254
201,61549,49742,-1,-10,352,4.89,10,0,-17,40,-10,88003,1173,-1.80,-0.27,9.63,0.12,-0.04,-0.11,1366,974,-293,25,25,0,0, 35.702080, 51.351006,0.00,0.33,254
201,61837,50029,-1,-10,352,3.46,11,0,-17,39,-10,88005,1173,-1.74,-0.24,9.64,-0.12,-0.16,0.07,1369,974,-293,25,25,0,0, 35.702080, 51.351006,0.00,0.33,254
201,62125,50318,-1,-10,353,4.89,10,0,-17,39,-10,88005,1172,-1.75,-0.25,9.64,-0.06,-0.10,0.01,1368,974,-293,25,25,0,0, 35.702080, 51.351006,0.00,0.33,254
201,62409,50605,-1,-10,352,3.46,10,0,-17,40,-10,88006,1173,-1.77,-0.27,9.64,-0.06,0.02,0.01,1367,974,-293,25,25,0,0, 35.702080, 51.351006,0.00,0.33,254
201,62793,50891,-1,-10,352,4.89,11,0,-17,39,-10,88006,1173,-1.75,-0.27,9.64,0.00,-0.10,0.07,1368,973,-293,25,25,0,0, 35.702080, 51.351006,0.00,0.33,254
201,63081,51274,-1,-10,352,4.89,11,0,-17,40,-10,88004,1173,-1.71,-0.23,9.65,0.00,0.02,-0.05,1369,974,-293,25,25,0,0, 35.702080, 51.351006,0.00,0.33,254
201,63369,51561,-1,-10,353,3.46,11,0,-17,39,-10,88005,1173,-1.80,-0.26,9.63,-0.06,-0.16,0.07,1368,974,-293,25,25,0,0, 35.702080, 51.351006,0.00,0.33,254
201,63559,51849,-1,-10,352,4.89,10,0,-18,39,-10,88004,1173,-1.81,-0.30,9.63,-0.12,0.02,0.07,1368,974,-293,25,25,0,0, 35.702080, 51.351006,0.00,0.33,254
201,63845,52039,-1,-10,353,4.89,11,0,-17,39,-10,88006,1173,-1.76,-0.24,9.64,0.00,0.14,-0.05,1368,973,-293,25,25,0,0, 35.702080, 51.351006,0.00,0.33,254
201,64135,52327,-1,-10,352,4.89,10,0,-18,39,-10,88002,1173,-1.78,-0.23,9.64,0.06,-0.04,-0.05,1367,973,-294,25,25,0,0, 35.702080, 51.351006,0.00,0.33,254
201,64420,52614,-1,-10,353,4.89,10,0,-18,39,-10,88006,1173,-1.79,-0.23,9.63,0.06,-0.04,0.07,1367,974,-293,25,25,0,0, 35.702080, 51.351006,0.00,0.33,254
201,64708,52900,-1,-10,352,3.46,10,0,-17,40,-10,88004,1172,-1.75,-0.29,9.64,-0.12,0.02,0.07,1366,974,-292,25,25,0,0, 35.702080, 51.351006,0.00,0.33,254
201,64996,53189,-1,-10,352,4.89,10,0,-18,39,-10,88002,1173,-1.75,-0.24,9.64,0.12,0.02,0.20,1367,974,-293,25,25,0,0, 35.702080, 51.351006,0.00,0.33,254
201,65280,53475,-1,-10,352,3.46,10,0,-17,40,-10,88004,1173,-1.77,-0.26,9.63,-0.12,0.02,-0.05,1368,974,-293,25,25,0,0, 35.702080, 51.351006,0.00,0.33,254
201,65568,53763,-1,-10,352,3.46,10,0,-18,39,-10,88002,1173,-1.73,-0.30,9.64,-0.06,0.02,0.01,1369,973,-293,25,25,0,0, 35.702080, 51.351006,0.00,0.33,254
201,65760,54048,-1,-10,353,3.46,11,0,-17,39,-10,88007,1173,-1.79,-0.25,9.63,0.00,0.08,0.01,1368,973,-293,25,25,0,0, 35.702080, 51.351006,0.00,0.33,254
201,65952,54241,-1,-10,353,4.89,10,0,-18,39,-10,88004,1173,-1.77,-0.26,9.63,-0.06,-0.16,0.01,1368,973,-293,25,25,0,0, 35.702080, 51.351006,0.00,0.33,254
201,66145,54432,-1,-10,353,4.89,11,0,-17,39,-10,88005,1173,-1.74,-0.22,9.64,0.12,0.14,0.07,1367,973,-293,25,25,0,0, 35.702080, 51.351006,0.00,0.33,254
201,66432,54624,-1,-10,352,4.89,10,0,-18,39,-10,88005,1173,-1.76,-0.31,9.64,0.00,0.08,-0.11,1368,973,-293,25,25,0,0, 35.702080, 51.351006,0.00,0.33,254
201,66719,54910,-1,-10,352,3.46,10,0,-17,39,-10,88003,1173,-1.77,-0.25,9.64,0.00,-0.04,0.13,1366,973,-293,25,25,0,0, 35.702080, 51.351006,0.00,0.33,254
201,67003,55198,-1,-10,352,3.46,10,0,-17,39,-10,88006,1173,-1.75,-0.27,9.64,0.12,0.08,0.07,1366,973,-292,25,25,0,0, 35.702080, 51.351006,0.00,0.33,254
201,67294,55486,-1,-10,353,3.46,11,0,-17,39,-10,88003,1173,-1.78,-0.30,9.63,0.00,0.02,0.01,1367,973,-293,25,25,0,0, 35.702080, 51.351006,0.00,0.33,254
201,67483,55772,-1,-10,353,3.46,11,0,-17,40,-10,88004,1173,-1.79,-0.19,9.63,0.12,-0.10,0.07,1368,972,-293,25,25,0,0, 35.702080, 51.351006,0.00,0.33,254
201,67675,55963,-1,-10,352,3.46,10,0,-17,40,-10,88006,1173,-1.77,-0.27,9.63,0.12,0.08,-0.17,1369,972,-293,25,25,0,0, 35.702080, 51.351006,0.00,0.33,254
201,67867,56155,-1,-10,353,3.46,11,0,-17,40,-10,88005,1173,-1.76,-0.22,9.64,-0.06,0.02,0.01,1369,972,-293,25,25,0,0, 35.702080, 51.351006,0.00,0.33,254
201,68058,56347,-1,-10,352,3.46,10,0,-17,39,-10,88004,1173,-1.77,-0.22,9.64,0.06,-0.04,0.01,1369,973,-293,25,25,0,0, 35.702087, 51.350994,0.00,0.16,254
201,68248,56538,-1,-10,353,4.89,10,0,-18,39,-10,88007,1173,-1.77,-0.21,9.64,0.00,0.08,0.01,1369,972,-293,25,25,0,0, 35.702087, 51.350994,0.00,0.16,254
201,68441,56729,-1,-10,353,3.46,11,0,-17,40,-10,88002,1173,-1.80,-0.32,9.63,0.06,0.14,0.01,1367,973,-293,25,25,0,0, 35.702087, 51.350994,0.00,0.16,254
201,68631,56920,-1,-10,352,3.46,11,0,-17,39,-10,88006,1172,-1.81,-0.28,9.63,-0.06,-0.04,0.01,1368,973,-293,25,25,0,0, 35.702087, 51.350994,0.00,0.16,254
201,68825,57112,-1,-10,353,3.46,11,0,-17,39,-10,88002,1173,-1.77,-0.27,9.63,0.12,0.02,0.07,1367,973,-293,25,25,0,0, 35.702087, 51.350994,0.00,0.16,254
201,69111,57304,-1,-10,353,4.89,10,0,-18,39,-10,88009,1173,-1.76,-0.20,9.64,0.06,0.08,-0.17,1368,973,-293,25,25,0,0, 35.702087, 51.350994,0.00,0.16,254
201,69399,57590,-1,-10,352,3.46,11,0,-17,39,-10,88006,1173,-1.75,-0.24,9.64,0.12,-0.10,-0.05,1368,973,-292,25,25,0,0, 35.702087, 51.350994,0.00,0.16,254
201,69683,57878,-1,-10,353,4.89,10,0,-18,39,-10,88004,1173,-1.76,-0.26,9.64,0.06,0.14,-0.11,1368,973,-292,25,25,0,0, 35.702087, 51.350994,0.00,0.16,254
201,69875,58166,-1,-10,352,4.89,10,0,-18,39,-10,88003,1173,-1.75,-0.26,9.64,0.00,0.08,-0.11,1369,972,-293,25,25,0,0, 35.702087, 51.350994,0.00,0.16,254
201,70067,58356,-1,-10,352,4.89,10,0,-18,39,-10,88005,1173,-1.78,-0.26,9.63,0.06,-0.04,0.07,1368,972,-293,25,25,0,0, 35.702091, 51.350994,0.00,0.11,254
201,70355,58548,-1,-10,353,4.89,10,0,-17,40,-10,88007,1173,-1.74,-0.23,9.64,-0.18,-0.10,-0.11,1368,973,-293,25,25,0,0, 35.702091, 51.350994,0.00,0.11,254
201,70643,58835,-1,-10,352,3.46,11,0,-17,40,-10,88005,1172,-1.72,-0.27,9.64,0.12,0.14,0.07,1367,973,-293,25,25,0,0, 35.702091, 51.350994,0.00,0.11,254
201,70929,59121,-1,-10,353,3.46,10,0,-17,39,-10,88008,1173,-1.79,-0.33,9.63,-0.12,0.02,-0.05,1363,974,-293,25,25,0,0, 35.702091, 51.350994,0.00,0.11,254
201,71217,59410,-1,-10,353,4.89,10,0,-18,39,-10,88006,1173,-1.82,-0.28,9.63,0.06,-0.04,0.13,1367,974,-292,26,25,0,0, 35.702087, 51.350986,0.00,0.24,254
201,71407,59697,-2,-10,352,3.46,11,0,-17,39,-10,88005,1173,-1.74,-0.29,9.64,0.00,0.32,0.01,1367,973,-292,25,25,0,0, 35.702087, 51.350986,0.00,0.24,254
201,71695,59887,-1,-10,352,4.89,10,0,-18,39,-10,88007,1173,-1.76,-0.23,9.64,0.25,0.20,0.07,1368,973,-293,25,25,0,0, 35.702087, 51.350986,0.00,0.24,254
201,71983,60176,-1,-10,352,3.46,11,0,-17,39,-10,88004,1173,-1.76,-0.23,9.64,0.25,-0.04,0.01,1368,973,-293,25,25,0,0, 35.702087, 51.350986,0.00,0.24,254
201,72175,60463,-1,-10,353,4.89,10,0,-18,39,-10,88006,1173,-1.83,-0.27,9.62,-0.06,-0.04,0.20,1367,972,-293,25,25,0,0, 35.702084, 51.350986,0.00,0.41,254
201,72367,60654,-1,-10,353,4.89,10,0,-17,39,-10,88004,1173,-1.77,-0.24,9.64,-0.18,0.02,0.13,1367,973,-293,25,25,0,0, 35.702084, 51.350986,0.00,0.41,254
201,72557,60845,-1,-10,352,3.46,10,0,-17,39,-10,88003,1173,-1.79,-0.28,9.63,0.06,0.02,0.07,1367,974,-293,25,25,0,0, 35.702084, 51.350986,0.00,0.41,254
201,72750,61035,-1,-10,352,4.89,10,0,-18,39,-10,88006,1173,-1.75,-0.27,9.64,-0.06,-0.04,0.01,1364,975,-293,25,25,0,0, 35.702084, 51.350986,0.00,0.41,254
201,73037,61229,-1,-10,353,4.89,10,0,-17,39,-10,88007,1173,-1.71,-0.28,9.65,0.06,-0.10,0.07,1362,975,-292,25,25,0,0, 35.702084, 51.350986,0.00,0.41,254
201,73321,61515,-1,-10,352,4.89,10,0,-18,39,-10,88005,1172,-1.72,-0.30,9.64,0.12,0.20,0.01,1367,972,-292,25,25,0,0, 35.702084, 51.350986,0.00,0.41,254
201,73609,61802,-1,-10,352,4.89,10,0,-18,39,-10,88003,1172,-1.85,-0.22,9.62,0.00,0.20,-0.05,1371,971,-293,25,25,0,0, 35.702084, 51.350986,0.00,0.41,254
201,73901,62089,-1,-10,352,3.46,10,0,-18,39,-10,88002,1173,-1.77,-0.27,9.63,0.06,-0.35,-0.05,1371,971,-294,26,25,0,0, 35.702084, 51.350986,0.00,0.41,254
201,74185,62377,-1,-10,352,3.46,11,0,-17,40,-10,88008,1173,-1.78,-0.24,9.63,-0.12,0.02,0.13,1368,973,-293,26,25,0,0, 35.702084, 51.350986,0.00,0.41,254
201,74473,62663,0,-10,353,4.89,10,0,-18,39,-10,88007,1173,-1.77,-0.26,9.64,-0.06,-0.04,-0.05,1366,974,-293,25,25,0,0, 35.702084, 51.350986,0.00,0.41,254
201,74757,62951,-1,-10,352,3.46,10,0,-18,39,-10,88006,1173,-1.82,-0.28,9.63,0.06,0.08,-0.05,1368,973,-293,25,25,0,0, 35.702084, 51.350986,0.00,0.41,254
201,75045,63239,-1,-10,353,3.46,11,0,-17,39,-10,88005,1173,-1.75,-0.24,9.64,-0.06,-0.04,0.20,1369,972,-294,25,25,0,0, 35.702084, 51.350986,0.00,0.41,254
201,75237,63525,-1,-10,353,4.89,10,0,-18,39,-10,88005,1172,-1.75,-0.22,9.64,0.12,0.08,0.07,1367,972,-294,25,25,0,0, 35.702084, 51.350986,0.00,0.41,254
201,75429,63716,-1,-10,352,4.89,10,0,-18,39,-10,88006,1173,-1.78,-0.17,9.63,-0.06,-0.16,0.01,1366,973,-293,25,25,0,0, 35.702084, 51.350986,0.00,0.41,254
201,75717,63907,-1,-10,352,3.46,11,0,-17,39,-10,88004,1172,-1.73,-0.22,9.64,0.00,-0.16,-0.05,1369,973,-293,25,25,0,0, 35.702084, 51.350986,0.00,0.41,254
201,76005,64196,-1,-10,352,3.46,11,0,-17,40,-10,88007,1173,-1.74,-0.26,9.64,0.19,-0.04,-0.05,1368,973,-294,26,25,0,0, 35.702084, 51.350986,0.00,0.41,254
201,76289,64483,-1,-10,352,4.89,11,0,-17,39,-10,88005,1173,-1.80,-0.29,9.63,0.19,0.08,0.07,1366,974,-294,25,25,0,0, 35.702084, 51.350986,0.00,0.41,254
201,76578,64770,-1,-10,352,4.89,10,0,-18,39,-10,88006,1173,-1.77,-0.24,9.64,-0.12,-0.10,0.01,1366,974,-294,26,25,0,0, 35.702084, 51.350986,0.00,0.41,254
201,76768,65055,-1,-10,353,4.89,11,0,-17,39,-10,88006,1172,-1.74,-0.20,9.64,-0.06,-0.04,-0.23,1365,975,-293,26,25,0,0, 35.702084, 51.350986,0.00,0.41,254
201,77056,65249,-1,-10,353,3.46,11,0,-17,39,-10,88007,1172,-1.79,-0.25,9.63,-0.18,0.02,0.07,1363,977,-292,25,25,0,0, 35.702084, 51.350986,0.00,0.41,254
201,77344,65534,-1,-10,352,4.89,10,0,-17,39,-10,88007,1172,-1.77,-0.27,9.64,-0.18,-0.22,0.01,1364,976,-292,26,25,0,0, 35.702084, 51.350986,0.00,0.41,254
201,77631,65822,-1,-10,352,5.99,10,0,-18,39,-10,88004,1173,-1.82,-0.28,9.63,0.00,-0.04,0.07,1367,974,-293,26,25,0,0, 35.702084, 51.350986,0.00,0.41,254
201,77918,66108,-1,-10,353,4.89,10,0,-18,39,-10,88006,1173,-1.76,-0.24,9.64,0.12,-0.16,-0.11,1368,974,-293,26,25,0,0, 35.702084, 51.350986,0.00,0.41,254
201,78302,66398,-1,-10,352,3.46,11,0,-17,39,-10,88006,1172,-1.77,-0.22,9.64,0.12,0.08,-0.17,1368,972,-293,25,25,0,0, 35.702084, 51.350986,0.00,0.41,254
201,78684,66779,-1,-10,352,3.46,11,0,-17,39,-10,88003,1173,-1.78,-0.22,9.63,0.12,-0.16,0.01,1369,973,-292,26,25,0,0, 35.702084, 51.350986,0.00,0.41,254
201,78971,67163,-1,-10,352,4.89,10,0,-18,39,-10,88006,1172,-1.78,-0.35,9.63,-0.18,0.26,0.13,1369,975,-292,26,25,0,0, 35.702084, 51.350986,0.00,0.41,254
201,79163,67449,-1,-10,353,5.99,11,0,-17,39,-10,88004,1172,-1.75,-0.20,9.64,0.06,0.08,0.07,1369,973,-292,26,25,0,0, 35.702110, 51.351002,0.00,0.48,254
201,79354,67641,-1,-10,353,-0.00,10,0,-18,39,-10,88003,1173,-1.70,-0.20,9.65,-0.18,0.08,0.07,1369,973,-293,26,25,0,0, 35.702110, 51.351002,0.00,0.48,254
201,79546,67832,-1,-10,352,3.46,11,0,-17,40,-10,88010,1172,-1.73,-0.26,9.64,0.06,-0.10,0.13,1368,974,-293,26,25,0,0, 35.702110, 51.351002,0.00,0.48,254
201,79737,68023,0,-10,352,3.46,11,0,-17,39,-10,88007,1173,-1.76,-0.35,9.63,-0.06,0.08,0.01,1366,975,-292,25,25,0,0, 35.702110, 51.351002,0.00,0.48,254
201,79929,68215,-1,-10,352,4.89,10,0,-17,39,-10,88009,1173,-1.74,-0.36,9.64,-0.12,0.14,0.07,1364,974,-292,26,25,0,0, 35.702110, 51.351002,0.00,0.48,254
201,80117,68407,-1,-10,353,4.89,11,0,-17,39,-10,88007,1172,-1.78,-0.25,9.63,0.06,-0.04,-0.11,1367,973,-293,26,25,0,0, 35.702110, 51.351002,0.00,0.48,254
201,80311,68598,-1,-10,352,3.46,11,0,-17,39,-10,88010,1172,-1.75,-0.27,9.64,0.19,-0.10,-0.17,1367,975,-292,25,25,0,0, 35.702110, 51.351002,0.00,0.48,254
201,80503,68790,-1,-10,352,3.46,11,0,-17,40,-10,88006,1172,-1.83,-0.33,9.62,0.12,0.14,0.01,1368,974,-292,25,25,0,0, 35.702110, 51.351002,0.00,0.48,254
201,80691,68979,-1,-10,353,3.46,11,0,-17,39,-10,88007,1172,-1.75,-0.25,9.64,0.06,0.02,-0.11,1368,974,-293,26,25,0,0, 35.702110, 51.351002,0.00,0.48,254
201,80981,69173,-1,-10,353,3.46,11,0,-17,39,-10,88003,1173,-1.77,-0.19,9.64,0.12,0.02,0.26,1367,974,-294,26,25,0,0, 35.702110, 51.351002,0.00,0.48,254
201,81269,69459,-1,-10,352,3.46,11,0,-17,39,-10,88005,1173,-1.75,-0.23,9.64,0.19,-0.04,-0.11,1366,974,-293,25,25,0,0, 35.702118, 51.351009,0.00,0.48,254
201,81457,69747,-1,-10,353,4.89,10,0,-18,39,-10,88006,1173,-1.86,-0.29,9.62,0.06,0.02,0.13,1367,974,-292,25,25,0,0, 35.702118, 51.351009,0.00,0.48,254
201,81649,69937,-1,-10,352,4.89,10,0,-18,39,-10,88007,1172,-1.77,-0.31,9.63,-0.12,0.02,-0.17,1366,975,-292,26,25,0,0, 35.702118, 51.351009,0.00,0.48,254
201,81840,70129,-1,-10,352,4.89,10,0,-18,39,-10,88008,1172,-1.75,-0.29,9.64,0.06,0.14,-0.11,1364,975,-292,25,25,0,0, 35.702118, 51.351009,0.00,0.48,254
201,82129,70322,-1,-10,352,4.89,10,0,-18,39,-10,88009,1172,-1.78,-0.20,9.63,0.19,0.20,-0.11,1369,973,-293,26,25,0,0, 35.702122, 51.351021,0.00,0.59,254
201,82417,70608,-1,-10,352,3.46,10,0,-18,39,-10,88009,1173,-1.79,-0.28,9.63,0.00,0.14,0.01,1371,972,-293,26,25,0,0, 35.702122, 51.351021,0.00,0.59,254
201,82703,70895,-1,-10,353,4.89,10,0,-17,40,-10,88010,1172,-1.73,-0.27,9.64,0.00,0.02,0.01,1367,973,-293,26,25,0,0, 35.702122, 51.351021,0.00,0.59,254
201,82991,71183,-1,-10,352,3.46,10,0,-17,40,-10,88008,1172,-1.77,-0.27,9.63,0.06,0.02,0.01,1369,972,-293,25,25,0,0, 35.702122, 51.351021,0.00,0.59,254
201,83181,71470,-1,-10,353,3.46,10,0,-17,39,-10,88011,1172,-1.71,-0.24,9.65,0.06,-0.04,-0.05,1368,973,-293,26,25,0,0, 35.702126, 51.351017,0.00,0.42,254
201,83470,71661,-1,-10,352,4.89,10,0,-18,39,-10,88009,1173,-1.70,-0.24,9.65,0.12,-0.04,0.01,1368,974,-292,26,25,0,0, 35.702126, 51.351017,0.00,0.42,254
201,83662,71948,-1,-10,353,4.89,10,0,-18,39,-10,88005,1172,-1.80,-0.28,9.63,0.00,0.02,0.13,1369,974,-292,26,25,0,0, 35.702126, 51.351017,0.00,0.42,254
201,83852,72139,-1,-10,352,4.89,10,0,-17,39,-10,88009,1173,-1.76,-0.28,9.64,-0.12,0.08,0.07,1368,974,-292,26,25,0,0, 35.702126, 51.351017,0.00,0.42,254
201,84044,72332,-1,-10,353,4.89,11,0,-18,39,-10,88005,1172,-1.71,-0.25,9.65,-0.12,-0.10,-0.05,1369,973,-293,25,25,0,0, 35.702126, 51.351006,0.00,0.22,254
201,84236,72523,-1,-10,353,4.89,10,0,-18,39,-10,88007,1173,-1.77,-0.28,9.64,-0.06,0.02,0.01,1367,974,-293,26,25,0,0, 35.702126, 51.351006,0.00,0.22,254
201,84428,72714,-1,-10,352,3.46,11,0,-17,40,-10,88005,1172,-1.82,-0.29,9.63,-0.18,0.02,-0.05,1368,973,-292,26,25,0,0, 35.702126, 51.351006,0.00,0.22,254
201,84617,72905,-1,-10,353,4.89,11,0,-18,39,-10,88009,1172,-1.75,-0.23,9.64,-0.06,-0.10,0.13,1369,971,-292,26,25,0,0, 35.702126, 51.351006,0.00,0.22,254
201,84905,73097,-1,-10,353,4.89,10,0,-18,39,-10,88009,1172,-1.81,-0.22,9.63,0.06,0.08,0.01,1368,972,-292,26,25,0,0, 35.702126, 51.351006,0.00,0.22,254
201,85193,73384,-1,-10,352,4.89,11,0,-17,39,-10,88008,1172,-1.76,-0.20,9.64,0.12,0.08,-0.05,1367,972,-293,26,25,0,0, 35.702126, 51.351006,0.00,0.22,254
201,85478,73671,0,-10,352,4.89,11,0,-17,40,-10,88007,1172,-1.77,-0.27,9.64,0.06,-0.10,0.01,1367,972,-293,26,25,0,0, 35.702126, 51.351006,0.00,0.22,254
201,85766,73958,-1,-10,353,4.89,10,0,-17,40,-10,88008,1173,-1.83,-0.23,9.62,-0.12,-0.04,-0.05,1366,972,-293,26,25,0,0, 35.702126, 51.351006,0.00,0.22,254
201,86054,74247,-1,-10,352,4.89,11,0,-17,40,-10,88008,1172,-1.74,-0.31,9.64,0.00,-0.04,0.07,1367,973,-293,26,25,0,0, 35.702126, 51.351006,0.00,0.22,254
201,86343,74532,-1,-10,353,3.46,11,0,-17,40,-10,88007,1172,-1.74,-0.19,9.64,-0.12,0.08,0.07,1368,973,-293,26,25,0,0, 35.702126, 51.351006,0.00,0.22,254
201,86627,74820,-1,-10,352,4.89,10,0,-18,39,-10,88008,1173,-1.78,-0.17,9.64,-0.12,-0.22,-0.17,1368,973,-292,25,25,0,0, 35.702126, 51.351006,0.00,0.22,254
201,86915,75107,-1,-10,353,4.89,11,0,-17,40,-10,88010,1172,-1.77,-0.22,9.64,-0.06,0.08,0.01,1368,972,-292,26,25,0,0, 35.702126, 51.351006,0.00,0.22,254
201,87107,75395,-1,-10,353,4.89,10,0,-18,39,-10,88007,1172,-1.77,-0.20,9.64,-0.06,-0.10,0.13,1365,972,-293,26,25,0,0, 35.702126, 51.351006,0.00,0.22,254
201,87393,75586,-1,-10,353,4.89,11,0,-17,40,-10,88007,1172,-1.73,-0.26,9.64,0.06,-0.04,-0.05,1368,972,-293,26,25,0,0, 35.702126, 51.351006,0.00,0.22,254
201,87681,75873,-1,-10,353,3.46,11,0,-17,40,-10,88009,1172,-1.81,-0.25,9.63,0.06,-0.04,-0.05,1368,973,-293,25,25,0,0, 35.702126, 51.351006,0.00,0.22,254
201,87969,76161,-1,-10,352,3.46,10,0,-18,39,-10,88006,1173,-1.75,-0.24,9.64,-0.12,-0.10,0.20,1368,973,-293,26,25,0,0, 35.702126, 51.351006,0.00,0.22,254
201,88254,76447,-1,-10,353,3.46,11,0,-17,40,-10,88008,1172,-1.75,-0.23,9.64,0.06,0.02,-0.05,1365,972,-293,26,25,0,0, 35.702133, 51.350994,0.00,0.06,254
201,88446,76734,-1,-10,352,3.46,11,0,-17,39,-10,88006,1172,-1.80,-0.20,9.63,-0.12,0.02,0.01,1364,973,-293,26,25,0,0, 35.702133, 51.350994,0.00,0.06,254
201,88735,76925,-1,-10,353,4.89,10,0,-18,39,-10,88005,1172,-1.80,-0.27,9.63,0.06,0.14,0.07,1363,973,-293,26,25,0,0, 35.702133, 51.350994,0.00,0.06,254
201,89022,77213,-1,-10,352,3.46,11,0,-17,40,-10,88008,1173,-1.74,-0.23,9.64,0.12,-0.10,0.01,1365,974,-292,26,25,0,0, 35.702133, 51.350994,0.00,0.06,254
201,89310,77501,-1,-10,352,3.46,11,0,-17,40,-10,88008,1172,-1.74,-0.22,9.64,-0.06,-0.16,-0.11,1367,973,-292,26,25,0,0, 35.702133, 51.350994,0.00,0.06,254
201,89594,77788,-1,-10,353,3.46,10,0,-18,39,-10,88007,1172,-1.75,-0.24,9.64,0.00,-0.16,0.01,1369,972,-293,26,25,0,0, 35.702133, 51.350994,0.00,0.06,254
201,89882,78073,-1,-10,352,4.89,10,0,-18,39,-10,88006,1172,-1.77,-0.26,9.64,0.00,-0.16,-0.11,1366,972,-293,26,25,0,0, 35.702133, 51.350994,0.00,0.06,254
201,90266,78362,-1,-10,352,3.46,11,0,-17,39,-10,88006,1172,-1.79,-0.21,9.63,0.06,0.08,0.07,1368,972,-293,26,25,0,0, 35.702133, 51.350994,0.00,0.06,254
201,90554,78744,-1,-10,352,-0.00,10,0,-18,39,-10,88007,1173,-1.75,-0.21,9.64,-0.18,-0.10,-0.05,1366,973,-293,26,25,0,0, 35.702133, 51.350994,0.00,0.06,254
201,90842,79032,-1,-10,352,4.89,10,0,-17,40,-10,88006,1172,-1.69,-0.26,9.65,0.06,0.08,0.01,1366,973,-293,26,25,0,0, 35.702133, 51.350994,0.00,0.06,254
201,91034,79320,-1,-10,353,3.46,11,0,-17,39,-10,88009,1173,-1.74,-0.28,9.64,-0.06,-0.16,0.01,1366,973,-293,26,25,0,0, 35.702133, 51.350994,0.00,0.06,254
201,91317,79511,-1,-10,353,4.89,11,0,-17,39,-10,88003,1172,-1.80,-0.22,9.63,-0.06,-0.22,0.07,1367,974,-292,26,25,0,0, 35.702133, 51.350994,0.00,0.06,254
201,91608,79798,-1,-10,352,3.46,10,0,-17,40,-10,88008,1172,-1.80,-0.24,9.63,0.06,-0.10,0.01,1366,974,-292,26,25,0,0, 35.702133, 51.350994,0.00,0.06,254
201,91892,80083,-1,-10,352,3.46,11,0,-17,39,-10,88008,1173,-1.77,-0.21,9.64,-0.24,0.02,0.01,1366,974,-292,26,25,0,0, 35.702133, 51.350994,0.00,0.06,254
201,92084,80372,-1,-10,352,3.46,11,0,-17,40,-10,88010,1172,-1.74,-0.27,9.64,0.12,0.08,0.13,1368,973,-292,26,25,0,0, 35.702133, 51.350994,0.00,0.06,254
201,92276,80563,-1,-10,352,3.46,10,0,-17,40,-10,88007,1172,-1.73,-0.26,9.64,-0.06,-0.16,-0.17,1365,973,-293,26,25,0,0, 35.702133, 51.350994,0.00,0.06,254
201,92468,80755,-1,-10,353,3.46,10,0,-18,39,-10,88005,1172,-1.70,-0.21,9.65,0.19,-0.41,0.01,1367,975,-293,26,25,0,0, 35.702133, 51.350994,0.00,0.06,254
201,92756,80945,-1,-10,352,3.46,11,0,-17,40,-10,88005,1172,-1.75,-0.22,9.64,-0.18,0.26,-0.11,1364,975,-293,26,25,0,0, 35.702133, 51.350994,0.00,0.06,254
201,92946,81234,-1,-10,352,3.46,11,0,-17,39,-10,88008,1172,-1.81,-0.25,9.63,0.12,-0.16,0.13,1367,975,-292,26,25,0,0, 35.702133, 51.350994,0.00,0.06,254
201,93138,81424,-1,-10,353,4.89,10,0,-18,39,-10,88008,1172,-1.78,-0.19,9.64,-0.06,0.20,-0.05,1369,973,-292,26,25,0,0, 35.702133, 51.350994,0.00,0.06,254
201,93330,81616,-1,-10,353,4.89,10,0,-18,39,-10,88006,1172,-1.79,-0.20,9.63,0.12,-0.04,0.07,1368,973,-293,26,25,0,0, 35.702133, 51.350994,0.00,0.06,254
201,93521,81807,-1,-10,352,4.89,10,0,-18,39,-10,88008,1172,-1.69,-0.22,9.65,-0.24,-0.10,-0.11,1369,974,-293,26,25,0,0, 35.702133, 51.350994,0.00,0.06,254
201,93711,81998,-1,-10,353,4.89,10,0,-18,39,-10,88007,1173,-1.76,-0.30,9.64,0.06,0.14,0.07,1366,973,-293,26,25,0,0, 35.702133, 51.350994,0.00,0.06,254
201,93998,82191,-1,-9,353,4.89,10,0,-18,39,-9,88007,1173,-1.74,-0.25,9.64,-0.18,0.02,0.07,1365,974,-292,26,25,0,0, 35.702133, 51.350994,0.00,0.06,254
201,94287,82478,-1,-10,352,4.89,10,0,-18,39,-10,88006,1172,-1.73,-0.24,9.64,-0.12,-0.10,-0.17,1367,974,-292,26,25,0,0, 35.702133, 51.350994,0.00,0.06,254
201,94571,82765,-2,-10,352,3.46,11,0,-17,39,-10,88007,1173,-1.77,-0.24,9.64,-0.06,0.20,-0.11,1365,974,-293,26,25,0,0, 35.702133, 51.350994,0.00,0.06,254
201,94859,83051,-1,-10,353,3.46,10,0,-17,40,-10,88005,1173,-1.73,-0.20,9.64,-0.18,-0.22,0.13,1364,974,-292,26,25,0,0, 35.702133, 51.350994,0.00,0.06,254
201,95051,83340,-1,-10,352,3.46,10,0,-18,39,-10,88005,1172,-1.72,-0.19,9.65,0.00,0.14,0.07,1369,974,-293,26,25,0,0, 35.702133, 51.350994,0.00,0.06,254
201,95243,83529,-1,-10,353,4.89,10,0,-17,39,-10,88007,1173,-1.73,-0.24,9.64,0.00,0.08,0.07,1367,974,-292,26,25,0,0, 35.702133, 51.350994,0.00,0.06,254
201,95435,83721,-1,-10,353,4.89,10,0,-17,40,-10,88007,1173,-1.75,-0.26,9.64,-0.06,0.20,0.07,1364,975,-292,26,25,0,0, 35.702133, 51.350994,0.00,0.06,254
201,95627,83912,-1,-10,353,3.46,10,0,-17,40,-10,88006,1173,-1.75,-0.27,9.64,-0.06,0.08,-0.05,1369,973,-293,26,25,0,0, 35.702133, 51.350994,0.00,0.06,254
201,95815,84104,-1,-10,352,3.46,10,0,-17,40,-10,88008,1173,-1.75,-0.21,9.64,0.06,-0.16,0.13,1370,973,-293,26,25,0,0, 35.702133, 51.350994,0.00,0.06,254
201,96011,84296,-1,-10,352,4.89,10,0,-18,39,-10,88003,1173,-1.81,-0.31,9.63,0.00,-0.04,-0.05,1371,974,-293,26,25,0,0, 35.702133, 51.350994,0.00,0.06,254
201,96200,84488,-1,-10,352,3.46,10,0,-17,39,-10,88004,1172,-1.81,-0.32,9.63,-0.18,0.14,-0.11,1370,972,-293,26,25,0,0, 35.702133, 51.350994,0.00,0.06,254
201,96390,84679,-1,-10,353,3.46,11,0,-17,39,-10,88005,1172,-1.79,-0.17,9.63,0.25,-0.16,0.01,1369,973,-293,26,25,0,0, 35.702133, 51.350994,0.00,0.06,254
201,96678,84870,-1,-10,352,3.46,11,0,-17,39,-10,88006,1173,-1.81,-0.27,9.63,0.00,0.02,-0.05,1369,974,-292,26,25,0,0, 35.702133, 51.350994,0.00,0.06,254
201,96966,85157,-1,-10,352,3.46,11,0,-17,40,-10,88004,1173,-1.78,-0.23,9.64,0.00,-0.10,-0.11,1370,974,-292,26,25,0,0, 35.702133, 51.350994,0.00,0.06,254
201,97254,85445,-1,-10,352,4.89,10,0,-17,39,-10,88005,1173,-1.76,-0.28,9.64,0.00,-0.10,0.01,1367,973,-293,26,25,0,0, 35.702137, 51.350945,0.00,0.09,254
201,97442,85731,-1,-10,352,4.89,11,0,-17,39,-10,88005,1173,-1.73,-0.31,9.64,0.00,0.14,-0.05,1368,973,-294,26,25,0,0, 35.702137, 51.350945,0.00,0.09,254
201,97635,85922,-1,-10,352,3.46,10,0,-17,39,-10,88007,1172,-1.75,-0.28,9.64,-0.06,-0.10,0.07,1368,975,-293,26,25,0,0, 35.702137, 51.350945,0.00,0.09,254
201,97923,86114,-1,-10,353,3.46,10,0,-18,39,-10,88006,1172,-1.77,-0.32,9.63,-0.36,-0.04,0.07,1365,976,-293,26,25,0,0, 35.702137, 51.350945,0.00,0.09,254
201,98211,86403,-2,-9,352,5.99,10,0,-18,39,-9,88007,1173,-1.77,-0.24,9.64,-0.12,0.08,-0.29,1365,977,-292,26,25,0,0, 35.702137, 51.350945,0.00,0.09,254
201,98499,86688,-1,-10,352,3.46,11,0,-17,40,-10,88007,1173,-1.82,-0.23,9.63,-0.24,-0.35,0.20,1367,976,-292,26,25,0,0, 35.702137, 51.350945,0.00,0.09,254
201,98783,86975,-1,-10,352,4.89,10,0,-18,39,-10,88005,1173,-1.85,-0.22,9.62,-0.12,0.08,0.13,1365,976,-293,26,25,0,0, 35.702137, 51.350945,0.00,0.09,254
201,98975,87264,-1,-10,352,4.89,10,0,-17,39,-10,88011,1173,-1.78,-0.30,9.63,0.06,-0.10,-0.17,1368,973,-292,26,25,0,0, 35.702137, 51.350945,0.00,0.09,254
201,99263,87454,0,-10,352,4.89,10,0,-18,39,-10,88004,1172,-1.72,-0.39,9.64,0.00,0.14,0.13,1367,973,-293,26,25,0,0, 35.702137, 51.350945,0.00,0.09,254
201,99550,87741,-1,-10,352,3.46,10,0,-17,40,-10,88007,1173,-1.78,-0.27,9.63,-0.24,-0.10,-0.17,1370,973,-292,26,25,0,0, 35.702137, 51.350945,0.00,0.09,254
201,99742,88028,-1,-10,353,4.89,11,0,-17,39,-10,88006,1173,-1.73,-0.27,9.64,-0.18,-0.10,0.26,1366,974,-293,26,25,0,0, 35.702137, 51.350945,0.00,0.09,254
201,99934,88220,-1,-9,352,5.99,10,0,-18,39,-9,88005,1173,-1.73,-0.26,9.64,0.00,0.08,-0.05,1368,973,-293,26,25,0,0, 35.702137, 51.350945,0.00,0.09,254
201,100126,88412,-1,-10,352,3.46,10,0,-17,39,-10,88007,1172,-1.80,-0.30,9.63,-0.18,-0.16,0.07,1365,975,-292,26,25,0,0, 35.702137, 51.350945,0.00,0.09,254
201,100318,88603,-1,-10,352,4.89,10,0,-18,39,-10,88007,1172,-1.76,-0.28,9.64,0.00,-0.22,-0.05,1369,973,-293,26,25,0,0, 35.702137, 51.350945,0.00,0.09,254
201,100602,88794,-1,-10,353,3.46,10,0,-18,39,-10,88005,1173,-1.74,-0.23,9.64,0.06,-0.10,-0.05,1369,973,-293,26,25,0,0, 35.702137, 51.350945,0.00,0.09,254
201,100890,89080,-1,-10,352,4.89,11,0,-17,40,-10,88006,1173,-1.78,-0.27,9.63,-0.18,0.02,0.07,1365,975,-292,26,25,0,0, 35.702137, 51.350945,0.00,0.09,254
201,101176,89369,-1,-10,352,3.46,10,0,-17,39,-10,88008,1172,-1.73,-0.22,9.64,0.12,0.14,0.07,1364,974,-292,26,25,0,0, 35.702137, 51.350945,0.00,0.09,254
201,101465,89655,-1,-10,352,4.89,11,0,-17,39,-10,88007,1172,-1.79,-0.30,9.63,0.06,0.02,-0.05,1365,974,-292,26,25,0,0, 35.702137, 51.350945,0.00,0.09,254
201,101847,89943,-1,-10,352,3.46,11,0,-17,39,-10,88006,1172,-1.79,-0.27,9.63,-0.12,-0.04,0.07,1365,974,-293,26,25,0,0, 35.702137, 51.350945,0.00,0.09,254
201,102135,90327,-1,-10,352,4.89,10,0,-18,39,-10,88006,1172,-1.78,-0.30,9.63,-0.18,0.08,-0.11,1367,974,-292,26,25,0,0, 35.702137, 51.350945,0.00,0.09,254
201,102421,90612,-1,-10,352,4.89,10,0,-18,39,-10,88010,1173,-1.76,-0.28,9.64,0.06,-0.10,0.07,1365,974,-292,26,25,0,0, 35.702137, 51.350945,0.00,0.09,254
201,102709,90899,-1,-10,352,3.46,11,0,-17,39,-10,88008,1173,-1.74,-0.21,9.64,0.00,0.02,0.01,1367,974,-292,26,25,0,0, 35.702137, 51.350945,0.00,0.09,254
201,102900,91187,-1,-10,352,4.89,10,0,-17,40,-10,88008,1172,-1.80,-0.24,9.63,0.12,0.14,0.07,1365,975,-292,26,25,0,0, 35.702137, 51.350945,0.00,0.09,254
201,103185,91378,-1,-10,353,4.89,10,0,-18,39,-10,88007,1172,-1.76,-0.30,9.64,0.00,0.20,-0.11,1368,974,-293,26,25,0,0, 35.702137, 51.350945,0.00,0.09,254
201,103474,91665,-1,-10,352,4.89,10,0,-18,39,-10,88010,1173,-1.77,-0.24,9.64,-0.12,0.08,-0.05,1367,974,-293,26,25,0,0, 35.702137, 51.350945,0.00,0.09,254
201,103760,91953,-1,-10,353,3.46,11,0,-17,39,-10,88009,1172,-1.80,-0.28,9.63,-0.12,-0.10,0.01,1368,974,-293,26,25,0,0, 35.702137, 51.350945,0.00,0.09,254
201,104050,92240,-1,-10,352,3.46,11,0,-17,39,-10,88008,1172,-1.76,-0.26,9.64,0.19,0.02,0.07,1364,974,-293,26,25,0,0, 35.702137, 51.350945,0.00,0.09,254
201,104338,92526,-1,-10,352,3.46,11,0,-17,40,-10,88006,1172,-1.78,-0.28,9.63,-0.12,0.08,-0.11,1364,974,-292,26,25,0,0, 35.702137, 51.350945,0.00,0.09,254
201,104623,92814,-1,-10,352,4.89,11,0,-17,40,-10,88007,1172,-1.79,-0.26,9.63,0.00,-0.10,0.20,1364,974,-293,26,25,0,0, 35.702137, 51.350945,0.00,0.09,254
201,104911,93101,-1,-10,352,3.46,11,0,-17,39,-10,88009,1172,-1.76,-0.31,9.63,0.12,0.20,0.01,1368,975,-293,26,25,0,0, 35.702137, 51.350945,0.00,0.09,254
201,105103,93388,-1,-9,352,4.89,10,0,-17,40,-9,88008,1173,-1.75,-0.24,9.64,0.00,-0.04,0.13,1364,976,-293,26,25,0,0, 35.702137, 51.350945,0.00,0.09,254
201,105291,93579,-1,-10,353,4.89,10,0,-18,39,-10,88007,1173,-1.79,-0.28,9.63,0.00,0.02,0.01,1361,976,-292,26,25,0,0, 35.702137, 51.350945,0.00,0.09,254
201,105487,93770,-1,-10,353,4.89,10,0,-18,39,-10,88005,1173,-1.81,-0.25,9.63,-0.12,-0.04,-0.05,1363,976,-293,26,25,0,0, 35.702137, 51.350945,0.00,0.09,254
201,105773,93962,-1,-10,353,4.89,10,0,-17,40,-10,88008,1172,-1.78,-0.24,9.63,-0.12,0.08,-0.05,1367,976,-293,26,25,0,0, 35.702137, 51.350945,0.00,0.09,254
201,106060,94251,-1,-10,352,4.89,10,0,-18,39,-10,88004,1172,-1.79,-0.25,9.63,-0.12,0.08,-0.17,1363,975,-293,26,25,0,0, 35.702137, 51.350945,0.00,0.09,254
201,106348,94536,-1,-10,353,3.46,10,0,-18,39,-10,88008,1173,-1.74,-0.27,9.64,-0.06,-0.04,0.01,1367,975,-293,26,25,0,0, 35.702137, 51.350945,0.00,0.09,254
201,106631,94824,-1,-10,352,4.89,10,0,-17,40,-10,88008,1173,-1.81,-0.28,9.63,0.12,0.02,0.01,1368,976,-292,26,25,0,0, 35.702137, 51.350945,0.00,0.09,254
201,106823,95110,-1,-10,352,3.46,11,0,-17,40,-10,88008,1173,-1.75,-0.26,9.64,0.00,0.08,0.01,1366,976,-292,26,25,0,0, 35.702137, 51.350945,0.00,0.09,254
201,107015,95302,-1,-10,353,3.46,11,0,-17,40,-10,88005,1172,-1.78,-0.25,9.63,-0.12,-0.10,0.01,1365,975,-293,26,25,0,0, 35.702137, 51.350945,0.00,0.09,254
201,107207,95494,-1,-10,352,3.46,11,0,-17,40,-10,88005,1172,-1.79,-0.30,9.63,-0.06,-0.04,-0.05,1365,975,-293,26,25,0,0, 35.702137, 51.350945,0.00,0.09,254
201,107399,95685,-1,-10,352,4.89,11,0,-17,40,-10,88006,1173,-1.78,-0.23,9.63,0.06,0.02,-0.05,1367,975,-292,26,25,0,0, 35.702137, 51.350945,0.00,0.09,254
201,107591,95876,-1,-10,352,4.89,10,0,-18,39,-10,88007,1172,-1.83,-0.26,9.63,-0.06,-0.04,0.01,1369,975,-292,26,25,0,0, 35.702137, 51.350945,0.00,0.09,254
201,107783,96067,-1,-10,352,4.89,10,0,-18,40,-10,88007,1173,-1.77,-0.30,9.63,-0.06,0.14,-0.17,1368,974,-292,26,25,0,0, 35.702137, 51.350945,0.00,0.09,254
201,107973,96261,-1,-10,353,4.89,10,0,-18,39,-10,88003,1173,-1.78,-0.24,9.63,-0.12,-0.04,0.01,1367,974,-292,26,25,0,0, 35.702137, 51.350945,0.00,0.09,254
201,108163,96451,-1,-10,352,3.46,11,0,-17,40,-10,88007,1173,-1.77,-0.30,9.63,-0.06,-0.10,0.07,1366,975,-292,26,25,0,0, 35.702137, 51.350945,0.00,0.09,254
201,108451,96643,-1,-10,352,3.46,11,0,-17,40,-10,88005,1173,-1.78,-0.29,9.63,-0.06,0.20,0.01,1366,975,-293,26,25,0,0, 35.702137, 51.350945,0.00,0.09,254
201,108740,96929,-1,-10,353,3.46,11,0,-17,40,-10,88007,1173,-1.82,-0.27,9.63,0.06,-0.04,0.01,1365,975,-292,26,25,0,0, 35.702137, 51.350945,0.00,0.09,254
201,108930,97217,-1,-10,353,3.46,11,0,-17,39,-10,88007,1173,-1.79,-0.23,9.63,-0.06,0.02,0.01,1365,975,-292,26,25,0,0, 35.702137, 51.350945,0.00,0.09,254
201,109120,97409,-1,-10,353,3.46,11,0,-17,39,-10,88006,1172,-1.80,-0.27,9.63,0.00,-0.04,0.07,1364,975,-292,26,25,0,0, 35.702137, 51.350945,0.00,0.09,254
201,109314,97599,-1,-10,353,3.46,11,0,-17,39,-10,88009,1173,-1.75,-0.24,9.64,-0.06,0.02,0.01,1364,976,-292,26,25,0,0, 35.702137, 51.350945,0.00,0.09,254
201,109502,97790,-1,-10,352,3.46,10,0,-18,40,-10,88007,1173,-1.76,-0.28,9.64,0.12,0.02,0.07,1365,975,-292,26,25,0,0, 35.702137, 51.350945,0.00,0.09,254
201,109790,97981,-1,-10,353,4.89,10,0,-18,39,-10,88004,1173,-1.81,-0.27,9.63,0.19,0.02,0.01,1365,974,-293,26,25,0,0, 35.702137, 51.350945,0.00,0.09,254
201,110078,98270,-1,-10,353,4.89,10,0,-18,39,-10,88008,1173,-1.78,-0.20,9.64,0.06,0.02,0.13,1364,974,-293,26,25,0,0, 35.702137, 51.350945,0.00,0.09,254
201,110367,98555,-1,-10,353,3.46,11,0,-17,39,-10,88002,1173,-1.80,-0.34,9.63,-0.12,0.02,0.13,1363,975,-292,26,25,0,0, 35.702137, 51.350945,0.00,0.09,254
201,110652,98843,-1,-10,353,4.89,10,0,-17,40,-10,88007,1172,-1.80,-0.21,9.63,-0.06,-0.04,0.13,1367,976,-292,26,25,0,0, 35.702137, 51.350945,0.00,0.09,254
201,110939,99130,-1,-10,352,3.46,11,0,-17,39,-10,88006,1173,-1.78,-0.29,9.63,0.00,0.02,-0.05,1367,976,-292,26,25,0,0, 35.702137, 51.350945,0.00,0.09,254
201,111230,99419,-1,-10,352,3.46,10,0,-18,39,-10,88004,1173,-1.80,-0.30,9.63,-0.30,-0.10,-0.05,1363,975,-293,26,25,0,0, 35.702137, 51.350891,0.00,0.20,254
201,111417,99705,-1,-10,353,4.89,10,0,-18,39,-10,88004,1173,-1.75,-0.32,9.64,0.06,-0.04,-0.17,1362,975,-293,26,25,0,0, 35.702137, 51.350891,0.00,0.20,254
201,111610,99896,-1,-10,352,4.89,10,0,-18,39,-10,88006,1173,-1.72,-0.21,9.65,0.06,0.02,-0.05,1364,975,-292,27,25,0,0, 35.702137, 51.350891,0.00,0.20,254
201,111803,100086,-1,-10,352,3.46,11,0,-17,39,-10,88004,1172,-1.80,-0.22,9.63,0.06,0.02,-0.11,1364,976,-291,26,25,0,0, 35.702137, 51.350891,0.00,0.20,254
201,111993,100280,-1,-10,352,3.46,11,0,-17,40,-10,88008,1172,-1.76,-0.31,9.64,-0.06,-0.10,0.13,1363,975,-292,26,25,0,0, 35.702137, 51.350891,0.00,0.20,254
201,112281,100471,-1,-10,353,4.89,10,0,-18,39,-10,88007,1173,-1.75,-0.21,9.64,0.06,0.02,0.13,1364,974,-292,26,25,0,0, 35.702137, 51.350891,0.00,0.20,254
201,112566,100757,-1,-10,352,3.46,10,0,-17,40,-10,88006,1173,-1.82,-0.25,9.63,0.00,0.02,-0.05,1365,974,-291,26,25,0,0, 35.702137, 51.350891,0.00,0.20,254
201,112856,101044,-1,-10,353,3.46,10,0,-18,39,-10,88007,1173,-1.78,-0.29,9.63,-0.12,0.08,0.13,1365,975,-291,26,25,0,0, 35.702137, 51.350891,0.00,0.20,254
201,113141,101332,-1,-10,353,4.89,10,0,-18,39,-10,88006,1172,-1.80,-0.27,9.63,-0.06,-0.10,0.07,1367,974,-292,26,25,0,0, 35.702137, 51.350891,0.00,0.20,254
201,113430,101619,-1,-10,352,4.89,10,0,-17,40,-10,88004,1173,-1.76,-0.24,9.64,0.31,-0.04,0.07,1367,973,-292,26,25,0,0, 35.702137, 51.350891,0.00,0.20,254
201,113715,101906,-1,-10,353,3.46,10,0,-17,39,-10,88007,1172,-1.78,-0.26,9.63,-0.12,0.08,0.07,1367,975,-293,26,25,0,0, 35.702137, 51.350891,0.00,0.20,254
201,114008,102194,-1,-10,353,4.89,11,0,-17,39,-10,88006,1173,-1.78,-0.19,9.63,-0.12,0.02,0.01,1365,975,-293,26,25,0,0, 35.702137, 51.350891,0.00,0.20,254
201,114288,102480,-1,-10,352,4.89,10,0,-18,39,-10,88009,1173,-1.73,-0.25,9.64,0.06,0.08,-0.05,1364,975,-293,26,25,0,0, 35.702137, 51.350891,0.00,0.20,254
201,114579,102768,-1,-10,352,3.46,11,0,-17,40,-10,88006,1173,-1.79,-0.21,9.63,-0.06,0.14,-0.11,1363,975,-292,26,25,0,0, 35.702137, 51.350891,0.00,0.20,254
201,114863,103054,-1,-10,353,4.89,10,0,-18,39,-10,88009,1173,-1.77,-0.24,9.64,-0.06,-0.16,0.07,1363,975,-293,26,25,0,0, 35.702137, 51.350891,0.00,0.20,254
201,115150,103343,-1,-10,352,3.46,11,0,-17,39,-10,88007,1172,-1.74,-0.24,9.64,-0.06,0.14,0.01,1364,975,-293,26,25,0,0, 35.702137, 51.350891,0.00,0.20,254
201,115438,103629,-1,-10,353,4.89,11,0,-17,39,-10,88007,1173,-1.77,-0.27,9.63,0.06,-0.04,0.07,1363,976,-293,26,25,0,0, 35.702137, 51.350891,0.00,0.20,254
201,115727,103916,-1,-10,352,5.99,10,0,-17,39,-10,88008,1173,-1.77,-0.27,9.63,0.06,0.02,-0.05,1363,976,-293,26,25,0,0, 35.702137, 51.350891,0.00,0.20,254
201,115919,104204,-1,-10,352,3.46,10,0,-17,39,-10,88003,1172,-1.83,-0.29,9.62,0.00,0.08,-0.05,1366,976,-293,26,25,0,0, 35.702137, 51.350891,0.00,0.20,254
201,116205,104395,-1,-10,352,4.89,11,0,-17,39,-10,88005,1173,-1.81,-0.22,9.63,0.12,-0.10,0.01,1363,977,-292,26,25,0,0, 35.702137, 51.350891,0.00,0.20,254
201,116492,104682,-1,-10,352,4.89,10,0,-18,39,-10,88008,1173,-1.80,-0.28,9.63,-0.06,-0.04,0.07,1365,977,-293,26,25,0,0, 35.702137, 51.350891,0.00,0.20,254
201,116778,104969,-1,-10,352,4.89,10,0,-18,39,-10,88005,1172,-1.76,-0.23,9.64,0.00,0.08,-0.17,1364,976,-293,26,25,0,0, 35.702137, 51.350891,0.00,0.20,254
201,117064,105256,-1,-10,352,4.89,10,0,-18,39,-10,88007,1172,-1.74,-0.27,9.64,0.12,0.02,0.07,1368,975,-293,26,25,0,0, 35.702137, 51.350891,0.00,0.20,254
