checksumStart,logTime,missionTime,roll,pitch,heading,airSpeed,elevator,aileron,alfa,betha,standAngle,pressure,pressureAlt,ax,ay,az,gx,gy,gz,lc1,lc2,lc3,lc4,temprature,voltage,GPSSats,GPSLat,GPSLong,GPSAlt,GPSSpeed,checksumEnd
201,47511,1206444,-1,10,326,1.14,9,0,-50,-29,10,87430,1226,1.95,-0.37,10.21,0.05,-0.24,-0.24,139,1074,-41,3,24,100,8, 35.702160, 51.350807,1243.58,0.16,254

201,47798,1206732,-2,10,327,1.14,9,0,-51,-29,10,87427,1227,1.94,-0.35,10.10,0.11,-0.17,0.01,142,1075,-41,2,24,100,8, 35.702160, 51.350807,1243.58,0.16,254

201,48085,1207019,-2,10,326,1.14,9,0,-50,-29,10,87428,1226,1.96,-0.41,10.14,-0.01,-0.11,0.13,141,1074,-41,3,24,100,8, 35.702160, 51.350807,1243.58,0.16,254

201,48373,1207306,-1,10,326,1.14,9,0,-50,-29,10,87431,1226,1.95,-0.40,10.21,0.11,-0.05,0.19,142,1075,-41,2,24,100,8, 35.702160, 51.350807,1243.58,0.16,254

201,48660,1207593,-2,10,326,1.14,9,0,-51,-29,10,87429,1226,1.89,-0.42,10.17,0.17,-0.17,-0.05,140,1074,-41,3,24,100,8, 35.702160, 51.350807,1243.58,0.16,254

201,48851,1207881,-2,10,327,1.14,9,0,-51,-29,10,87429,1227,1.94,-0.44,10.07,0.11,-0.24,0.01,140,1074,-41,3,24,100,8, 35.702160, 51.350807,1243.58,0.16,254

201,49043,1208072,-2,10,326,1.14,9,0,-51,-29,10,87429,1226,1.96,-0.34,10.14,-0.07,-0.17,0.01,141,1074,-41,3,24,100,8, 35.702160, 51.350807,1243.58,0.16,254

201,49234,1208263,-2,10,327,1.14,9,0,-50,-29,10,87429,1227,1.94,-0.43,10.13,0.17,-0.05,0.01,142,1074,-41,3,24,100,8, 35.702160, 51.350807,1243.58,0.16,254

201,49425,1208454,-2,10,326,1.14,9,0,-50,-29,10,87434,1226,1.93,-0.37,10.13,-0.13,-0.05,0.13,144,1074,-41,3,24,100,8, 35.702160, 51.350807,1243.58,0.16,254

201,49713,1208647,-2,11,327,1.14,9,0,-51,-29,11,87429,1226,1.95,-0.42,10.15,0.05,0.01,-0.05,143,1074,-41,2,24,100,8, 35.702160, 51.350807,1243.58,0.16,254

201,50000,1208933,-2,10,326,1.22,9,0,-51,-29,10,87430,1226,1.90,-0.40,10.15,0.17,-0.05,0.01,140,1074,-41,3,24,100,8, 35.702160, 51.350807,1243.58,0.16,254

201,50287,1209221,-2,10,326,1.14,9,0,-50,-29,10,87431,1226,1.89,-0.33,10.16,-0.01,0.19,0.01,145,1074,-41,3,24,100,8, 35.702160, 51.350807,1243.58,0.16,254

201,50575,1209506,-2,10,327,1.07,9,0,-51,-29,10,87432,1227,1.92,-0.41,10.13,-0.01,-0.11,-0.05,145,1074,-41,2,24,100,8, 35.702160, 51.350807,1243.58,0.16,254

201,50861,1209796,-2,10,326,1.14,9,0,-50,-29,10,87428,1227,1.93,-0.42,10.16,-0.01,-0.17,0.13,144,1075,-41,3,24,100,8, 35.702160, 51.350807,1243.58,0.16,254

201,51148,1210082,-2,10,326,1.14,9,0,-51,-29,10,87431,1226,1.90,-0.39,10.16,0.11,-0.24,0.01,142,1074,-41,3,24,100,8, 35.702160, 51.350807,1243.58,0.16,254

201,51436,1210369,-2,10,326,1.14,9,0,-51,-29,10,87433,1227,1.97,-0.35,10.10,0.17,-0.11,0.07,143,1075,-41,2,24,100,8, 35.702160, 51.350807,1243.58,0.16,254

201,51723,1210656,-2,10,326,1.07,9,0,-50,-29,10,87430,1226,1.93,-0.39,10.15,0.05,-0.11,0.13,142,1074,-41,2,24,100,8, 35.702160, 51.350807,1243.58,0.16,254

201,52010,1210943,-2,10,326,1.14,10,0,-50,-29,10,87429,1226,1.90,-0.42,10.10,0.11,-0.11,0.13,145,1075,-41,3,24,100,8, 35.702160, 51.350807,1243.58,0.16,254

201,52297,1211231,-2,10,326,1.14,9,0,-51,-29,10,87428,1227,1.93,-0.40,10.07,0.11,-0.11,0.07,146,1074,-41,2,24,100,8, 35.702160, 51.350807,1243.58,0.16,254

201,52584,1211516,-2,10,327,1.14,9,0,-51,-29,10,87431,1226,1.91,-0.39,10.15,-0.07,0.01,0.01,143,1074,-41,2,24,100,8, 35.702160, 51.350807,1243.58,0.16,254

201,52871,1211805,-2,10,327,1.14,9,0,-51,-29,10,87430,1227,1.92,-0.37,10.22,0.05,-0.11,0.01,143,1074,-41,3,24,100,8, 35.702148, 51.350784,1243.58,0.15,254

201,53159,1212092,-2,11,326,1.14,9,0,-51,-29,11,87430,1226,1.93,-0.43,10.20,-0.01,-0.05,0.07,140,1074,-41,2,24,100,8, 35.702148, 51.350784,1243.58,0.15,254

201,53350,1212379,-2,10,326,1.22,9,0,-51,-29,10,87429,1226,1.90,-0.41,10.10,-0.07,-0.24,0.01,142,1074,-41,2,24,100,8, 35.702148, 51.350784,1243.58,0.15,254

201,53638,1212570,-2,10,326,1.22,9,0,-51,-29,10,87431,1226,1.95,-0.43,10.14,-0.07,-0.05,-0.05,143,1074,-41,2,24,100,8, 35.702148, 51.350784,1243.58,0.15,254

201,53924,1212858,-2,10,326,1.22,9,0,-51,-29,10,87431,1226,1.94,-0.37,10.12,0.05,-0.05,0.01,141,1074,-41,2,24,100,8, 35.702145, 51.350780,1243.58,0.03,254

201,54212,1213145,-2,10,326,1.14,9,0,-51,-29,10,87433,1226,1.90,-0.39,10.19,0.17,-0.11,0.07,141,1074,-41,2,24,100,8, 35.702145, 51.350780,1243.58,0.03,254

201,54499,1213431,-2,10,326,1.22,9,0,-51,-29,10,87431,1226,1.92,-0.37,10.03,0.05,-0.24,-0.05,144,1075,-41,3,24,100,8, 35.702145, 51.350780,1243.58,0.03,254

201,54787,1213720,-2,10,326,1.14,9,0,-51,-29,10,87430,1226,1.92,-0.42,10.04,-0.01,-0.11,-0.05,142,1074,-41,2,24,100,8, 35.702145, 51.350780,1243.58,0.03,254

201,55169,1214007,-2,10,326,1.14,10,0,-50,-29,10,87428,1226,1.92,-0.38,10.11,0.17,-0.11,-0.05,143,1074,-41,3,24,100,8, 35.702145, 51.350780,1243.58,0.03,254

201,55457,1214390,-2,10,326,1.14,9,0,-51,-29,10,87431,1226,1.96,-0.41,10.18,0.05,-0.17,-0.05,141,1074,-41,3,24,100,8, 35.702145, 51.350780,1243.58,0.03,254

201,55648,1214678,-2,10,326,1.14,9,0,-51,-29,10,87429,1226,1.92,-0.39,10.21,0.11,-0.24,0.01,144,1074,-41,2,24,100,8, 35.702145, 51.350780,1243.58,0.03,254

201,55839,1214868,-2,10,326,1.22,9,0,-51,-29,10,87431,1226,1.91,-0.38,10.14,0.05,-0.17,-0.12,144,1075,-41,3,24,100,8, 35.702145, 51.350780,1243.58,0.03,254

201,56030,1215059,-2,10,326,1.14,9,0,-51,-28,10,87432,1226,1.92,-0.37,10.10,0.05,-0.11,0.07,146,1074,-41,3,24,100,8, 35.702145, 51.350780,1243.58,0.03,254

201,56318,1215250,-2,10,327,1.14,9,0,-50,-29,10,87433,1226,1.96,-0.37,10.12,0.05,-0.05,0.07,143,1074,-41,2,24,100,8, 35.702145, 51.350780,1243.58,0.03,254

201,56509,1215537,-2,10,326,1.14,9,0,-51,-29,10,87431,1226,1.90,-0.39,10.15,-0.01,-0.24,0.07,140,1075,-41,2,24,100,8, 35.702145, 51.350780,1243.58,0.03,254

201,56700,1215730,-2,10,327,1.22,9,0,-51,-29,10,87430,1227,1.86,-0.39,10.12,-0.01,-0.05,0.01,148,1074,-41,2,24,100,8, 35.702141, 51.350777,1243.58,0.05,254

201,56892,1215921,-1,10,326,1.14,9,0,-51,-29,10,87430,1226,1.93,-0.40,10.03,0.11,-0.11,0.01,142,1074,-41,3,24,100,8, 35.702141, 51.350777,1243.58,0.05,254

201,57083,1216112,-2,10,326,1.14,9,0,-50,-29,10,87430,1226,1.86,-0.44,10.10,0.11,-0.17,-0.05,138,1074,-41,3,24,100,8, 35.702141, 51.350777,1243.58,0.05,254

201,57275,1216304,-2,10,326,1.14,9,0,-50,-29,10,87433,1226,1.90,-0.40,10.09,0.17,-0.17,-0.12,141,1074,-41,3,24,100,8, 35.702141, 51.350777,1243.58,0.05,254

201,57467,1216494,-2,11,326,1.22,9,0,-51,-29,11,87427,1226,1.91,-0.38,10.14,-0.07,-0.05,0.01,138,1074,-41,3,24,100,8, 35.702141, 51.350777,1243.58,0.05,254

201,57754,1216687,-2,10,327,1.14,9,0,-50,-29,10,87432,1226,1.92,-0.44,10.15,-0.01,-0.17,0.01,141,1075,-41,2,24,100,8, 35.702141, 51.350777,1243.58,0.05,254

201,57945,1216973,-2,10,326,1.14,9,0,-50,-29,10,87431,1226,1.96,-0.40,10.15,-0.01,0.13,0.13,141,1075,-41,3,24,100,8, 35.702141, 51.350777,1243.58,0.05,254

201,58137,1217165,-2,10,326,1.14,9,0,-51,-29,10,87431,1227,1.95,-0.39,10.10,0.24,-0.11,0.13,139,1074,-41,2,24,100,8, 35.702141, 51.350777,1243.58,0.05,254

201,58328,1217355,-2,10,327,1.14,9,0,-51,-29,10,87430,1226,1.94,-0.42,10.11,0.11,-0.17,0.01,140,1074,-41,3,24,100,8, 35.702141, 51.350777,1243.58,0.05,254

201,58519,1217548,-2,10,326,1.14,9,0,-51,-29,10,87431,1226,1.87,-0.35,10.16,0.05,-0.05,0.01,140,1074,-41,2,24,100,8, 35.702141, 51.350777,1243.58,0.05,254

201,58711,1217739,-2,10,326,1.22,9,0,-51,-29,10,87430,1227,1.95,-0.38,10.16,-0.01,-0.05,-0.05,142,1075,-41,3,24,100,8, 35.702141, 51.350769,1243.58,0.04,254

201,58998,1217931,-2,10,326,1.14,9,0,-50,-29,10,87435,1226,1.95,-0.37,10.18,0.05,-0.24,0.07,140,1075,-41,3,24,100,8, 35.702141, 51.350769,1243.58,0.04,254

201,59285,1218217,-2,10,326,1.22,9,0,-51,-29,10,87429,1227,1.85,-0.41,10.17,0.11,-0.24,0.13,141,1075,-41,2,24,100,8, 35.702141, 51.350769,1243.58,0.04,254

201,59572,1218504,-2,10,326,1.14,9,0,-51,-29,10,87430,1227,1.90,-0.42,10.16,0.17,-0.17,0.01,141,1074,-41,3,24,100,8, 35.702141, 51.350769,1243.58,0.04,254

201,59860,1218793,-2,10,326,1.14,9,0,-50,-29,10,87430,1227,1.91,-0.43,10.14,0.05,-0.17,0.07,142,1074,-41,2,24,100,8, 35.702141, 51.350769,1243.58,0.04,254

201,60147,1219079,-2,10,326,1.14,9,0,-50,-29,10,87431,1226,1.91,-0.37,10.21,0.05,-0.11,0.01,141,1075,-41,3,24,100,8, 35.702141, 51.350769,1243.58,0.04,254

201,60433,1219366,-2,10,326,0.99,9,0,-50,-29,10,87430,1226,1.90,-0.34,10.15,0.24,-0.17,0.01,140,1074,-41,2,24,100,8, 35.702141, 51.350769,1243.58,0.04,254

201,60626,1219654,-2,10,326,1.14,9,0,-51,-29,10,87428,1226,1.94,-0.43,10.13,-0.01,-0.11,-0.12,141,1074,-41,2,24,100,8, 35.702141, 51.350769,1243.58,0.04,254

201,60817,1219846,-1,11,327,1.14,9,0,-51,-29,11,87430,1226,1.94,-0.42,10.21,0.05,-0.30,-0.05,138,1074,-41,2,24,100,8, 35.702141, 51.350769,1243.58,0.04,254

201,61008,1220036,-2,10,327,1.14,9,0,-50,-29,10,87430,1226,1.93,-0.40,10.13,0.05,-0.11,0.19,140,1074,-41,3,24,100,8, 35.702141, 51.350769,1243.58,0.04,254

201,61200,1220228,-2,10,326,1.14,9,0,-51,-29,10,87430,1226,1.91,-0.35,10.14,0.11,-0.11,-0.05,147,1074,-41,2,24,100,8, 35.702141, 51.350769,1243.58,0.04,254

201,61391,1220418,-2,10,326,1.14,9,0,-51,-29,10,87431,1227,1.87,-0.41,10.12,0.05,-0.30,0.07,142,1074,-41,2,24,100,8, 35.702141, 51.350769,1243.58,0.04,254

201,61679,1220612,-2,10,326,1.14,9,0,-50,-29,10,87433,1226,1.89,-0.37,10.08,0.17,-0.11,0.07,140,1074,-41,2,24,100,8, 35.702141, 51.350769,1243.58,0.04,254

201,61965,1220898,-2,10,326,1.22,9,0,-51,-29,10,87433,1226,1.90,-0.40,10.05,0.17,-0.17,0.01,143,1074,-41,3,24,100,8, 35.702141, 51.350769,1243.58,0.04,254

201,62252,1221185,-2,10,326,1.14,9,0,-51,-29,10,87431,1226,1.91,-0.38,10.15,-0.07,-0.24,0.07,137,1074,-41,3,24,100,8, 35.702141, 51.350769,1243.58,0.04,254

201,62540,1221472,-1,10,326,1.22,9,0,-50,-29,10,87433,1226,1.88,-0.45,10.17,0.11,-0.30,-0.05,140,1074,-41,3,24,100,8, 35.702141, 51.350769,1243.58,0.04,254

201,62731,1221761,-2,10,326,1.22,9,0,-51,-29,10,87430,1226,1.90,-0.39,10.11,0.11,0.07,0.07,143,1074,-41,3,24,100,8, 35.702141, 51.350769,1243.58,0.04,254

201,63019,1221950,-1,10,326,1.22,9,0,-50,-29,10,87434,1226,1.92,-0.41,10.13,-0.01,0.07,0.01,141,1074,-41,2,24,100,8, 35.702141, 51.350769,1243.58,0.04,254

201,63305,1222238,-2,10,326,1.22,9,0,-51,-29,10,87430,1226,1.92,-0.46,10.14,0.05,-0.05,0.13,141,1074,-41,2,24,100,8, 35.702141, 51.350769,1243.58,0.04,254

201,63593,1222524,-2,10,326,1.22,9,0,-51,-29,10,87429,1226,1.97,-0.39,10.12,-0.01,-0.05,0.07,138,1075,-41,2,24,100,8, 35.702141, 51.350769,1243.58,0.04,254

201,63881,1222813,-2,10,326,1.14,9,0,-51,-29,10,87431,1226,1.81,-0.41,10.10,-0.01,-0.11,-0.05,142,1074,-41,2,24,100,8, 35.702141, 51.350769,1243.58,0.04,254

201,64168,1223100,-2,11,326,1.07,9,0,-51,-29,11,87429,1226,1.96,-0.40,10.14,-0.01,-0.24,-0.05,142,1074,-41,2,24,100,8, 35.702141, 51.350769,1243.58,0.04,254

201,64550,1223387,-2,10,326,1.14,9,0,-50,-29,10,87430,1227,1.93,-0.41,10.10,0.05,-0.11,0.01,141,1075,-41,2,24,100,8, 35.702141, 51.350769,1243.58,0.04,254

201,64838,1223770,-2,10,326,1.22,9,0,-51,-29,10,87431,1226,1.89,-0.44,10.22,-0.01,-0.11,0.01,142,1074,-41,2,24,100,8, 35.702141, 51.350769,1243.58,0.04,254

201,65029,1224056,-2,10,326,1.14,9,0,-51,-29,10,87427,1226,1.90,-0.32,10.08,-0.01,-0.17,0.01,142,1074,-41,2,24,100,8, 35.702141, 51.350769,1243.58,0.04,254

201,65222,1224248,-1,10,326,1.14,9,0,-51,-29,10,87427,1226,1.93,-0.39,10.21,-0.01,-0.30,-0.05,143,1074,-41,3,24,100,8, 35.702141, 51.350769,1243.58,0.04,254

201,65412,1224439,-1,10,326,1.22,9,0,-51,-29,10,87429,1226,1.94,-0.37,10.05,0.05,0.13,-0.12,139,1074,-41,2,24,100,8, 35.702141, 51.350769,1243.58,0.04,254

201,65700,1224632,-2,10,326,1.14,9,0,-51,-29,10,87430,1226,2.01,-0.40,10.17,-0.13,-0.11,-0.05,146,1074,-41,3,24,100,8, 35.702141, 51.350769,1243.58,0.04,254

201,65986,1224920,-2,10,326,1.14,9,0,-51,-29,10,87429,1226,1.89,-0.40,10.05,0.05,-0.11,0.13,143,1074,-41,3,24,100,8, 35.702141, 51.350769,1243.58,0.04,254

201,66273,1225205,-2,10,326,1.22,9,0,-51,-29,10,87432,1227,1.93,-0.41,10.17,0.24,-0.17,0.01,143,1075,-41,3,24,100,8, 35.702141, 51.350769,1243.58,0.04,254

201,66561,1225491,-2,10,327,1.14,9,0,-51,-29,10,87429,1226,1.95,-0.39,10.06,0.24,-0.05,-0.05,141,1074,-41,2,24,100,8, 35.702141, 51.350769,1243.58,0.04,254

201,66848,1225781,-2,10,326,1.07,9,0,-51,-29,10,87430,1226,1.90,-0.38,10.22,0.17,-0.17,-0.05,142,1074,-41,2,24,100,8, 35.702141, 51.350769,1243.58,0.04,254

201,67230,1226066,-2,10,327,1.14,9,0,-51,-29,10,87427,1227,1.95,-0.44,10.14,-0.07,-0.17,0.19,143,1074,-41,3,24,100,8, 35.702141, 51.350769,1243.58,0.04,254

201,67518,1226449,-2,10,326,1.14,9,0,-50,-29,10,87432,1227,1.87,-0.42,10.03,-0.01,-0.11,0.01,143,1075,-41,2,24,100,8, 35.702141, 51.350769,1243.58,0.04,254

201,67804,1226737,-2,10,327,1.14,9,0,-51,-29,10,87428,1227,1.89,-0.41,10.02,0.11,0.01,-0.05,141,1074,-41,2,24,100,8, 35.702141, 51.350769,1243.58,0.04,254

201,68092,1227024,-2,10,326,1.14,9,0,-51,-29,10,87429,1226,1.90,-0.46,10.11,-0.07,-0.24,0.07,142,1075,-41,2,24,100,8, 35.702141, 51.350769,1243.58,0.04,254

201,68474,1227311,-2,10,327,1.22,9,0,-51,-29,10,87428,1227,1.92,-0.43,10.14,-0.01,-0.17,0.01,141,1074,-41,3,24,100,8, 35.702141, 51.350769,1243.58,0.04,254

201,68763,1227695,-2,10,326,1.22,9,0,-51,-29,10,87431,1226,1.93,-0.40,10.20,0.11,0.01,0.13,143,1074,-41,2,24,100,8, 35.702141, 51.350769,1243.58,0.04,254

201,68953,1227980,-1,10,326,1.22,9,0,-51,-29,10,87427,1227,1.93,-0.33,10.08,0.05,-0.11,0.01,140,1074,-41,2,24,100,8, 35.702141, 51.350769,1243.58,0.04,254

201,69144,1228172,-2,10,326,1.07,9,0,-50,-29,10,87430,1227,1.94,-0.39,10.22,0.05,0.01,0.01,144,1074,-41,2,24,100,8, 35.702141, 51.350769,1243.58,0.04,254

201,69336,1228362,-2,10,326,1.22,9,0,-51,-29,10,87427,1227,1.92,-0.38,10.15,0.11,0.01,-0.05,145,1075,-41,2,24,100,8, 35.702141, 51.350769,1243.58,0.04,254

201,69527,1228555,-2,10,326,1.22,9,0,-50,-29,10,87432,1227,1.86,-0.39,10.16,0.11,0.01,0.01,140,1074,-41,2,24,100,8, 35.702141, 51.350769,1243.58,0.04,254

201,69719,1228747,-2,10,326,1.22,9,0,-51,-29,10,87428,1227,1.90,-0.38,10.12,-0.01,-0.17,0.13,144,1074,-41,3,24,100,8, 35.702126, 51.350750,1243.58,0.06,254

201,69910,1228938,-2,10,326,1.22,9,0,-51,-28,10,87430,1227,1.95,-0.39,10.19,0.11,-0.11,0.01,137,1074,-41,3,24,100,8, 35.702126, 51.350750,1243.58,0.06,254

201,70101,1229129,-2,10,326,1.14,9,0,-51,-29,10,87428,1226,1.93,-0.38,10.14,0.05,-0.17,0.01,139,1073,-41,2,24,100,8, 35.702126, 51.350750,1243.58,0.06,254

201,70294,1229321,-2,10,326,1.14,9,0,-51,-29,10,87431,1227,1.91,-0.40,10.16,0.11,-0.05,0.19,143,1074,-41,2,24,100,8, 35.702126, 51.350750,1243.58,0.06,254

201,70485,1229511,-2,10,326,1.22,9,0,-51,-29,10,87432,1227,1.87,-0.45,10.13,0.11,-0.11,0.01,140,1074,-41,2,24,100,8, 35.702126, 51.350750,1243.58,0.06,254

201,70676,1229705,-1,11,326,1.22,9,0,-51,-29,11,87431,1227,1.91,-0.40,10.17,0.17,-0.24,-0.05,140,1074,-41,2,24,100,8, 35.702126, 51.350750,1243.58,0.06,254

201,70964,1229895,-2,10,326,1.14,9,0,-51,-29,10,87429,1227,1.90,-0.41,10.06,0.05,-0.24,0.07,142,1074,-41,3,24,100,8, 35.702126, 51.350750,1243.58,0.06,254

201,71251,1230182,-2,10,327,1.14,9,0,-51,-29,10,87426,1227,1.93,-0.43,10.16,-0.01,-0.05,-0.05,145,1074,-41,3,24,100,8, 35.702126, 51.350750,1243.58,0.06,254

201,71538,1230469,-2,10,326,1.14,9,0,-51,-29,10,87432,1227,1.96,-0.35,10.18,0.11,-0.11,0.07,142,1074,-41,3,24,100,8, 35.702126, 51.350750,1243.58,0.06,254

201,71824,1230757,-2,10,326,1.14,9,0,-51,-29,10,87426,1227,1.90,-0.39,10.09,0.05,0.01,0.01,145,1074,-41,3,24,100,8, 35.702126, 51.350750,1243.58,0.06,254

201,72016,1231043,-2,10,326,1.22,9,0,-51,-29,10,87427,1227,1.96,-0.36,10.11,0.11,-0.11,0.13,140,1074,-41,3,24,100,8, 35.702126, 51.350750,1243.58,0.06,254

201,72303,1231235,-2,10,326,1.14,9,0,-50,-29,10,87431,1226,1.93,-0.42,10.09,0.05,-0.05,0.01,139,1074,-41,2,24,100,8, 35.702126, 51.350750,1243.58,0.06,254

201,72590,1231521,-1,11,326,1.14,10,0,-51,-29,11,87431,1227,1.95,-0.41,10.12,0.05,-0.17,0.07,138,1075,-41,3,24,100,8, 35.702126, 51.350750,1243.58,0.06,254

201,72878,1231810,-2,10,326,1.14,9,0,-51,-29,10,87427,1227,1.88,-0.38,10.16,0.11,-0.11,-0.05,142,1074,-41,3,24,100,8, 35.702122, 51.350739,1243.58,0.04,254

201,73069,1232097,-2,10,327,1.14,9,0,-51,-29,10,87429,1226,1.92,-0.40,10.15,0.17,-0.36,0.13,141,1074,-41,2,24,100,8, 35.702122, 51.350739,1243.58,0.04,254

201,73260,1232288,-2,10,326,1.14,9,0,-50,-29,10,87428,1227,1.93,-0.39,10.15,0.05,-0.11,0.07,141,1074,-41,2,24,100,8, 35.702122, 51.350739,1243.58,0.04,254

201,73452,1232479,-2,10,327,1.22,9,0,-51,-29,10,87429,1226,1.94,-0.34,10.16,-0.01,-0.05,-0.05,140,1074,-41,2,24,100,8, 35.702122, 51.350739,1243.58,0.04,254

201,73739,1232672,-2,10,326,1.14,9,0,-51,-29,10,87430,1227,1.92,-0.40,10.12,0.11,0.01,0.01,137,1073,-41,3,24,100,8, 35.702122, 51.350739,1243.58,0.04,254

201,74029,1232958,-2,10,326,1.14,9,0,-50,-29,10,87431,1227,1.88,-0.33,10.12,-0.01,-0.17,0.07,141,1074,-41,2,24,100,8, 35.702122, 51.350739,1243.58,0.04,254

201,74219,1233246,-2,10,326,1.07,9,0,-50,-29,10,87429,1227,1.97,-0.41,10.18,-0.07,-0.11,-0.05,140,1074,-41,2,24,100,8, 35.702122, 51.350739,1243.58,0.04,254

201,74411,1233436,-2,10,326,1.14,9,0,-51,-29,10,87430,1226,1.91,-0.40,10.18,-0.01,-0.11,0.01,144,1074,-41,3,24,100,8, 35.702122, 51.350739,1243.58,0.04,254

201,74601,1233629,-2,10,327,1.14,9,0,-51,-29,10,87431,1227,1.94,-0.42,10.17,0.11,0.01,0.01,138,1074,-41,3,24,100,8, 35.702122, 51.350739,1243.58,0.04,254

201,74792,1233819,-2,10,326,1.07,9,0,-51,-29,10,87429,1227,1.99,-0.32,10.17,0.11,-0.11,0.07,143,1075,-41,3,24,100,8, 35.702122, 51.350739,1243.58,0.04,254

201,75080,1234012,-2,10,327,1.14,9,0,-51,-29,10,87428,1227,1.97,-0.44,10.19,0.11,-0.17,0.07,146,1074,-41,2,24,100,8, 35.702122, 51.350739,1243.58,0.04,254

201,75367,1234298,-1,10,326,1.14,9,0,-51,-29,10,87426,1227,1.96,-0.44,10.18,-0.07,-0.05,-0.12,142,1074,-41,3,24,100,8, 35.702122, 51.350739,1243.58,0.04,254

201,75654,1234586,-2,11,326,1.22,9,0,-51,-29,11,87428,1227,1.97,-0.43,10.05,0.11,0.01,-0.05,144,1074,-41,3,24,100,8, 35.702122, 51.350739,1243.58,0.04,254

201,75941,1234873,-2,10,326,1.14,9,0,-51,-29,10,87431,1226,1.95,-0.39,10.08,-0.13,-0.05,0.01,139,1074,-41,2,24,100,8, 35.702122, 51.350727,1243.58,0.04,254

201,76325,1235160,-1,10,327,1.22,9,0,-51,-29,10,87428,1227,1.97,-0.39,10.19,-0.01,-0.05,0.01,141,1075,-41,2,24,100,8, 35.702122, 51.350727,1243.58,0.04,254

201,76611,1235543,-2,10,326,1.14,9,0,-51,-29,10,87428,1227,1.95,-0.41,10.22,0.11,0.01,0.07,145,1074,-41,3,24,100,8, 35.702122, 51.350727,1243.58,0.04,254

201,76899,1235829,-1,10,326,1.14,9,0,-50,-29,10,87427,1227,1.95,-0.36,10.09,0.30,-0.05,-0.05,142,1074,-41,3,24,100,8, 35.702122, 51.350727,1243.58,0.04,254

201,77090,1236117,-2,10,326,1.14,10,0,-50,-29,10,87429,1227,1.88,-0.39,10.18,-0.07,-0.05,0.07,142,1074,-41,3,24,100,8, 35.702122, 51.350727,1243.58,0.04,254

201,77281,1236308,-2,11,326,1.07,9,0,-50,-29,11,87430,1227,1.95,-0.40,10.15,0.05,0.01,0.13,140,1074,-41,2,24,100,8, 35.702122, 51.350727,1243.58,0.04,254

201,77473,1236499,-2,10,326,1.14,9,0,-50,-29,10,87429,1227,1.93,-0.37,12.07,-0.01,-0.36,0.07,146,1074,-41,3,24,100,8, 35.702122, 51.350727,1243.58,0.04,254

201,77760,1236692,-2,10,326,1.14,9,0,-50,-29,10,87427,1227,1.92,-0.36,10.14,0.17,-0.17,0.01,144,1074,-41,2,24,100,8, 35.702122, 51.350727,1243.58,0.04,254

201,78047,1236978,-2,10,326,1.14,9,0,-51,-28,10,87426,1227,1.93,-0.36,10.13,-0.01,0.01,0.01,140,1074,-41,2,24,100,8, 35.702122, 51.350727,1243.58,0.04,254

201,78335,1237265,-2,10,326,1.22,9,0,-51,-29,10,87426,1227,1.95,-0.39,10.20,0.11,-0.17,0.07,144,1074,-41,3,24,100,8, 35.702122, 51.350727,1243.58,0.04,254

201,78622,1237553,-2,10,327,1.14,9,0,-51,-29,10,87426,1227,1.94,-0.42,10.18,0.05,-0.17,0.07,142,1074,-41,2,24,100,8, 35.702122, 51.350727,1243.58,0.04,254

201,78909,1237840,-2,10,326,1.14,9,0,-50,-29,10,87428,1227,1.93,-0.44,10.11,0.11,-0.05,0.07,141,1074,-41,3,24,100,8, 35.702122, 51.350716,1243.58,0.05,254

201,79196,1238127,-2,10,326,1.14,9,0,-51,-29,10,87427,1226,1.91,-0.40,10.22,-0.01,0.07,0.13,141,1074,-41,3,24,100,8, 35.702122, 51.350716,1243.58,0.05,254

201,79483,1238414,-1,10,326,1.22,9,0,-51,-29,10,87426,1227,1.91,-0.37,10.12,0.11,-0.17,-0.12,143,1075,-41,3,24,100,8, 35.702122, 51.350716,1243.58,0.05,254

201,79770,1238702,-2,10,326,1.14,9,0,-50,-29,10,87426,1227,1.93,-0.39,10.20,0.17,-0.17,0.07,142,1074,-41,2,24,100,8, 35.702122, 51.350716,1243.58,0.05,254

201,80058,1238988,-2,10,327,1.22,9,0,-51,-29,10,87429,1227,1.93,-0.46,10.12,0.17,-0.11,0.19,142,1074,-41,2,24,100,8, 35.702122, 51.350716,1243.58,0.05,254

201,80440,1239275,-2,11,326,1.14,9,0,-51,-29,11,87424,1227,1.94,-0.32,10.17,0.17,-0.11,-0.05,144,1074,-41,2,24,100,8, 35.702122, 51.350716,1243.58,0.05,254

201,80823,1239659,-2,10,326,1.22,9,0,-50,-29,10,87424,1227,1.90,-0.41,10.12,-0.01,0.01,0.01,143,1074,-41,2,24,100,8, 35.702122, 51.350716,1243.58,0.05,254

201,81206,1240041,-1,10,326,1.14,9,0,-51,-29,10,87425,1227,1.92,-0.43,10.14,0.17,-0.17,-0.05,145,1074,-41,2,24,100,8, 35.702122, 51.350716,1243.58,0.05,254

201,81398,1240424,-2,10,326,1.14,9,0,-51,-29,10,87424,1227,1.89,-0.42,10.14,-0.01,-0.17,0.07,143,1075,-41,3,24,100,8, 35.702122, 51.350716,1243.58,0.05,254

201,81589,1240616,-2,10,326,1.14,9,0,-51,-29,10,87426,1227,1.91,-0.41,10.19,0.05,-0.11,-0.12,140,1074,-41,3,24,100,8, 35.702122, 51.350716,1243.58,0.05,254

201,81781,1240808,-2,10,326,1.14,9,0,-50,-30,10,87425,1227,1.93,-0.38,10.19,-0.01,-0.17,0.07,141,1074,-41,3,24,100,8, 35.702122, 51.350716,1243.58,0.05,254

201,81972,1240998,-2,10,326,1.14,9,0,-50,-29,10,87424,1227,1.94,-0.38,10.12,-0.01,-0.17,0.01,142,1074,-41,2,24,100,8, 35.702122, 51.350716,1243.58,0.05,254

201,82163,1241190,-2,10,326,1.14,9,0,-50,-29,10,87428,1227,1.95,-0.38,10.14,0.05,-0.11,0.13,139,1074,-41,3,24,100,8, 35.702122, 51.350716,1243.58,0.05,254

201,82354,1241380,-2,11,326,1.14,9,0,-51,-29,11,87426,1227,1.87,-0.41,10.16,0.11,0.01,0.07,143,1074,-41,3,24,100,8, 35.702122, 51.350716,1243.58,0.05,254

201,82546,1241573,-2,10,326,1.07,9,0,-51,-29,10,87427,1227,1.92,-0.39,10.18,-0.01,-0.05,0.01,140,1074,-41,3,24,100,8, 35.702122, 51.350716,1243.58,0.05,254

201,82738,1241764,-2,10,326,1.14,9,0,-51,-29,10,87426,1227,1.90,-0.40,10.16,-0.01,0.01,-0.05,146,1074,-41,3,24,100,8, 35.702122, 51.350704,1243.58,0.05,254

201,83024,1241956,-1,10,327,1.14,9,0,-51,-29,10,87427,1227,1.95,-0.43,10.11,0.05,0.01,0.13,143,1074,-41,3,24,100,8, 35.702122, 51.350704,1243.58,0.05,254

201,83312,1242243,-1,10,326,1.22,9,0,-51,-29,10,87428,1227,1.93,-0.39,10.10,0.05,-0.11,-0.05,145,1074,-41,2,24,100,8, 35.702122, 51.350704,1243.58,0.05,254

201,83503,1242529,-2,10,326,1.14,9,0,-50,-29,10,87423,1227,1.95,-0.37,10.13,0.11,0.01,0.07,145,1074,-41,2,24,100,8, 35.702122, 51.350704,1243.58,0.05,254

201,83695,1242722,-2,10,326,1.14,9,0,-51,-29,10,87427,1227,1.95,-0.34,10.08,0.11,-0.11,0.07,145,1075,-41,3,24,100,8, 35.702122, 51.350704,1243.58,0.05,254

201,83886,1242912,-2,10,326,1.14,9,0,-51,-29,10,87428,1227,1.93,-0.36,10.11,0.30,0.01,-0.12,142,1074,-41,3,24,100,8, 35.702122, 51.350704,1243.58,0.05,254

201,84077,1243104,-1,7,326,1.14,9,0,-51,-29,7,87427,1227,1.96,-0.52,10.37,0.24,0.13,-0.48,144,1074,-41,2,24,100,8, 35.702122, 51.350704,1243.58,0.05,254

201,84365,1243295,-1,11,327,1.07,9,0,-50,-29,11,87424,1227,1.78,-0.19,10.32,1.21,-0.17,0.19,107,1077,-40,1,24,100,8, 35.702122, 51.350704,1243.58,0.05,254

201,84650,1243583,-3,8,326,1.14,9,0,-51,-29,8,87425,1227,1.72,0.06,9.92,-0.19,1.17,0.25,101,1085,-39,1,24,100,8, 35.702122, 51.350704,1243.58,0.05,254

201,84938,1243869,-7,5,325,1.22,9,0,-51,-29,5,87428,1227,2.33,-0.29,10.68,-1.29,1.78,-0.24,99,1080,-44,1,24,100,8, 35.702122, 51.350704,1243.58,0.05,254

201,85225,1244156,-6,4,330,1.22,9,0,-50,-29,4,87423,1227,1.31,-0.10,9.97,0.30,0.98,-0.18,103,1082,-47,1,24,100,8, 35.702122, 51.350704,1243.58,0.05,254

201,85416,1244442,-2,9,324,1.14,9,0,-51,-29,9,87423,1227,1.48,1.59,11.03,1.09,0.80,0.43,100,1078,-48,2,24,100,8, 35.702122, 51.350704,1243.58,0.05,254

201,85704,1244635,0,7,323,1.14,9,0,-51,-29,7,87426,1227,2.46,-0.47,10.24,-0.13,1.41,-0.97,107,1080,-50,2,24,100,8, 35.702122, 51.350704,1243.58,0.05,254

201,90775,1616,-2,8,326,1.14,9,0,-51,-29,8,87428,1227,1.38,-0.41,10.18,-0.53,-0.56,0.12,131,1065,-92,7,24,100,0,  0.000000,  0.000000,0.00,0.00,254

201,91063,1903,-2,7,326,1.14,9,0,-50,-29,7,87426,1227,1.40,-0.40,10.22,-0.04,-0.75,0.06,132,1065,-92,7,24,100,0,  0.000000,  0.000000,0.00,0.00,254

201,91349,2190,-2,7,326,1.14,9,0,-51,-29,7,87426,1227,1.45,-0.38,10.15,0.14,-0.75,0.00,139,1064,-92,7,24,100,0,  0.000000,  0.000000,0.00,0.00,254

201,91732,2476,-2,8,325,1.29,9,0,-51,-29,8,87426,1227,1.46,-0.34,10.17,0.20,-0.75,-0.06,140,1062,-92,7,24,100,0,  0.000000,  0.000000,0.00,0.00,254

201,92115,2861,-1,7,326,1.22,9,0,-51,-29,7,87426,1227,1.42,-0.36,10.13,-0.10,-0.75,0.24,140,1061,-92,7,24,100,0,  0.000000,  0.000000,0.00,0.00,254

201,92402,3243,-2,7,326,1.14,9,0,-51,-29,7,87423,1227,1.47,-0.39,10.15,0.02,-0.62,-0.24,142,1064,-92,7,24,100,0,  0.000000,  0.000000,0.00,0.00,254

201,92594,3530,-2,8,326,1.22,9,0,-51,-29,8,87426,1227,1.45,-0.39,10.26,-0.10,-0.69,-0.12,140,1062,-92,7,24,100,0,  0.000000,  0.000000,0.00,0.00,254

201,92786,3722,-2,7,326,1.14,9,0,-50,-29,7,87425,1227,1.45,-0.32,10.16,-0.04,-0.69,-0.06,140,1062,-92,7,24,100,0,  0.000000,  0.000000,0.00,0.00,254

201,93073,3914,-1,8,326,1.14,9,0,-51,-29,8,87428,1227,1.36,-0.34,10.27,-0.22,-0.87,0.06,138,1062,-92,7,24,100,0,  0.000000,  0.000000,0.00,0.00,254

201,93361,4201,-1,7,326,1.14,9,0,-51,-29,7,87427,1227,1.39,-0.36,10.20,0.02,-0.69,0.06,141,1061,-92,7,24,100,0,  0.000000,  0.000000,0.00,0.00,254

201,93648,4489,-2,7,326,1.22,9,0,-51,-29,7,87430,1227,1.44,-0.35,10.26,-0.04,-0.75,0.24,142,1062,-92,7,24,100,0,  0.000000,  0.000000,0.00,0.00,254

201,93935,4775,-1,7,326,1.07,10,0,-51,-29,7,87429,1227,1.46,-0.40,10.14,0.14,-0.93,0.00,144,1062,-92,7,24,100,0, 35.702118, 51.350681,0.00,0.04,254

201,94318,5063,-2,7,326,1.14,9,0,-50,-29,7,87427,1227,1.38,-0.38,10.24,-0.16,-0.81,0.12,147,1062,-92,7,24,100,0, 35.702118, 51.350681,0.00,0.04,254

201,94510,5445,-2,8,326,1.07,9,0,-50,-29,8,87426,1227,1.38,-0.43,10.18,-0.10,-0.81,0.06,146,1062,-92,7,24,100,0, 35.702118, 51.350681,0.00,0.04,254

201,94701,5638,-2,8,326,1.07,11,0,-51,-29,8,87424,1227,1.45,-0.37,10.31,-0.22,-0.93,0.12,148,1062,-92,7,24,100,0, 35.702118, 51.350674,0.00,0.20,254

201,94892,5828,-2,8,326,1.14,9,0,-51,-29,8,87429,1227,1.45,-0.34,10.25,0.02,-0.75,0.06,144,1061,-92,7,24,100,0, 35.702118, 51.350674,0.00,0.20,254

201,95083,6020,-2,8,326,1.14,9,0,-51,-29,8,87427,1226,1.37,-0.40,10.22,-0.10,-0.69,-0.06,146,1063,-92,7,24,100,0, 35.702118, 51.350674,0.00,0.20,254

201,95275,6211,-1,7,326,1.22,9,0,-51,-29,7,87431,1227,1.40,-0.38,10.21,-0.22,-0.69,0.12,145,1062,-92,7,24,100,0, 35.702118, 51.350674,0.00,0.20,254

201,95563,6402,-2,7,326,1.14,9,0,-51,-29,7,87428,1227,1.38,-0.33,10.27,-0.16,-0.62,0.00,150,1062,-92,7,24,100,0, 35.702118, 51.350674,0.00,0.20,254

201,95849,6690,-1,7,326,1.14,9,0,-51,-29,7,87427,1227,1.40,-0.35,10.18,-0.22,-0.69,0.00,146,1062,-92,7,24,100,0, 35.702118, 51.350674,0.00,0.20,254

201,96137,6977,-1,7,326,1.14,9,0,-50,-29,7,87425,1227,1.52,-0.33,10.22,-0.16,-0.56,0.12,150,1062,-92,7,24,100,0, 35.702118, 51.350674,0.00,0.20,254

201,96423,7264,-1,8,326,1.22,9,0,-51,-29,8,87424,1227,1.43,-0.35,10.21,-0.16,-0.62,0.12,144,1062,-92,7,24,100,0, 35.702118, 51.350674,0.00,0.20,254

201,96615,7552,-2,8,326,1.14,9,0,-50,-29,8,87425,1227,1.45,-0.37,10.23,-0.10,-0.62,0.18,146,1061,-92,7,24,100,0, 35.702118, 51.350674,0.00,0.20,254

201,96807,7743,-1,7,326,1.14,9,0,-51,-29,7,87427,1227,1.43,-0.26,10.17,-0.04,-0.75,0.00,148,1061,-92,7,24,100,0, 35.702118, 51.350674,0.00,0.20,254

201,96998,7934,-2,7,326,1.14,9,0,-51,-29,7,87429,1227,1.42,-0.41,10.21,0.02,-0.75,0.00,144,1062,-92,8,24,100,0, 35.702118, 51.350674,0.00,0.20,254

201,97189,8125,-2,7,326,1.14,9,0,-51,-29,7,87428,1227,1.39,-0.33,10.24,-0.16,-0.62,0.00,141,1062,-92,7,24,100,0, 35.702118, 51.350674,0.00,0.20,254

201,97381,8316,-1,7,326,1.22,9,0,-51,-29,7,87425,1227,1.44,-0.35,10.09,-0.40,-0.81,0.18,145,1061,-92,7,24,100,0, 35.702118, 51.350674,0.00,0.20,254

201,97572,8509,-2,7,326,1.14,9,0,-51,-29,7,87426,1227,1.41,-0.38,10.26,-0.10,-0.56,0.06,145,1062,-92,7,24,100,0, 35.702118, 51.350674,0.00,0.20,254

201,97764,8699,-2,7,326,1.22,9,0,-51,-29,7,87425,1227,1.45,-0.38,10.23,-0.16,-0.75,0.12,143,1062,-92,7,24,100,0, 35.702118, 51.350666,0.00,0.12,254

201,102836,1617,-9,4,326,1.14,9,0,-51,-29,4,87425,1227,1.72,-1.06,11.29,0.09,0.02,-0.61,91,1043,-154,12,24,100,0,  0.000000,  0.000000,0.00,0.00,254

201,103124,1904,-1,3,327,1.14,9,0,-50,-29,3,87425,1227,0.98,0.82,9.36,-1.80,2.39,-1.28,90,1043,-156,12,24,100,0,  0.000000,  0.000000,0.00,0.00,254

201,103411,2192,-10,0,325,1.14,9,0,-51,-29,0,87427,1227,0.33,0.54,11.98,1.55,0.32,0.00,95,1045,-157,12,24,100,0,  0.000000,  0.000000,0.00,0.00,254

201,103794,2480,-3,6,326,1.14,9,0,-51,-29,6,87426,1227,1.10,-2.45,9.28,-1.74,2.70,-1.46,99,1039,-165,13,24,100,0,  0.000000,  0.000000,0.00,0.00,254

201,104081,2863,0,8,323,1.14,9,0,-51,-29,8,87424,1227,0.38,-0.07,8.33,0.82,0.81,0.18,100,1039,-168,13,24,100,0,  0.000000,  0.000000,0.00,0.00,254

201,104368,3149,-13,7,333,1.14,9,0,-51,-30,7,87430,1227,-0.10,0.22,10.11,-0.52,0.02,0.12,103,1038,-173,14,24,100,0,  0.000000,  0.000000,0.00,0.00,254

201,104560,3438,1,3,320,1.07,9,0,-51,-30,3,87426,1227,-0.42,-1.91,8.31,-0.46,2.09,-0.67,102,1036,-173,14,24,100,0,  0.000000,  0.000000,0.00,0.00,254

201,104751,3628,1,1,321,1.14,9,0,-51,-30,1,87426,1227,0.31,-1.43,9.68,0.45,0.81,-0.36,106,1035,-177,14,24,100,0,  0.000000,  0.000000,0.00,0.00,254

201,109824,1618,-2,0,324,1.07,9,0,-51,-30,0,87423,1227,0.21,-0.39,10.31,0.06,0.07,-0.15,127,1013,-217,19,24,100,0,  0.000000,  0.000000,0.00,0.00,254

201,110015,1906,-2,1,324,1.14,9,0,-51,-30,1,87426,1227,0.18,-0.40,10.29,-0.06,0.20,-0.09,126,1013,-217,19,24,100,0,  0.000000,  0.000000,0.00,0.00,254

201,110208,2098,-1,1,324,1.22,9,0,-51,-30,1,87428,1227,0.23,-0.36,10.33,-0.12,0.07,0.03,132,1013,-217,19,24,100,0,  0.000000,  0.000000,0.00,0.00,254

201,110400,2289,-2,1,324,1.14,9,0,-51,-30,1,87428,1227,0.17,-0.34,10.25,0.00,0.01,0.16,135,1013,-217,19,24,100,0,  0.000000,  0.000000,0.00,0.00,254

201,110686,2482,-1,1,324,1.14,9,0,-50,-30,1,87428,1227,0.14,-0.39,10.28,0.19,0.20,0.03,140,1013,-218,19,24,100,0,  0.000000,  0.000000,0.00,0.00,254

201,110973,2768,-1,0,324,1.22,9,0,-51,-31,0,87424,1227,0.25,-0.43,10.31,0.31,-0.05,0.10,139,1013,-217,19,24,100,0,  0.000000,  0.000000,0.00,0.00,254

201,111261,3055,-1,1,324,1.22,9,0,-51,-30,1,87424,1227,0.13,-0.33,10.26,0.12,0.14,-0.09,137,1013,-217,19,24,100,0,  0.000000,  0.000000,0.00,0.00,254

201,111452,3342,-2,1,324,1.22,9,0,-51,-30,1,87426,1227,0.20,-0.40,10.25,0.00,0.26,0.03,135,1012,-217,19,24,100,0,  0.000000,  0.000000,0.00,0.00,254

201,111644,3534,-1,1,324,1.22,10,0,-50,-30,1,87428,1227,0.19,-0.37,10.28,0.06,0.01,0.03,139,1012,-217,19,24,100,0,  0.000000,  0.000000,0.00,0.00,254

201,111931,3726,-1,0,324,1.14,9,0,-50,-30,0,87426,1227,0.16,-0.40,10.30,-0.06,0.07,-0.03,135,1012,-218,19,24,100,0,  0.000000,  0.000000,0.00,0.00,254

201,112218,4013,-2,0,324,1.07,9,0,-51,-30,0,87427,1227,0.17,-0.36,10.35,-0.12,0.14,0.10,138,1013,-217,19,24,100,0,  0.000000,  0.000000,0.00,0.00,254

201,112409,4299,-2,0,324,1.14,9,0,-51,-30,0,87428,1227,0.16,-0.34,10.31,0.25,-0.05,-0.09,136,1012,-217,19,24,100,0,  0.000000,  0.000000,0.00,0.00,254

201,112601,4492,-2,0,324,1.22,9,0,-51,-30,0,87427,1227,0.19,-0.39,10.24,0.00,0.01,0.03,133,1013,-217,19,24,100,0,  0.000000,  0.000000,0.00,0.00,254

201,112793,4682,-2,0,324,1.22,9,0,-51,-30,0,87423,1227,0.18,-0.38,10.31,-0.06,-0.17,0.10,136,1013,-217,19,24,100,0,  0.000000,  0.000000,0.00,0.00,254

201,112984,4875,-2,0,324,1.14,9,0,-51,-30,0,87427,1227,0.20,-0.36,10.30,-0.06,0.07,-0.03,135,1013,-218,19,24,100,0,  0.000000,  0.000000,0.00,0.00,254

201,113271,5065,-2,1,324,1.22,9,0,-51,-30,1,87423,1227,0.15,-0.37,10.29,0.12,-0.11,0.03,140,1013,-217,19,24,100,0,  0.000000,  0.000000,0.00,0.00,254

201,113558,5352,-2,0,324,1.14,9,0,-51,-30,0,87429,1227,0.14,-0.38,10.33,0.12,0.01,0.10,137,1013,-217,19,24,100,0,  0.000000,  0.000000,0.00,0.00,254

201,113846,5640,-2,1,324,1.14,9,0,-50,-30,1,87426,1227,0.14,-0.38,10.28,0.06,-0.11,-0.15,136,1013,-217,19,24,100,0,  0.000000,  0.000000,0.00,0.00,254

201,114132,5927,-2,0,324,1.22,9,0,-51,-30,0,87425,1227,0.18,-0.40,10.22,-0.06,0.07,-0.15,138,1012,-218,19,24,100,0,  0.000000,  0.000000,0.00,0.00,254

201,114420,6214,-2,1,324,1.22,9,0,-51,-30,1,87428,1227,0.17,-0.39,10.31,0.12,-0.05,-0.15,137,1012,-218,19,24,100,0,  0.000000,  0.000000,0.00,0.00,254

201,114707,6502,-2,1,324,1.14,9,0,-51,-30,1,87427,1227,0.13,-0.39,10.30,-0.06,0.01,-0.21,141,1013,-218,19,24,100,0,  0.000000,  0.000000,0.00,0.00,254

201,114994,6789,-1,1,324,1.22,10,0,-51,-30,1,87425,1227,0.17,-0.39,10.32,0.06,-0.05,-0.03,140,1012,-218,19,24,100,0,  0.000000,  0.000000,0.00,0.00,254

201,115280,7075,-1,0,323,1.14,9,0,-51,-30,0,87429,1227,0.16,-0.40,10.16,0.00,0.14,-0.03,139,1013,-218,19,24,100,0,  0.000000,  0.000000,0.00,0.00,254

201,115567,7361,-2,0,323,1.14,9,0,-51,-30,0,87425,1227,0.19,-0.37,10.35,0.06,-0.23,-0.09,135,1012,-218,18,24,100,0,  0.000000,  0.000000,0.00,0.00,254

201,115759,7650,-2,0,324,1.14,9,0,-51,-30,0,87422,1227,0.21,-0.40,10.33,0.06,0.14,0.03,138,1013,-218,19,24,100,0,  0.000000,  0.000000,0.00,0.00,254

201,116046,7840,-2,0,324,1.14,10,0,-51,-30,0,87424,1227,0.14,-0.37,10.35,0.00,0.07,-0.03,141,1013,-218,19,24,100,0,  0.000000,  0.000000,0.00,0.00,254

201,116333,8128,-1,0,324,1.14,9,0,-51,-30,0,87427,1227,0.17,-0.38,10.33,0.12,0.07,-0.09,137,1013,-218,19,24,100,0,  0.000000,  0.000000,0.00,0.00,254

201,116621,8415,-1,0,324,1.22,9,0,-51,-30,0,87427,1227,0.15,-0.40,10.25,-0.06,0.07,-0.03,137,1013,-218,19,24,100,0,  0.000000,  0.000000,0.00,0.00,254

201,116909,8702,-2,0,324,1.14,9,0,-51,-30,0,87424,1227,0.21,-0.41,10.24,-0.06,-0.05,-0.03,138,1012,-218,19,24,100,0, 35.702106, 51.350689,0.00,0.04,254

201,117099,8990,-2,1,324,1.14,9,0,-51,-30,1,87422,1227,0.17,-0.37,10.29,0.00,-0.05,0.03,136,1012,-218,19,24,100,0, 35.702106, 51.350689,0.00,0.04,254

201,117386,9181,-2,1,323,1.14,11,0,-51,-30,1,87425,1227,0.12,-0.31,10.37,0.00,-0.11,0.03,138,1013,-218,19,24,100,0, 35.702106, 51.350689,0.00,0.04,254

201,117674,9469,-1,1,324,1.14,9,0,-51,-30,1,87425,1227,0.25,-0.39,10.39,-0.06,0.07,0.16,140,1013,-218,19,24,100,0, 35.702106, 51.350689,0.00,0.04,254

201,117961,9756,-1,0,324,1.22,9,0,-51,-30,0,87424,1227,0.19,-0.36,10.29,0.06,0.01,0.03,139,1013,-218,19,24,100,0, 35.702106, 51.350689,0.00,0.04,254

201,118248,10042,-2,1,324,1.22,9,0,-51,-30,1,87425,1227,0.19,-0.41,10.20,-0.06,0.07,-0.09,137,1012,-218,19,24,100,0, 35.702106, 51.350689,0.00,0.04,254

201,118535,10330,-2,0,324,1.07,9,0,-51,-30,0,87425,1227,0.17,-0.38,10.28,0.00,0.07,0.03,139,1013,-218,19,24,100,0, 35.702106, 51.350689,0.00,0.04,254

201,118919,10617,-2,0,324,1.22,9,0,-51,-30,0,87420,1227,0.20,-0.41,10.27,-0.18,-0.17,-0.09,138,1013,-218,19,24,100,0, 35.702106, 51.350689,0.00,0.04,254

201,119205,11000,-1,1,324,1.14,9,0,-50,-30,1,87427,1227,0.20,-0.32,10.32,-0.12,0.01,-0.09,138,1012,-218,19,24,100,0, 35.702106, 51.350689,0.00,0.04,254

201,119493,11287,-2,0,323,1.14,9,0,-50,-30,0,87423,1227,0.16,-0.34,10.23,0.06,-0.11,0.16,136,1013,-218,19,24,100,0, 35.702106, 51.350689,0.00,0.04,254

201,119781,11575,-1,0,324,1.22,9,0,-51,-30,0,87424,1227,0.14,-0.33,10.33,0.12,0.14,-0.03,136,1012,-218,19,24,100,0, 35.702106, 51.350689,0.00,0.04,254

201,120068,11862,-2,0,324,1.14,9,0,-51,-30,0,87423,1227,0.16,-0.35,10.28,0.00,-0.17,-0.09,138,1013,-218,19,24,100,0, 35.702106, 51.350689,0.00,0.04,254

201,120354,12149,-2,1,324,1.14,9,0,-51,-30,1,87425,1227,0.16,-0.38,10.30,0.06,-0.05,0.03,139,1013,-218,19,24,100,0, 35.702106, 51.350689,0.00,0.04,254

201,120546,12436,-2,0,324,1.14,9,0,-51,-30,0,87423,1227,0.25,-0.37,10.37,-0.18,-0.11,0.03,137,1012,-218,19,24,100,0, 35.702106, 51.350689,0.00,0.04,254

201,120737,12627,-2,0,324,1.14,9,0,-51,-30,0,87425,1227,0.17,-0.33,10.19,0.06,0.07,-0.09,139,1013,-218,19,24,100,0, 35.702106, 51.350685,0.00,0.03,254

201,120928,12819,-2,0,323,1.14,9,0,-51,-30,0,87423,1227,0.19,-0.44,10.33,0.12,0.14,0.03,140,1012,-218,19,24,100,0, 35.702106, 51.350685,0.00,0.03,254

201,121218,13009,-2,0,324,1.14,9,0,-51,-30,0,87424,1227,0.18,-0.39,10.31,0.00,0.07,-0.03,139,1013,-218,19,24,100,0, 35.702106, 51.350685,0.00,0.03,254

201,121408,13297,-2,1,324,1.22,9,0,-51,-30,1,87426,1227,0.15,-0.35,10.38,0.06,-0.05,-0.03,143,1013,-218,19,24,100,0, 35.702106, 51.350685,0.00,0.03,254

201,121599,13490,-2,1,323,1.14,9,0,-50,-30,1,87425,1227,0.17,-0.38,10.27,-0.06,-0.05,0.03,134,1012,-218,19,24,100,0, 35.702106, 51.350685,0.00,0.03,254

201,121790,13680,-2,1,324,1.14,9,0,-51,-30,1,87426,1227,0.16,-0.38,10.35,0.00,0.20,-0.15,134,1012,-218,19,24,100,0, 35.702106, 51.350685,0.00,0.03,254

201,121982,13872,-2,0,323,1.14,9,0,-51,-30,0,87426,1227,0.20,-0.34,10.41,0.12,-0.17,0.10,140,1012,-218,19,24,100,0, 35.702106, 51.350685,0.00,0.03,254

201,122174,14063,-1,1,324,1.14,10,0,-51,-30,1,87422,1227,0.16,-0.38,10.25,0.00,0.07,0.10,143,1012,-218,19,24,100,0, 35.702106, 51.350685,0.00,0.03,254

201,122365,14254,-2,0,324,1.14,9,0,-51,-30,0,87424,1227,0.13,-0.40,10.30,0.06,0.07,0.10,138,1012,-218,19,24,100,0, 35.702106, 51.350685,0.00,0.03,254

201,122652,14446,-2,1,324,1.14,9,0,-50,-30,1,87426,1227,0.14,-0.45,10.29,-0.06,-0.11,0.03,140,1012,-218,19,24,100,0, 35.702106, 51.350685,0.00,0.03,254

201,122939,14734,-1,0,324,1.07,9,0,-51,-30,0,87426,1227,0.12,-0.32,10.34,0.19,-0.17,-0.15,145,1012,-218,19,24,100,0, 35.702106, 51.350685,0.00,0.03,254

201,123227,15021,-2,0,324,1.14,9,0,-51,-30,0,87423,1227,0.15,-0.36,10.29,-0.06,-0.11,-0.09,142,1012,-218,19,24,100,0, 35.702106, 51.350685,0.00,0.03,254

201,123513,15307,-1,0,324,1.14,9,0,-51,-30,0,87424,1227,0.14,-0.35,10.25,0.12,0.20,0.10,146,1012,-218,19,24,100,0, 35.702106, 51.350685,0.00,0.03,254

201,123801,15595,-1,1,324,1.14,9,0,-51,-30,1,87424,1227,0.19,-0.42,10.31,0.12,0.07,-0.09,142,1011,-218,19,24,100,0, 35.702106, 51.350685,0.00,0.03,254

201,123992,15882,-2,1,324,1.14,9,0,-51,-30,1,87424,1227,0.19,-0.38,10.27,-0.12,-0.05,0.10,146,1011,-218,19,24,100,0, 35.702106, 51.350685,0.00,0.03,254

201,124183,16073,-2,0,324,1.14,9,0,-50,-30,0,87424,1227,0.27,-0.39,10.34,0.12,0.01,0.03,145,1012,-218,19,24,100,0, 35.702106, 51.350685,0.00,0.03,254

201,124375,16264,-2,0,324,1.14,9,0,-51,-30,0,87423,1227,0.15,-0.33,10.37,-0.06,0.01,0.03,143,1012,-218,19,24,100,0, 35.702106, 51.350685,0.00,0.03,254

201,124566,16456,-2,0,323,1.14,10,0,-51,-30,0,87425,1227,0.22,-0.33,10.25,0.00,0.01,-0.03,145,1012,-218,19,24,100,0, 35.702106, 51.350685,0.00,0.03,254

201,124758,16648,-2,0,323,1.22,9,0,-51,-30,0,87424,1227,0.11,-0.33,10.37,0.06,0.14,-0.15,147,1012,-218,19,24,100,0, 35.702106, 51.350685,0.00,0.03,254

201,124950,16839,-2,0,323,1.14,9,0,-51,-30,0,87427,1227,0.21,-0.41,10.33,-0.12,-0.05,-0.03,141,1012,-218,19,24,100,0, 35.702106, 51.350685,0.00,0.03,254

201,125236,17031,-2,0,323,1.07,9,0,-50,-31,0,87425,1227,0.19,-0.34,10.33,0.00,-0.17,0.03,140,1012,-218,19,24,100,0, 35.702106, 51.350685,0.00,0.03,254

201,125523,17316,-2,1,324,1.14,9,0,-50,-30,1,87426,1227,0.13,-0.39,10.33,0.12,-0.17,0.16,140,1011,-218,19,24,100,0, 35.702106, 51.350685,0.00,0.03,254

201,125811,17605,-1,1,324,1.14,9,0,-51,-30,1,87426,1227,0.16,-0.41,10.21,0.00,0.01,-0.03,140,1012,-218,19,24,100,0, 35.702106, 51.350685,0.00,0.03,254

201,126098,17892,-1,0,324,1.14,9,0,-50,-30,0,87424,1227,0.21,-0.35,10.22,0.19,0.14,0.16,144,1012,-218,19,24,100,0, 35.702106, 51.350685,0.00,0.03,254

201,126292,18179,-2,0,324,1.14,9,0,-51,-30,0,87425,1227,0.23,-0.37,10.27,-0.12,-0.11,-0.03,141,1012,-218,19,24,100,0, 35.702106, 51.350685,0.00,0.03,254

201,126577,18370,-2,0,323,1.14,9,0,-51,-30,0,87422,1227,0.13,-0.45,10.29,0.00,0.01,-0.09,143,1011,-218,19,24,100,0, 35.702106, 51.350685,0.00,0.03,254

201,126863,18658,-2,0,324,1.14,9,0,-51,-30,0,87425,1227,0.14,-0.34,10.29,0.06,0.01,0.03,139,1012,-218,19,24,100,0, 35.702106, 51.350685,0.00,0.03,254

201,127151,18945,-2,0,324,1.14,9,0,-51,-30,0,87427,1227,0.15,-0.37,10.33,-0.18,0.01,0.10,144,1011,-218,19,24,100,0, 35.702106, 51.350685,0.00,0.03,254

201,127438,19231,-2,0,323,1.22,9,0,-51,-30,0,87424,1227,0.20,-0.36,10.29,0.00,0.01,-0.09,140,1012,-218,19,24,100,0, 35.702106, 51.350685,0.00,0.03,254

201,127726,19520,-2,1,324,1.14,9,0,-51,-30,1,87422,1227,0.20,-0.37,10.29,-0.12,-0.11,0.10,142,1012,-218,19,24,100,0, 35.702106, 51.350685,0.00,0.03,254

201,128108,19807,-1,1,324,1.22,9,0,-51,-30,1,87422,1227,0.19,-0.44,10.32,0.25,0.01,0.10,143,1011,-218,19,24,100,0, 35.702106, 51.350685,0.00,0.03,254

201,128395,20189,-2,1,323,1.22,9,0,-51,-30,1,87423,1227,0.21,-0.40,10.29,0.06,-0.11,-0.03,147,1012,-218,19,24,100,0, 35.702106, 51.350685,0.00,0.03,254

201,128587,20477,-2,0,324,1.14,9,0,-51,-30,0,87424,1227,0.13,-0.41,10.38,-0.06,0.07,-0.09,145,1012,-218,19,24,100,0, 35.702106, 51.350685,0.00,0.03,254

201,128778,20669,-1,1,324,1.14,9,0,-50,-30,1,87420,1227,0.17,-0.38,10.23,0.00,0.14,0.03,146,1011,-218,19,24,100,0, 35.702106, 51.350685,0.00,0.03,254

201,128969,20858,-2,0,323,1.07,9,0,-51,-30,0,87426,1227,0.20,-0.37,10.19,0.00,0.01,0.03,143,1011,-218,19,24,100,0, 35.702106, 51.350685,0.00,0.03,254

201,129257,21050,-2,0,324,1.22,9,0,-51,-30,0,87423,1227,0.16,-0.37,10.37,-0.06,0.01,0.10,146,1011,-218,19,24,100,0, 35.702106, 51.350685,0.00,0.03,254

201,129544,21337,-2,0,323,1.14,9,0,-51,-30,0,87423,1227,0.15,-0.38,10.33,0.06,0.14,-0.03,145,1012,-218,19,24,100,0, 35.702106, 51.350685,0.00,0.03,254

201,129831,21625,-2,0,323,1.14,9,0,-51,-30,0,87423,1227,0.19,-0.33,10.36,0.00,0.07,-0.03,145,1011,-218,19,24,100,0, 35.702106, 51.350685,0.00,0.03,254

201,130118,21912,-2,1,324,1.14,9,0,-50,-30,1,87422,1227,0.16,-0.41,10.29,0.06,0.01,-0.03,142,1012,-218,19,24,100,0, 35.702106, 51.350685,0.00,0.03,254

201,130405,22199,-2,0,324,1.14,9,0,-51,-30,0,87419,1227,0.14,-0.36,10.32,0.06,-0.05,-0.09,141,1012,-218,19,24,100,0, 35.702106, 51.350685,0.00,0.03,254

201,130788,22487,-2,0,323,1.07,9,0,-51,-30,0,87425,1227,0.14,-0.38,10.38,0.12,0.01,-0.03,149,1011,-218,19,24,100,0, 35.702106, 51.350685,0.00,0.03,254

201,131075,22868,-2,0,324,1.29,9,0,-51,-30,0,87426,1227,0.20,-0.34,10.36,-0.06,0.07,0.10,147,1012,-218,19,24,100,0, 35.702106, 51.350685,0.00,0.03,254

201,131363,23156,-2,0,323,1.14,9,0,-51,-30,0,87425,1227,0.21,-0.37,10.30,-0.18,0.07,-0.09,142,1012,-218,19,24,100,0, 35.702106, 51.350685,0.00,0.03,254

201,131650,23444,-1,0,324,1.14,9,0,-51,-30,0,87425,1227,0.12,-0.38,10.29,-0.18,0.07,-0.03,141,1012,-218,19,24,100,0, 35.702106, 51.350685,0.00,0.03,254

201,132033,23731,-2,0,324,1.14,9,0,-51,-30,0,87421,1227,0.20,-0.40,10.24,0.00,0.07,-0.03,143,1011,-218,19,24,100,0, 35.702106, 51.350685,0.00,0.03,254

201,132320,24114,-2,1,324,1.22,9,0,-51,-30,1,87425,1227,0.16,-0.36,10.23,0.12,-0.11,0.16,141,1011,-218,19,24,100,0, 35.702106, 51.350685,0.00,0.03,254

201,132607,24400,-1,1,324,1.14,10,0,-51,-30,1,87423,1227,0.16,-0.39,10.26,0.12,-0.11,-0.03,142,1012,-218,19,24,100,0, 35.702106, 51.350685,0.00,0.03,254

201,132894,24689,-2,1,324,1.14,9,0,-51,-30,1,87423,1227,0.19,-0.42,10.17,-0.06,-0.11,-0.03,148,1011,-218,19,24,100,0, 35.702114, 51.350693,0.00,0.19,254

201,133181,24975,-2,0,324,1.14,9,0,-51,-30,0,87426,1227,0.09,-0.37,10.30,0.06,0.14,0.03,143,1011,-218,19,24,100,0, 35.702114, 51.350693,0.00,0.19,254

201,133469,25262,-1,1,324,1.14,9,0,-51,-30,1,87423,1227,0.13,-0.32,10.30,-0.06,-0.11,0.10,143,1012,-218,19,24,100,0, 35.702114, 51.350693,0.00,0.19,254

201,133660,25550,-2,0,324,1.22,9,0,-51,-31,0,87423,1227,0.23,-0.33,10.30,0.06,0.07,-0.15,143,1012,-218,19,24,100,0, 35.702114, 51.350693,0.00,0.19,254

201,133852,25741,-2,0,324,1.22,9,0,-51,-30,0,87425,1227,0.18,-0.40,10.27,-0.06,0.01,-0.03,146,1011,-218,19,24,100,0, 35.702114, 51.350693,0.00,0.19,254

201,134043,25932,-2,1,324,1.14,9,0,-50,-30,1,87425,1227,0.14,-0.42,10.31,-0.06,0.07,-0.03,142,1012,-218,19,24,100,0, 35.702114, 51.350693,0.00,0.19,254

201,134235,26124,-1,0,324,1.14,9,0,-51,-30,0,87423,1227,0.15,-0.38,10.29,0.06,-0.11,-0.21,141,1012,-218,19,24,100,0, 35.702114, 51.350693,0.00,0.19,254

201,134426,26314,-1,1,324,1.14,9,0,-51,-30,1,87425,1227,0.16,-0.40,10.21,-0.12,0.14,-0.21,142,1011,-218,19,24,100,0, 35.702114, 51.350693,0.00,0.19,254

201,134713,26507,-1,0,324,1.14,9,0,-50,-30,0,87425,1227,0.19,-0.40,10.33,0.00,-0.11,0.03,142,1012,-218,19,24,100,0, 35.702114, 51.350693,0.00,0.19,254

201,135000,26793,-2,0,324,1.07,9,0,-51,-30,0,87423,1227,0.15,-0.41,10.33,0.00,0.07,0.03,143,1012,-218,19,24,100,0, 35.702114, 51.350693,0.00,0.19,254

201,135288,27080,-2,0,324,1.22,9,0,-51,-30,0,87424,1227,0.23,-0.34,10.38,0.12,0.07,-0.03,139,1011,-218,19,24,100,0, 35.702114, 51.350693,0.00,0.19,254

201,135479,27367,-2,0,324,1.22,9,0,-51,-30,0,87423,1227,0.22,-0.34,10.30,-0.06,-0.05,0.16,138,1011,-218,19,24,100,0, 35.702114, 51.350693,0.00,0.19,254

201,135670,27560,-1,0,324,1.07,9,0,-51,-30,0,87424,1227,0.13,-0.36,10.26,0.19,0.20,0.03,137,1013,-218,19,24,100,0, 35.702114, 51.350693,0.00,0.19,254

201,135958,27750,-1,0,324,1.14,10,0,-50,-30,0,87424,1227,0.21,-0.32,10.26,0.00,-0.05,-0.03,141,1011,-218,19,24,100,0, 35.702114, 51.350693,0.00,0.19,254

201,136244,28039,-2,1,324,1.22,9,0,-51,-30,1,87424,1227,0.16,-0.35,10.42,0.12,0.14,0.10,140,1012,-218,19,24,100,0, 35.702114, 51.350693,0.00,0.19,254

201,136436,28323,-2,1,324,1.07,9,0,-51,-30,1,87424,1227,0.17,-0.34,10.34,-0.12,0.01,-0.09,138,1010,-218,19,24,100,0, 35.702114, 51.350693,0.00,0.19,254

201,136628,28517,-1,0,324,1.22,9,0,-51,-30,0,87423,1227,0.21,-0.39,10.30,0.00,-0.11,0.10,138,1011,-218,19,24,100,0, 35.702114, 51.350693,0.00,0.19,254

201,136818,28707,-2,0,324,1.14,9,0,-51,-30,0,87424,1227,0.17,-0.34,10.28,0.06,-0.17,0.03,143,1012,-218,19,24,100,0, 35.702114, 51.350693,0.00,0.19,254

201,137012,28899,-2,0,323,1.14,9,0,-51,-30,0,87425,1227,0.18,-0.39,10.34,0.12,0.01,0.03,146,1011,-218,19,24,100,0, 35.702114, 51.350693,0.00,0.19,254

201,137298,29090,-1,0,324,1.14,9,0,-51,-30,0,87424,1227,0.23,-0.36,10.32,-0.06,0.01,0.10,143,1011,-218,19,24,100,0, 35.702114, 51.350693,0.00,0.19,254

201,137585,29377,-1,0,324,1.22,9,0,-51,-30,0,87424,1227,0.18,-0.33,10.27,-0.06,0.07,0.03,141,1011,-218,19,24,100,0, 35.702114, 51.350693,0.00,0.19,254

201,137776,29666,-2,1,323,1.07,10,0,-51,-30,1,87428,1227,0.12,-0.40,10.35,0.00,0.14,-0.09,139,1011,-218,19,24,100,0, 35.702114, 51.350693,0.00,0.19,254

201,137968,29856,-2,0,324,1.22,9,0,-51,-30,0,87428,1227,0.20,-0.34,10.36,0.00,-0.05,-0.09,139,1012,-218,19,24,100,0, 35.702118, 51.350681,0.00,0.33,254

201,138160,30048,-1,1,324,1.22,9,0,-51,-30,1,87425,1227,0.16,-0.34,10.33,-0.06,0.07,-0.03,144,1012,-218,19,24,100,0, 35.702118, 51.350681,0.00,0.33,254

201,138350,30238,-2,0,324,1.22,9,0,-51,-30,0,87424,1227,0.17,-0.37,10.28,-0.12,0.07,-0.03,143,1011,-218,19,24,100,0, 35.702118, 51.350681,0.00,0.33,254

201,138638,30432,-2,0,324,1.14,9,0,-51,-30,0,87427,1227,0.20,-0.40,10.34,-0.06,0.01,-0.03,140,1012,-218,19,24,100,0, 35.702118, 51.350681,0.00,0.33,254

201,138926,30718,-2,0,324,1.22,9,0,-51,-30,0,87426,1227,0.17,-0.36,10.42,0.06,-0.05,-0.03,143,1011,-218,19,24,100,0, 35.702118, 51.350677,0.00,0.04,254

201,139212,31005,-1,1,324,1.14,9,0,-51,-30,1,87425,1227,0.16,-0.35,10.35,0.19,-0.17,0.03,138,1011,-218,19,24,100,0, 35.702118, 51.350677,0.00,0.04,254

201,139499,31292,-1,0,324,1.14,9,0,-51,-30,0,87424,1227,0.21,-0.33,10.21,0.06,0.14,0.03,140,1011,-218,19,24,100,0, 35.702118, 51.350677,0.00,0.04,254

201,139787,31580,-2,1,324,1.07,9,0,-50,-30,1,87420,1227,0.27,-0.38,10.33,-0.06,0.20,-0.09,141,1011,-218,19,24,100,0, 35.702118, 51.350677,0.00,0.04,254

201,140074,31866,-2,0,324,1.14,9,0,-51,-30,0,87427,1227,0.19,-0.32,10.26,-0.06,-0.05,-0.09,146,1011,-218,19,24,100,0, 35.702118, 51.350677,0.00,0.04,254

201,140361,32154,-1,1,324,1.14,9,0,-51,-30,1,87426,1227,0.17,-0.40,10.37,-0.18,0.07,0.10,144,1012,-218,19,24,100,0, 35.702118, 51.350677,0.00,0.04,254

201,140552,32441,-2,0,324,1.14,9,0,-51,-30,0,87421,1227,0.15,-0.37,10.26,0.00,0.01,-0.09,144,1011,-218,19,24,100,0, 35.702118, 51.350677,0.00,0.04,254

201,140744,32632,-2,0,323,1.22,9,0,-51,-30,0,87425,1227,0.12,-0.42,10.27,0.19,-0.11,0.10,146,1011,-218,19,24,100,0, 35.702118, 51.350677,0.00,0.04,254

201,140935,32824,-2,2,324,1.14,9,0,-51,-30,2,87427,1227,0.16,-0.35,9.95,0.00,0.99,0.03,125,1007,-223,18,24,100,0, 35.702118, 51.350677,0.00,0.04,254

201,141223,33014,-2,0,324,1.14,9,0,-51,-30,0,87423,1227,0.18,-0.42,10.38,-0.18,-0.17,0.10,100,1018,-218,17,24,100,0, 35.702118, 51.350677,0.00,0.04,254

201,141509,33302,-1,1,323,1.14,9,0,-50,-30,1,87425,1227,0.11,-0.39,10.19,-0.49,0.32,-0.03,96,1019,-217,18,24,100,0, 35.702118, 51.350677,0.00,0.04,254

201,141796,33590,-2,0,324,1.14,9,0,-51,-30,0,87426,1227,0.13,-0.30,10.78,0.00,0.20,0.10,97,1017,-217,18,24,100,0, 35.702118, 51.350677,0.00,0.04,254

201,142084,33875,-2,0,324,1.07,9,0,-51,-30,0,87425,1227,0.10,-0.34,10.50,-0.24,-0.84,0.16,102,1016,-225,18,24,100,0, 35.702118, 51.350677,0.00,0.04,254

201,142276,34164,0,1,323,1.14,9,0,-51,-30,1,87425,1227,0.22,-0.28,10.38,-0.12,-0.23,-0.09,100,1011,-215,18,24,100,0, 35.702118, 51.350677,0.00,0.04,254

201,142562,34355,-1,0,324,1.22,9,0,-51,-30,0,87426,1227,0.10,-0.30,10.19,0.37,-0.05,0.16,99,1012,-218,18,24,100,0, 35.702118, 51.350677,0.00,0.04,254

201,142849,34642,-1,0,323,1.22,9,0,-51,-30,0,87426,1227,0.11,-0.36,10.36,0.61,-0.11,0.03,99,1011,-217,18,24,100,0, 35.702118, 51.350677,0.00,0.04,254

201,143136,34929,-2,1,323,1.14,9,0,-51,-30,1,87424,1227,0.35,-0.32,10.31,0.25,0.81,-0.09,95,1012,-217,18,24,100,0, 35.702118, 51.350677,0.00,0.04,254

201,143424,35216,-1,1,324,1.14,9,0,-51,-30,1,87426,1227,0.09,-0.22,10.54,0.61,-0.96,0.22,100,1015,-216,18,24,100,0, 35.702118, 51.350677,0.00,0.04,254

201,143712,35505,-1,0,324,1.22,9,0,-51,-30,0,87423,1227,-0.05,-0.31,10.21,0.43,0.01,-0.09,133,1008,-220,19,24,100,0, 35.702118, 51.350677,0.00,0.04,254

201,144094,35791,-1,0,324,1.14,9,0,-51,-30,0,87428,1227,0.29,-0.32,10.48,0.12,-0.17,0.03,136,1009,-220,19,24,100,0, 35.702118, 51.350677,0.00,0.04,254

201,144477,36173,-7,0,321,1.14,9,0,-50,-30,0,87422,1227,0.34,-0.57,10.72,0.55,0.62,0.28,107,1024,-224,18,24,100,0, 35.702118, 51.350677,0.00,0.04,254

201,144668,36557,-3,1,324,1.07,9,0,-51,-30,1,87423,1227,0.05,-0.63,9.90,0.98,0.75,0.03,95,1025,-213,18,24,100,0, 35.702118, 51.350677,0.00,0.04,254

201,149741,1618,-2,0,323,1.14,9,0,-50,-30,0,87421,1227,0.14,-0.43,10.33,0.22,-0.12,-0.13,127,1008,-222,19,24,100,0,  0.000000,  0.000000,0.00,0.00,254

201,149932,1905,-2,1,324,1.14,9,0,-50,-30,1,87424,1227,0.17,-0.35,10.25,0.16,-0.12,0.11,127,1008,-222,19,24,100,0,  0.000000,  0.000000,0.00,0.00,254

201,150123,2097,-2,0,323,1.14,9,0,-51,-30,0,87423,1227,0.14,-0.45,10.33,0.10,0.00,-0.01,135,1010,-222,19,24,100,0,  0.000000,  0.000000,0.00,0.00,254

201,150314,2287,-2,1,323,1.14,9,0,-51,-30,1,87426,1227,0.16,-0.36,10.30,-0.39,0.00,0.17,138,1009,-222,19,24,100,0,  0.000000,  0.000000,0.00,0.00,254

201,150602,2479,-2,0,324,1.22,9,0,-51,-30,0,87424,1227,0.12,-0.32,10.18,-0.03,-0.43,0.11,139,1008,-222,19,24,100,0,  0.000000,  0.000000,0.00,0.00,254

201,150890,2767,-2,0,324,1.14,9,0,-51,-30,0,87420,1227,0.16,-0.43,10.31,-0.15,-0.06,0.05,132,1009,-222,19,24,100,0, 35.702129, 51.350639,0.00,0.06,254

201,151178,3054,-1,0,324,1.14,9,0,-51,-30,0,87425,1227,0.08,-0.41,10.23,-0.09,-0.06,-0.13,137,1009,-222,19,24,100,0, 35.702129, 51.350639,0.00,0.06,254

201,151465,3342,-2,0,324,1.14,9,0,-51,-30,0,87425,1227,0.09,-0.35,10.26,-0.21,0.00,0.05,143,1008,-222,19,24,100,0, 35.702129, 51.350639,0.00,0.06,254

201,151656,3631,-2,0,324,1.14,9,0,-51,-30,0,87426,1227,0.09,-0.37,10.36,-0.21,-0.06,0.05,134,1008,-222,19,24,100,0, 35.702129, 51.350639,0.00,0.06,254

201,151943,3821,-2,0,324,1.14,9,0,-51,-30,0,87424,1227,0.13,-0.36,10.36,-0.09,-0.06,0.17,139,1008,-222,19,24,100,0, 35.702129, 51.350639,0.00,0.06,254

201,152231,4108,-1,0,324,1.14,9,0,-51,-30,0,87427,1227,0.18,-0.39,10.24,-0.03,0.00,0.05,132,1008,-222,19,24,100,0, 35.702129, 51.350639,0.00,0.06,254

201,152423,4395,-1,0,324,1.14,9,0,-51,-30,0,87424,1227,0.08,-0.40,10.25,-0.03,-0.18,-0.01,140,1008,-222,20,24,100,0, 35.702129, 51.350639,0.00,0.06,254

201,152613,4588,-1,0,324,1.14,9,0,-51,-30,0,87424,1227,0.09,-0.40,10.24,-0.09,0.06,0.17,143,1009,-222,19,24,100,0, 35.702129, 51.350639,0.00,0.06,254

201,152808,4777,-2,0,324,0.99,9,0,-51,-30,0,87424,1227,0.16,-0.39,10.20,-0.09,0.18,-0.07,136,1009,-222,19,24,100,0, 35.702129, 51.350639,0.00,0.06,254

201,152996,4970,-2,0,324,1.22,9,0,-51,-30,0,87425,1227,0.13,-0.34,10.31,0.16,0.06,0.05,131,1009,-222,19,24,100,0, 35.702129, 51.350639,0.00,0.06,254

201,153283,5160,-1,0,324,1.14,9,0,-50,-30,0,87423,1227,0.11,-0.38,10.32,0.22,-0.06,-0.01,137,1008,-222,19,24,100,0, 35.702129, 51.350639,0.00,0.06,254

201,153571,5447,-2,1,324,1.14,9,0,-51,-30,1,87427,1227,0.16,-0.38,10.35,-0.03,-0.06,-0.01,138,1009,-222,19,24,100,0, 35.702129, 51.350639,0.00,0.06,254

201,153858,5736,-1,1,323,1.22,9,0,-51,-30,1,87426,1227,0.17,-0.35,10.34,0.16,-0.18,-0.07,138,1008,-222,19,24,100,0, 35.702129, 51.350639,0.00,0.06,254

201,154145,6023,-2,0,324,1.14,9,0,-51,-30,0,87422,1227,0.15,-0.39,10.29,0.03,0.00,-0.01,137,1009,-222,19,24,100,0, 35.702129, 51.350639,0.00,0.06,254

201,154432,6309,-2,0,324,1.14,9,0,-51,-31,0,87424,1227,0.15,-0.38,10.34,0.10,0.00,-0.01,144,1008,-222,19,24,100,0, 35.702129, 51.350639,0.00,0.06,254

201,154720,6597,-2,0,323,1.14,9,0,-51,-30,0,87421,1227,0.10,-0.39,10.32,-0.03,-0.12,-0.07,140,1008,-222,19,24,100,0, 35.702129, 51.350639,0.00,0.06,254

201,155006,6884,-2,0,324,1.14,9,0,-51,-30,0,87424,1227,0.12,-0.40,10.34,0.03,0.00,-0.07,140,1009,-222,20,24,100,0, 35.702129, 51.350639,0.00,0.06,254

201,155294,7171,-2,0,324,1.14,9,0,-51,-30,0,87421,1227,0.12,-0.38,10.39,-0.15,-0.12,-0.13,145,1009,-222,19,24,100,0, 35.702129, 51.350639,0.00,0.06,254

201,155580,7457,-2,0,323,1.07,9,0,-51,-30,0,87426,1227,0.10,-0.37,10.29,-0.09,0.00,0.05,140,1009,-222,20,24,100,0, 35.702129, 51.350639,0.00,0.06,254

201,155868,7746,-2,0,323,1.14,9,0,-51,-30,0,87422,1227,0.09,-0.39,10.29,-0.09,-0.06,-0.07,140,1008,-222,20,24,100,0, 35.702129, 51.350639,0.00,0.06,254

201,156155,8033,-2,0,324,1.14,9,0,-51,-30,0,87422,1227,0.11,-0.40,10.30,0.16,0.00,0.11,143,1009,-222,20,24,100,0, 35.702129, 51.350639,0.00,0.06,254

201,156442,8320,-1,0,324,1.14,9,0,-50,-30,0,87425,1227,0.13,-0.39,10.35,0.03,0.00,0.11,140,1009,-222,19,24,100,0, 35.702129, 51.350639,0.00,0.06,254

201,156730,8607,-2,0,324,1.14,9,0,-51,-30,0,87423,1227,0.17,-0.41,10.32,-0.03,0.06,-0.07,140,1009,-222,19,24,100,0, 35.702129, 51.350639,0.00,0.06,254

201,156921,8894,-1,0,324,1.07,9,0,-51,-30,0,87423,1227,0.11,-0.44,10.29,-0.03,0.00,-0.13,143,1009,-222,19,24,100,0, 35.702129, 51.350639,0.00,0.06,254

201,157208,9085,-2,0,324,1.22,9,0,-51,-30,0,87423,1227,0.17,-0.45,10.26,0.03,0.00,-0.19,142,1009,-222,19,24,100,0, 35.702129, 51.350639,0.00,0.06,254

201,157495,9372,-2,0,324,1.14,10,0,-50,-30,0,87423,1227,0.11,-0.39,10.32,0.10,0.00,-0.01,140,1009,-222,19,24,100,0, 35.702129, 51.350639,0.00,0.06,254

201,157783,9660,-2,0,323,1.14,9,0,-51,-30,0,87425,1227,0.16,-0.39,10.22,-0.03,0.06,-0.01,141,1008,-222,20,24,100,0, 35.702129, 51.350639,0.00,0.06,254

201,158070,9947,-1,0,324,1.14,9,0,-51,-30,0,87424,1227,0.14,-0.34,10.33,0.03,0.00,-0.01,138,1009,-222,19,24,100,0, 35.702129, 51.350639,0.00,0.06,254

201,158357,10233,-2,0,324,1.07,10,0,-51,-30,0,87425,1227,0.13,-0.31,10.29,-0.09,0.06,-0.13,139,1009,-222,19,24,100,0, 35.702129, 51.350639,0.00,0.06,254

201,158742,10522,-2,0,324,1.14,9,0,-51,-30,0,87425,1227,0.15,-0.34,10.36,-0.15,0.00,-0.01,142,1009,-222,19,24,100,0, 35.702129, 51.350639,0.00,0.06,254

201,159123,10904,-2,0,324,1.14,11,0,-51,-31,0,87423,1227,0.14,-0.39,10.30,-0.09,0.18,-0.01,141,1008,-222,20,24,100,0, 35.702129, 51.350639,0.00,0.06,254

201,159409,11287,-2,0,324,1.14,9,0,-50,-30,0,87425,1227,0.07,-0.37,10.34,-0.09,0.00,-0.07,143,1008,-222,20,24,100,0, 35.702129, 51.350639,0.00,0.06,254

201,159600,11575,-1,0,323,1.14,9,0,-51,-30,0,87424,1227,0.11,-0.36,10.29,0.16,0.12,0.11,142,1008,-222,19,24,100,0, 35.702129, 51.350639,0.00,0.06,254

201,159793,11764,-2,0,324,1.14,9,0,-51,-30,0,87426,1227,0.15,-0.37,10.41,-0.03,-0.06,-0.01,144,1009,-222,19,24,100,0, 35.702129, 51.350639,0.00,0.06,254

201,159986,11957,-2,0,324,1.07,9,0,-51,-30,0,87423,1227,0.14,-0.39,10.27,0.03,0.12,0.17,141,1008,-222,19,24,100,0, 35.702129, 51.350639,0.00,0.06,254

201,160175,12147,-1,0,323,1.22,9,0,-51,-30,0,87422,1227,0.11,-0.39,10.27,-0.03,0.00,-0.01,140,1008,-222,19,24,100,0, 35.702129, 51.350639,0.00,0.06,254

201,160367,12339,-2,0,324,1.14,9,0,-50,-30,0,87420,1227,0.17,-0.41,10.25,-0.09,0.18,-0.07,138,1008,-222,20,24,100,0, 35.702129, 51.350639,0.00,0.06,254

201,160558,12531,-2,0,323,1.22,9,0,-51,-30,0,87426,1227,0.17,-0.37,10.37,-0.03,0.00,0.05,138,1008,-222,19,24,100,0, 35.702129, 51.350639,0.00,0.06,254

201,160749,12723,-2,0,324,1.14,9,0,-51,-30,0,87425,1227,0.15,-0.39,10.30,0.10,0.12,-0.07,144,1008,-222,19,24,100,0, 35.702129, 51.350639,0.00,0.06,254

201,160941,12913,-2,0,324,1.14,9,0,-51,-30,0,87426,1227,0.13,-0.34,10.30,-0.03,-0.12,0.11,145,1008,-222,19,24,100,0, 35.702129, 51.350639,0.00,0.06,254

201,161229,13105,-2,0,324,1.22,9,0,-51,-30,0,87424,1227,0.15,-0.36,10.24,0.03,-0.18,-0.01,139,1008,-222,19,24,100,0, 35.702129, 51.350639,0.00,0.06,254

201,161515,13391,-2,0,324,1.14,9,0,-51,-30,0,87423,1227,0.21,-0.36,10.26,0.03,0.06,-0.01,140,1009,-222,20,24,100,0, 35.702129, 51.350639,0.00,0.06,254

201,161706,13680,-2,0,324,1.22,9,0,-51,-30,0,87423,1227,0.19,-0.42,10.27,0.03,0.00,0.05,141,1009,-222,20,24,100,0, 35.702129, 51.350639,0.00,0.06,254

201,161899,13871,-2,0,324,1.14,9,0,-50,-30,0,87425,1227,0.17,-0.41,10.32,-0.09,-0.12,-0.01,143,1008,-222,19,24,100,0, 35.702129, 51.350639,0.00,0.06,254

201,162090,14062,-2,0,324,1.14,9,0,-51,-30,0,87425,1227,0.18,-0.43,10.34,-0.03,-0.12,-0.01,137,1008,-222,19,24,100,0, 35.702129, 51.350639,0.00,0.06,254

201,162281,14254,-2,0,324,1.14,9,0,-51,-30,0,87425,1227,0.14,-0.40,10.28,-0.03,0.00,-0.07,141,1008,-222,19,24,100,0, 35.702129, 51.350639,0.00,0.06,254

201,162568,14444,-2,0,324,1.22,9,0,-51,-30,0,87421,1227,0.14,-0.37,10.26,-0.03,0.00,-0.07,141,1008,-222,20,24,100,0, 35.702129, 51.350639,0.00,0.06,254

201,162855,14733,-2,0,324,1.14,9,0,-51,-30,0,87424,1227,0.10,-0.39,10.32,-0.03,0.06,0.05,141,1009,-222,19,24,100,0, 35.702129, 51.350639,0.00,0.06,254

201,163142,15020,-2,0,324,1.22,9,0,-51,-30,0,87423,1227,0.14,-0.31,10.30,0.10,0.12,-0.01,140,1009,-222,19,24,100,0, 35.702129, 51.350639,0.00,0.06,254

201,163429,15306,-2,0,324,1.14,9,0,-51,-30,0,87421,1227,0.10,-0.35,10.30,0.03,0.06,0.05,142,1009,-222,19,24,100,0, 35.702129, 51.350639,0.00,0.06,254

201,163717,15594,-2,0,324,1.14,9,0,-50,-30,0,87422,1227,0.19,-0.37,10.27,-0.03,-0.12,0.17,142,1009,-222,19,24,100,0, 35.702129, 51.350639,0.00,0.06,254

201,163908,15881,-2,0,324,0.92,9,0,-51,-31,0,87422,1227,0.14,-0.36,10.30,-0.03,0.00,0.11,142,1008,-222,20,24,100,0, 35.702129, 51.350639,0.00,0.06,254

201,164100,16072,-1,0,324,1.22,9,0,-51,-30,0,87422,1227,0.14,-0.42,10.28,-0.03,0.06,-0.13,141,1008,-222,20,24,100,0, 35.702129, 51.350639,0.00,0.06,254

201,164291,16264,-2,0,324,1.14,9,0,-51,-30,0,87422,1227,0.15,-0.22,10.44,-0.51,0.00,0.05,143,1008,-222,20,24,100,0, 35.702129, 51.350639,0.00,0.06,254

201,164483,16454,-1,0,323,1.14,9,0,-51,-30,0,87423,1227,0.18,-0.54,10.48,-0.33,0.00,-0.01,137,1008,-222,20,24,100,0, 35.702129, 51.350639,0.00,0.06,254

201,164674,16648,-2,0,324,1.14,9,0,-51,-30,0,87425,1227,0.08,-0.46,10.29,0.03,0.18,-0.13,141,1009,-222,19,24,100,0, 35.702126, 51.350574,0.00,0.05,254

201,164865,16838,-1,0,324,1.14,9,0,-50,-30,0,87422,1227,0.11,-0.35,10.24,-0.15,0.00,0.11,140,1009,-222,20,24,100,0, 35.702126, 51.350574,0.00,0.05,254

201,165153,17030,-2,0,324,1.22,9,0,-51,-30,0,87421,1227,0.21,-0.38,10.33,-0.15,-0.06,0.05,140,1009,-222,20,24,100,0, 35.702126, 51.350574,0.00,0.05,254

