checksumStart,missionTime,roll,pitch,heading,airSpeed,elevator,aileron,alfa,betha,standAngle,pressure,pressureAlt,ax,ay,az,gx,gy,gz,lc1,lc2,lc3,lc4,temprature,voltage,GPSSats,GPSLat,GPSLong,GPSAlt,GPSSpeed,checksumEnd
201,419965,-3,14,327,1.00,3,3,0,0,19,88645,1113,2.65,-0.50,10.05,-5.16,-15.90,13.10,123,1087,1,-8,26,35.00,11, 35.702141, 51.350891,5.00,0.12,254

201,420253,-2,14,327,1.00,3,3,0,0,18,88648,1113,2.61,-0.55,10.05,-5.77,-16.87,13.28,120,1086,1,-8,26,35.00,11, 35.702141, 51.350891,5.00,0.12,254

201,420541,-2,14,327,1.00,3,3,0,0,18,88648,1113,2.66,-0.54,9.94,-7.24,-17.30,13.77,119,1087,1,-8,26,35.00,11, 35.702141, 51.350891,5.00,0.12,254

201,420827,-3,14,327,1.00,3,3,0,0,19,88646,1113,2.65,-0.52,10.00,-5.41,-15.77,12.55,117,1087,1,-8,26,35.00,11, 35.702141, 51.350891,5.00,0.12,254

201,421211,-2,14,327,1.00,3,3,0,0,19,88646,1113,2.67,-0.51,10.02,-6.63,-15.59,13.10,121,1087,1,-8,26,35.00,11, 35.702141, 51.350891,5.00,0.12,254

201,421498,-2,14,327,1.00,3,3,0,0,18,88647,1113,2.63,-0.48,9.97,-6.20,-15.90,14.14,119,1087,1,-8,26,35.00,11, 35.702141, 51.350891,5.00,0.12,254

201,421784,-2,14,327,1.00,3,3,0,0,18,88644,1113,2.62,-0.50,10.01,-7.42,-16.08,12.61,119,1087,1,-8,26,35.00,11, 35.702141, 51.350891,5.00,0.12,254

201,421977,-3,14,327,1.00,3,3,0,0,18,88647,1113,2.62,-0.55,9.92,-6.02,-15.59,12.37,121,1087,1,-8,26,35.00,11, 35.702141, 51.350891,5.00,0.12,254

201,422167,-3,14,327,1.00,3,3,0,0,19,88650,1113,2.62,-0.47,10.10,-5.29,-16.69,13.89,121,1087,1,-8,26,35.00,11, 35.702141, 51.350891,5.00,0.12,254

201,422359,-2,14,327,1.00,3,3,0,0,18,88650,1113,2.61,-0.44,9.98,-6.87,-15.90,14.08,121,1087,1,-8,26,35.00,11, 35.702141, 51.350891,5.00,0.12,254

201,422551,-2,14,327,1.00,3,3,0,0,19,88647,1113,2.61,-0.49,9.98,-6.93,-16.32,13.40,124,1087,1,-8,26,35.00,11, 35.702141, 51.350891,5.00,0.12,254

201,422742,-3,14,327,1.00,3,3,0,0,18,88646,1113,2.69,-0.53,10.02,-7.11,-15.59,13.89,113,1088,1,-8,26,35.00,11, 35.702141, 51.350891,5.00,0.12,254

201,422933,-2,14,327,1.00,3,3,0,0,19,88645,1113,2.63,-0.53,9.94,-6.44,-16.38,11.82,111,1088,1,-8,26,35.00,11, 35.702141, 51.350891,5.00,0.12,254

201,423124,-2,14,327,1.00,3,3,0,0,19,88650,1113,2.57,-0.53,10.02,-5.96,-15.29,12.86,116,1088,1,-8,26,35.00,11, 35.702141, 51.350891,5.00,0.12,254

201,423316,-2,14,327,1.00,3,3,0,0,19,88649,1113,2.61,-0.50,10.05,-7.36,-17.36,14.38,115,1088,1,-8,26,35.00,11, 35.702141, 51.350891,5.00,0.12,254

201,423508,-2,14,327,1.00,3,3,0,0,19,88647,1113,2.65,-0.48,10.01,-7.05,-16.63,13.28,114,1088,1,-8,26,35.00,11, 35.702141, 51.350891,5.00,0.12,254

201,423795,-2,14,327,1.00,3,3,0,0,19,88647,1113,2.66,-0.51,10.05,-5.53,-16.38,14.32,115,1088,1,-8,26,35.00,11, 35.702141, 51.350891,5.00,0.12,254

201,424082,-3,14,327,1.00,3,3,0,0,18,88647,1113,2.63,-0.48,9.96,-8.15,-16.32,13.89,114,1088,1,-8,26,35.00,11, 35.702141, 51.350891,5.00,0.12,254

201,424369,-2,14,327,1.00,3,3,0,0,19,88647,1113,2.68,-0.53,9.91,-6.63,-17.36,12.43,116,1088,1,-8,26,35.00,11, 35.702141, 51.350891,5.00,0.12,254

201,424560,-2,14,327,1.00,3,3,0,0,18,88649,1113,2.66,-0.54,10.00,-6.99,-14.62,14.32,114,1087,1,-8,26,35.00,11, 35.702141, 51.350891,5.00,0.12,254

201,424752,-3,15,327,1.00,3,3,0,0,19,88649,1113,2.65,-0.51,9.97,-6.08,-16.08,13.34,118,1087,1,-8,26,35.00,11, 35.702141, 51.350891,5.00,0.12,254

201,425038,-2,14,327,1.00,3,3,0,0,18,88649,1113,2.62,-0.52,10.03,-6.50,-15.41,13.59,116,1088,1,-8,26,35.00,11, 35.702141, 51.350891,5.00,0.12,254

201,425326,-2,14,327,1.00,3,3,0,0,19,88645,1113,2.63,-0.49,10.02,-6.14,-16.87,12.86,116,1087,1,-8,26,35.00,11, 35.702141, 51.350891,5.00,0.12,254

201,425518,-2,14,327,1.00,3,3,0,0,19,88649,1113,2.66,-0.56,10.03,-7.42,-14.68,13.16,117,1087,1,-8,26,35.00,11, 35.702141, 51.350891,5.00,0.12,254

201,425709,-3,14,327,1.00,3,3,0,0,19,88649,1113,2.65,-0.54,10.04,-5.83,-16.20,13.71,118,1088,1,-8,26,35.00,11, 35.702141, 51.350891,5.00,0.12,254

201,425901,-2,14,327,1.00,3,3,0,0,19,88647,1113,2.62,-0.49,10.03,-6.14,-15.16,13.47,117,1087,1,-8,26,35.00,11, 35.702141, 51.350891,5.00,0.12,254

201,426092,-2,14,327,1.00,3,3,0,0,19,88647,1113,2.68,-0.48,9.94,-5.96,-16.44,13.53,115,1088,1,-8,26,35.00,11, 35.702141, 51.350891,5.00,0.12,254

201,426379,-2,14,327,1.00,3,3,0,0,19,88647,1113,2.66,-0.49,10.03,-6.81,-16.20,13.40,115,1088,1,-8,26,35.00,11, 35.702141, 51.350891,5.00,0.12,254

201,426667,-3,14,327,1.00,3,3,0,0,18,88644,1113,2.64,-0.48,10.01,-6.87,-16.14,13.71,113,1087,1,-8,26,35.00,11, 35.702141, 51.350891,5.00,0.12,254

201,426953,-2,14,327,1.00,3,3,0,0,19,88647,1113,2.66,-0.54,9.95,-6.20,-16.87,12.73,117,1087,1,-8,26,35.00,11, 35.702141, 51.350891,5.00,0.12,254

201,427144,-2,14,327,1.00,3,3,0,0,18,88649,1113,2.57,-0.50,9.99,-6.63,-15.29,13.16,114,1087,1,-8,26,35.00,11, 35.702141, 51.350891,5.00,0.12,254

201,427335,-3,14,327,1.00,3,3,0,0,19,88646,1113,2.62,-0.52,10.09,-7.18,-16.32,12.25,117,1087,1,-8,26,35.00,11, 35.702141, 51.350891,5.00,0.12,254

201,427528,-2,14,327,1.00,3,3,0,0,18,88648,1113,2.65,-0.48,10.01,-6.50,-15.77,13.28,114,1088,1,-8,26,35.00,11, 35.702141, 51.350891,5.00,0.12,254

201,427815,-2,14,327,1.00,3,3,0,0,19,88650,1113,2.62,-0.51,9.94,-6.02,-14.74,12.31,118,1087,1,-8,26,35.00,11, 35.702141, 51.350891,5.00,0.12,254

201,428101,-2,14,327,1.00,3,3,0,0,18,88647,1113,2.61,-0.53,10.03,-6.20,-15.71,13.16,115,1088,1,-8,26,35.00,11, 35.702141, 51.350891,5.00,0.12,254

201,428389,-3,15,327,1.00,3,3,0,0,18,88646,1113,2.60,-0.52,10.04,-5.77,-16.63,13.34,117,1087,1,-8,26,35.00,11, 35.702141, 51.350891,5.00,0.12,254

201,428677,-3,15,327,1.00,3,3,0,0,19,88646,1113,2.57,-0.50,10.06,-4.61,-16.02,13.83,117,1088,1,-8,26,35.00,11, 35.702141, 51.350891,5.00,0.12,254

201,428963,-2,14,327,1.00,3,3,0,0,19,88646,1113,2.69,-0.52,10.03,-6.08,-17.36,12.06,117,1088,1,-8,26,35.00,11, 35.702141, 51.350891,5.00,0.12,254

201,429346,-2,14,327,1.00,3,3,0,0,18,88650,1113,2.65,-0.51,10.01,-6.14,-14.68,12.92,117,1088,1,-8,26,35.00,11, 35.702141, 51.350891,5.00,0.12,254

201,429634,-3,14,327,1.00,3,3,0,0,19,88648,1113,2.63,-0.54,10.08,-6.87,-14.49,13.77,115,1087,1,-8,26,35.00,11, 35.702141, 51.350891,5.00,0.12,254

201,429825,-2,14,327,1.00,3,3,0,0,18,88648,1113,2.67,-0.51,9.96,-6.38,-16.14,12.31,116,1087,1,-8,26,35.00,11, 35.702141, 51.350891,5.00,0.12,254

201,430016,-2,14,327,1.00,3,3,0,0,19,88650,1113,2.70,-0.45,10.04,-6.44,-17.05,13.71,116,1088,1,-8,26,35.00,11, 35.702141, 51.350891,5.00,0.12,254

201,430208,-2,14,327,1.00,3,3,0,0,18,88648,1113,2.64,-0.49,9.98,-7.18,-16.75,13.47,115,1088,1,-8,26,35.00,11, 35.702141, 51.350891,5.00,0.12,254

201,430495,-2,15,327,1.00,3,3,0,0,19,88649,1113,2.67,-0.52,10.07,-7.54,-16.38,13.34,114,1088,1,-8,26,35.00,11, 35.702141, 51.350891,5.00,0.12,254

201,430782,-3,14,327,1.00,3,3,0,0,19,88647,1113,2.62,-0.53,9.99,-6.63,-16.38,13.22,116,1087,1,-8,26,35.00,11, 35.702141, 51.350891,5.00,0.12,254

201,431069,-2,14,327,1.00,3,3,0,0,18,88648,1113,2.64,-0.51,10.00,-6.50,-14.43,13.40,122,1087,1,-8,26,35.00,11, 35.702141, 51.350891,5.00,0.12,254

201,431355,-3,14,327,1.00,3,3,0,0,19,88646,1113,2.61,-0.51,9.98,-5.35,-17.48,12.49,117,1087,1,-8,26,35.00,11, 35.702141, 51.350891,5.00,0.12,254

201,431643,-2,14,327,1.00,3,3,0,0,19,88649,1113,2.64,-0.53,10.02,-5.65,-16.99,13.22,122,1087,1,-8,26,35.00,11, 35.702141, 51.350891,5.00,0.12,254

201,431930,-3,15,327,1.00,3,3,0,0,18,88648,1113,2.66,-0.51,10.01,-6.75,-15.41,12.31,121,1087,1,-8,26,35.00,11, 35.702141, 51.350891,5.00,0.12,254

201,432218,-3,14,327,1.00,3,3,0,0,19,88649,1113,2.67,-0.51,9.96,-6.08,-16.99,13.28,123,1087,1,-8,26,35.00,11, 35.702141, 51.350891,5.00,0.12,254

201,432505,-2,14,327,1.00,3,3,0,0,19,88649,1113,2.65,-0.55,10.08,-6.26,-16.57,12.98,120,1087,1,-8,26,35.00,11, 35.702141, 51.350891,5.00,0.12,254

201,432792,-2,14,327,1.00,3,3,0,0,18,88650,1113,2.63,-0.54,9.96,-5.77,-16.69,13.53,122,1087,1,-8,26,35.00,11, 35.702141, 51.350891,5.00,0.12,254

201,433174,-2,14,327,1.00,3,3,0,0,18,88647,1113,2.70,-0.54,9.97,-6.14,-16.81,13.47,122,1087,1,-8,26,35.00,11, 35.702141, 51.350891,5.00,0.12,254

201,433558,-2,14,327,1.00,3,3,0,0,18,88649,1113,2.65,-0.50,10.06,-5.77,-17.73,12.73,122,1087,1,-8,26,35.00,11, 35.702141, 51.350891,5.00,0.12,254

201,433940,-2,14,327,1.00,3,3,0,0,18,88645,1113,2.67,-0.57,10.06,-5.90,-15.96,14.20,122,1087,1,-8,26,35.00,11, 35.702141, 51.350891,5.00,0.12,254

201,434131,-3,14,327,1.00,3,3,0,0,18,88649,1113,2.56,-0.50,10.01,-6.20,-16.51,13.83,122,1087,1,-8,26,35.00,11, 35.702141, 51.350891,5.00,0.12,254

201,434418,-3,14,327,1.00,3,3,0,0,19,88648,1113,2.73,-0.54,9.97,-5.53,-15.47,13.16,122,1087,1,-8,26,35.00,11, 35.702141, 51.350891,5.00,0.12,254

201,434707,-2,15,326,1.00,3,3,0,0,19,88647,1113,2.63,-0.48,9.92,-6.63,-16.32,12.79,124,1087,1,-8,26,35.00,11, 35.702122, 51.350834,5.00,0.12,254

201,434897,-3,14,327,1.00,3,3,0,0,19,88645,1113,2.60,-0.52,9.91,-6.08,-17.18,12.49,121,1087,1,-8,26,35.00,11, 35.702122, 51.350834,5.00,0.12,254

201,435089,-2,14,327,1.00,3,3,0,0,19,88647,1113,2.67,-0.50,9.95,-6.81,-14.92,14.69,120,1087,1,-8,26,35.00,11, 35.702122, 51.350834,5.00,0.12,254

201,435280,-2,14,327,1.00,3,3,0,0,19,88648,1113,2.62,-0.50,10.00,-6.75,-15.47,12.19,121,1087,1,-8,26,35.00,11, 35.702122, 51.350834,5.00,0.12,254

201,435472,-2,14,327,1.00,3,3,0,0,19,88647,1113,2.64,-0.50,10.02,-6.08,-15.96,13.95,121,1087,1,-8,26,35.00,11, 35.702122, 51.350834,5.00,0.12,254

201,435760,-3,14,327,1.00,3,3,0,0,19,88650,1113,2.64,-0.54,9.98,-6.63,-15.90,13.28,122,1087,1,-8,26,35.00,11, 35.702122, 51.350830,5.00,0.09,254

201,436045,-2,14,327,1.00,3,3,0,0,19,88645,1113,2.61,-0.50,10.00,-6.87,-15.47,14.32,123,1087,1,-8,26,35.00,11, 35.702122, 51.350830,5.00,0.09,254

201,436238,-2,14,327,1.00,3,3,0,0,18,88647,1113,2.64,-0.50,10.01,-5.65,-17.05,12.49,123,1087,1,-8,26,35.00,11, 35.702122, 51.350830,5.00,0.09,254

201,436428,-2,14,327,1.00,3,3,0,0,19,88647,1113,2.66,-0.50,9.94,-6.08,-16.32,12.43,121,1087,1,-8,26,35.00,11, 35.702122, 51.350830,5.00,0.09,254

201,436621,-2,14,327,1.00,3,3,0,0,19,88648,1113,2.63,-0.49,9.93,-6.08,-16.69,13.22,122,1087,1,-8,26,35.00,11, 35.702122, 51.350826,5.00,0.07,254

201,436811,-2,14,327,1.00,3,3,0,0,18,88646,1113,2.63,-0.52,9.96,-6.44,-16.99,12.92,120,1087,1,-8,26,35.00,11, 35.702122, 51.350826,5.00,0.07,254

201,437099,-2,14,327,1.00,3,3,0,0,18,88646,1113,2.65,-0.47,9.95,-7.05,-17.66,13.28,122,1087,1,-8,26,35.00,11, 35.702122, 51.350826,5.00,0.07,254

201,437386,-2,14,327,1.00,3,3,0,0,19,88648,1113,2.60,-0.53,9.96,-6.81,-15.84,12.98,122,1087,1,-8,26,35.00,11, 35.702122, 51.350826,5.00,0.07,254

201,437673,-2,14,327,1.00,3,3,0,0,18,88646,1113,2.67,-0.53,9.99,-7.05,-16.51,13.16,122,1087,1,-8,26,35.00,11, 35.702122, 51.350826,5.00,0.07,254

201,437960,-3,14,327,1.00,3,3,0,0,18,88645,1113,2.69,-0.45,10.02,-7.11,-15.77,12.92,120,1087,1,-8,26,35.00,11, 35.702122, 51.350826,5.00,0.07,254

201,438152,-2,14,327,1.00,3,3,0,0,18,88646,1113,2.70,-0.52,10.04,-5.90,-15.65,14.01,123,1087,1,-8,26,35.00,11, 35.702122, 51.350826,5.00,0.07,254

201,438438,-2,14,327,1.00,3,3,0,0,18,88649,1113,2.68,-0.54,9.93,-4.61,-16.08,12.55,119,1088,1,-8,26,35.00,11, 35.702122, 51.350826,5.00,0.07,254

201,438631,-2,14,327,1.00,3,3,0,0,19,88646,1113,2.68,-0.56,9.96,-7.54,-15.90,13.22,123,1087,1,-8,26,35.00,11, 35.702122, 51.350819,5.00,0.08,254

201,438821,-2,14,327,1.00,3,3,0,0,19,88647,1113,2.62,-0.55,10.02,-6.69,-14.86,13.10,120,1087,1,-8,26,35.00,11, 35.702122, 51.350819,5.00,0.08,254

201,439013,-3,14,327,1.00,3,3,0,0,18,88650,1113,2.62,-0.54,9.98,-6.20,-16.14,13.16,120,1087,1,-8,26,35.00,11, 35.702122, 51.350819,5.00,0.08,254

201,439204,-2,14,327,1.00,3,3,0,0,19,88648,1113,2.68,-0.53,10.04,-6.93,-15.35,13.28,122,1087,1,-8,26,35.00,11, 35.702122, 51.350819,5.00,0.08,254

201,439396,-2,14,327,1.00,3,3,0,0,18,88650,1113,2.60,-0.56,9.96,-4.74,-16.08,13.77,121,1087,1,-8,26,35.00,11, 35.702122, 51.350819,5.00,0.08,254

201,439588,-2,14,327,1.00,3,3,0,0,19,88649,1113,2.62,-0.48,10.05,-6.81,-15.35,13.28,121,1087,1,-8,26,35.00,11, 35.702122, 51.350819,5.00,0.08,254

201,439875,-2,14,327,1.00,3,3,0,0,18,88644,1113,2.67,-0.49,9.97,-7.24,-16.63,14.56,121,1087,1,-8,26,35.00,11, 35.702122, 51.350819,5.00,0.08,254

201,440162,-3,15,327,1.00,3,3,0,0,18,88648,1113,2.64,-0.55,10.06,-6.57,-16.32,13.10,121,1087,1,-8,26,35.00,11, 35.702122, 51.350819,5.00,0.08,254

201,440450,-2,15,327,1.00,3,3,0,0,19,88645,1113,2.71,-0.52,10.00,-6.69,-16.02,14.01,123,1087,1,-8,26,35.00,11, 35.702122, 51.350819,5.00,0.08,254

201,440736,-2,14,327,1.00,3,3,0,0,18,88646,1113,2.60,-0.49,9.95,-6.93,-15.23,13.40,119,1086,1,-8,26,35.00,11, 35.702122, 51.350807,5.00,0.02,254

201,440928,-3,14,327,1.00,3,3,0,0,19,88648,1113,2.63,-0.57,9.99,-6.99,-16.26,12.67,122,1086,1,-8,26,35.00,11, 35.702122, 51.350807,5.00,0.02,254

201,441214,-2,14,327,1.00,3,3,0,0,18,88645,1113,2.67,-0.47,9.96,-6.38,-16.44,13.47,122,1086,1,-8,26,35.00,11, 35.702122, 51.350807,5.00,0.02,254

201,441502,-3,15,327,1.00,3,3,0,0,18,88648,1113,2.67,-0.51,10.03,-5.10,-15.65,12.92,122,1087,1,-8,26,35.00,11, 35.702122, 51.350807,5.00,0.02,254

201,441790,-3,14,327,1.00,3,3,0,0,19,88649,1113,2.60,-0.49,9.99,-7.18,-16.20,14.08,120,1087,1,-8,26,35.00,11, 35.702122, 51.350807,5.00,0.02,254

201,442076,-2,14,327,1.00,3,3,0,0,18,88647,1113,2.64,-0.52,9.97,-7.05,-16.32,13.28,122,1087,1,-8,26,35.00,11, 35.702122, 51.350807,5.00,0.02,254

201,442267,-2,14,327,1.00,3,3,0,0,19,88644,1113,2.67,-0.50,10.03,-6.63,-16.51,13.89,123,1087,1,-8,26,35.00,11, 35.702122, 51.350807,5.00,0.02,254

201,442556,-2,14,327,1.00,3,3,0,0,19,88649,1113,2.64,-0.51,9.99,-5.53,-15.90,12.61,122,1087,1,-8,26,35.00,11, 35.702122, 51.350807,5.00,0.02,254

201,442842,-2,14,327,1.00,3,3,0,0,18,88648,1113,2.62,-0.47,10.04,-7.30,-15.77,13.77,121,1087,1,-8,26,35.00,11, 35.702122, 51.350807,5.00,0.02,254

201,443129,-3,14,327,1.00,3,3,0,0,19,88648,1113,2.63,-0.52,9.99,-5.65,-16.08,13.77,121,1087,1,-8,26,35.00,11, 35.702122, 51.350807,5.00,0.02,254

201,443320,-3,14,327,1.00,3,3,0,0,18,88646,1113,2.68,-0.54,10.09,-6.87,-16.38,13.16,123,1087,1,-8,26,35.00,11, 35.702122, 51.350807,5.00,0.02,254

201,443512,-2,14,327,1.00,3,3,0,0,19,88646,1113,2.61,-0.50,9.97,-7.30,-15.35,13.47,119,1087,1,-8,26,35.00,11, 35.702122, 51.350807,5.00,0.02,254

201,443799,-3,14,327,1.00,3,3,0,0,18,88648,1113,2.68,-0.49,10.05,-6.81,-16.63,13.65,120,1087,1,-8,26,35.00,11, 35.702122, 51.350807,5.00,0.02,254

201,444087,-2,14,327,1.00,3,3,0,0,19,88644,1113,2.66,-0.56,10.10,-6.26,-16.44,12.98,118,1087,1,-8,26,35.00,11, 35.702122, 51.350807,5.00,0.02,254

201,444374,-2,14,327,1.00,3,3,0,0,19,88645,1113,2.60,-0.52,9.90,-6.75,-16.02,13.53,119,1087,1,-8,26,35.00,11, 35.702122, 51.350807,5.00,0.02,254

201,444661,-3,14,327,1.00,3,3,0,0,18,88647,1113,2.67,-0.48,10.01,-5.90,-17.12,12.98,123,1087,1,-8,26,35.00,11, 35.702122, 51.350807,5.00,0.02,254

201,444948,-2,14,327,1.00,3,3,0,0,19,88649,1113,2.58,-0.47,10.08,-7.36,-16.08,13.22,121,1087,1,-8,26,35.00,11, 35.702122, 51.350807,5.00,0.02,254

201,445331,-2,14,327,1.00,3,3,0,0,19,88644,1113,2.62,-0.54,10.06,-7.18,-15.29,14.14,122,1087,1,-8,26,35.00,11, 35.702122, 51.350807,5.00,0.02,254

201,445619,-3,14,327,1.00,3,3,0,0,18,88646,1113,2.63,-0.51,9.99,-6.20,-15.59,13.22,117,1087,1,-8,26,35.00,11, 35.702122, 51.350807,5.00,0.02,254

201,445904,-3,15,327,1.00,3,3,0,0,19,88648,1113,2.64,-0.52,10.04,-5.77,-16.99,12.12,123,1087,1,-8,26,35.00,11, 35.702137, 51.350780,5.00,0.07,254

201,446192,-3,14,327,1.00,3,3,0,0,19,88646,1113,2.62,-0.53,10.03,-6.32,-15.53,12.67,121,1087,1,-8,26,35.00,11, 35.702137, 51.350780,5.00,0.07,254

201,446480,-3,14,327,1.00,3,3,0,0,18,88646,1113,2.64,-0.55,9.90,-6.02,-16.63,14.14,119,1087,1,-8,26,35.00,11, 35.702137, 51.350780,5.00,0.07,254

201,446767,-2,14,327,1.00,3,3,0,0,18,88648,1113,2.66,-0.52,10.10,-6.81,-15.90,12.98,121,1086,1,-8,26,35.00,11, 35.702137, 51.350780,5.00,0.07,254

201,447054,-2,14,327,1.00,3,3,0,0,19,88646,1113,2.64,-0.51,10.03,-6.08,-15.35,13.28,118,1087,1,-8,26,35.00,11, 35.702137, 51.350780,5.00,0.07,254

201,447341,-3,14,327,1.00,3,3,0,0,18,88646,1113,2.65,-0.49,10.02,-7.11,-15.65,12.67,117,1087,1,-8,26,35.00,11, 35.702137, 51.350780,5.00,0.07,254

201,447629,-3,14,327,1.00,3,3,0,0,19,88647,1113,2.62,-0.52,10.01,-5.10,-17.48,13.28,121,1087,1,-8,26,35.00,11, 35.702137, 51.350780,5.00,0.07,254

201,447915,-3,14,327,1.00,3,3,0,0,19,88646,1113,2.66,-0.46,9.93,-6.08,-16.14,12.55,119,1087,1,-8,26,35.00,11, 35.702137, 51.350780,5.00,0.07,254

201,448106,-3,14,327,1.00,3,3,0,0,19,88646,1113,2.64,-0.53,10.00,-5.41,-14.98,13.22,121,1087,1,-8,26,35.00,11, 35.702137, 51.350780,5.00,0.07,254

201,448297,-3,14,327,1.00,3,3,0,0,19,88646,1113,2.65,-0.49,9.97,-7.18,-16.20,13.53,122,1087,1,-8,26,35.00,11, 35.702137, 51.350780,5.00,0.07,254

201,448490,-2,14,327,1.00,3,3,0,0,19,88646,1113,2.61,-0.47,9.96,-6.32,-17.36,13.16,119,1086,1,-8,26,35.00,11, 35.702137, 51.350780,5.00,0.07,254

201,448680,-3,15,327,1.00,3,3,0,0,19,88647,1113,2.61,-0.51,10.03,-6.93,-17.60,12.55,120,1087,1,-8,26,35.00,11, 35.702137, 51.350780,5.00,0.07,254

201,448872,-2,15,326,1.00,3,3,0,0,19,88649,1113,2.66,-0.50,10.02,-7.18,-17.36,14.44,122,1087,1,-8,26,35.00,11, 35.702137, 51.350780,5.00,0.07,254

201,449160,-2,14,327,1.00,3,3,0,0,18,88649,1113,2.68,-0.46,9.92,-5.22,-15.47,13.16,122,1087,1,-8,26,35.00,11, 35.702137, 51.350780,5.00,0.07,254

201,449445,-2,14,327,1.00,3,3,0,0,18,88645,1113,2.60,-0.55,10.00,-6.08,-15.47,12.25,120,1087,1,-8,26,35.00,11, 35.702137, 51.350780,5.00,0.07,254

201,449734,-2,14,327,1.00,3,3,0,0,19,88645,1113,2.63,-0.51,10.02,-6.26,-16.32,12.67,121,1087,1,-8,26,35.00,11, 35.702145, 51.350761,5.00,0.03,254

201,450021,-2,14,327,1.00,3,3,0,0,18,88645,1113,2.64,-0.48,9.99,-6.26,-15.77,12.79,122,1087,1,-8,26,35.00,11, 35.702145, 51.350761,5.00,0.03,254

201,450212,-2,14,327,1.00,3,3,0,0,19,88646,1113,2.67,-0.54,9.96,-7.05,-16.38,13.71,119,1087,1,-8,26,35.00,11, 35.702145, 51.350761,5.00,0.03,254

201,450403,-2,14,327,1.00,3,3,0,0,18,88649,1113,2.69,-0.51,10.01,-6.32,-16.08,13.04,120,1087,1,-8,26,35.00,11, 35.702145, 51.350761,5.00,0.03,254

201,450595,-2,14,327,1.00,3,3,0,0,19,88648,1113,2.61,-0.52,9.96,-6.32,-16.63,14.14,120,1087,1,-8,26,35.00,11, 35.702145, 51.350761,5.00,0.03,254

201,450786,-2,14,327,1.00,3,3,0,0,19,88650,1113,2.63,-0.53,10.08,-7.48,-15.84,13.28,120,1087,1,-8,26,35.00,11, 35.702145, 51.350761,5.00,0.03,254

201,450978,-3,15,327,1.00,3,3,0,0,19,88647,1113,2.66,-0.50,10.02,-6.57,-15.41,12.31,122,1087,1,-8,26,35.00,11, 35.702145, 51.350761,5.00,0.03,254

201,451170,-2,14,327,1.00,3,3,0,0,19,88646,1113,2.66,-0.53,10.07,-6.08,-15.65,13.65,116,1087,1,-8,26,35.00,11, 35.702145, 51.350761,5.00,0.03,254

201,451360,-2,14,327,1.00,3,3,0,0,19,88648,1113,2.66,-0.49,10.04,-6.32,-15.47,12.12,122,1087,1,-8,26,35.00,11, 35.702145, 51.350761,5.00,0.03,254

201,451553,-2,14,327,1.00,3,3,0,0,19,88646,1113,2.65,-0.54,10.04,-6.02,-15.84,12.98,120,1087,1,-8,26,35.00,11, 35.702145, 51.350761,5.00,0.03,254

201,451840,-2,14,327,1.00,3,3,0,0,19,88646,1113,2.65,-0.53,9.98,-6.32,-17.05,13.28,120,1087,1,-8,26,35.00,11, 35.702145, 51.350761,5.00,0.03,254

201,452126,-2,14,327,1.00,3,3,0,0,18,88648,1113,2.64,-0.54,10.00,-6.63,-15.77,13.47,118,1087,1,-8,26,35.00,11, 35.702145, 51.350761,5.00,0.03,254

201,452414,-2,14,327,1.00,3,3,0,0,19,88645,1113,2.58,-0.50,10.01,-4.98,-17.30,13.22,122,1087,1,-8,26,35.00,11, 35.702145, 51.350761,5.00,0.03,254

201,452605,-2,14,327,1.00,3,3,0,0,18,88647,1113,2.63,-0.50,10.03,-6.14,-17.12,13.89,119,1087,1,-8,26,35.00,11, 35.702145, 51.350761,5.00,0.03,254

201,452797,-2,14,327,1.00,3,3,0,0,19,88648,1113,2.65,-0.47,9.95,-6.81,-15.90,13.40,123,1087,1,-8,26,35.00,11, 35.702145, 51.350761,5.00,0.03,254

201,453084,-2,14,327,1.00,3,3,0,0,18,88646,1113,2.67,-0.51,9.99,-7.60,-16.69,14.14,120,1087,1,-8,26,35.00,11, 35.702145, 51.350761,5.00,0.03,254

201,453370,-3,14,327,1.00,3,3,0,0,19,88644,1113,2.66,-0.51,10.00,-7.97,-15.23,13.40,121,1087,1,-8,26,35.00,11, 35.702145, 51.350761,5.00,0.03,254

201,453659,-2,14,327,1.00,3,3,0,0,19,88647,1113,2.60,-0.53,9.94,-6.69,-16.81,13.28,122,1087,1,-8,26,35.00,11, 35.702145, 51.350761,5.00,0.03,254

201,453945,-2,14,327,1.00,3,3,0,0,18,88644,1113,2.62,-0.52,9.97,-6.38,-16.20,14.32,123,1087,1,-8,26,35.00,11, 35.702145, 51.350761,5.00,0.03,254

201,454232,-2,14,327,1.00,3,3,0,0,19,88646,1113,2.66,-0.50,9.95,-5.35,-17.24,12.55,122,1087,1,-8,26,35.00,11, 35.702145, 51.350761,5.00,0.03,254

201,454520,-2,14,327,1.00,3,3,0,0,19,88646,1113,2.64,-0.53,10.01,-6.57,-14.49,12.49,122,1087,1,-8,26,35.00,11, 35.702145, 51.350761,5.00,0.03,254

201,454807,-2,14,327,1.00,3,3,0,0,18,88647,1113,2.67,-0.53,9.93,-7.30,-15.29,14.08,121,1087,1,-8,26,35.00,11, 35.702145, 51.350761,5.00,0.03,254

201,454998,-2,14,327,1.00,3,3,0,0,19,88644,1113,2.63,-0.48,10.00,-6.69,-16.08,14.38,121,1087,1,-8,26,35.00,11, 35.702145, 51.350761,5.00,0.03,254

201,455189,-2,15,327,1.00,3,3,0,0,18,88643,1113,2.61,-0.53,9.86,-7.54,-15.71,13.40,120,1087,1,-8,26,35.00,11, 35.702145, 51.350761,5.00,0.03,254

201,455379,-3,14,327,1.00,3,3,0,0,19,88644,1113,2.66,-0.52,10.03,-5.71,-16.81,13.89,118,1087,1,-8,26,35.00,11, 35.702145, 51.350761,5.00,0.03,254

201,455573,-2,14,327,1.00,3,3,0,0,19,88645,1113,2.62,-0.54,9.98,-6.81,-15.96,13.95,119,1087,1,-8,26,35.00,11, 35.702145, 51.350761,5.00,0.03,254

201,455860,-3,14,327,1.00,3,3,0,0,19,88648,1113,2.65,-0.49,10.01,-6.57,-15.10,15.05,122,1087,1,-8,26,35.00,11, 35.702145, 51.350761,5.00,0.03,254

201,456146,-2,14,327,1.00,3,3,0,0,18,88647,1113,2.63,-0.52,10.03,-5.65,-17.05,12.73,123,1087,1,-8,26,35.00,11, 35.702145, 51.350761,5.00,0.03,254

201,456434,-2,14,327,1.00,3,3,0,0,19,88647,1113,2.66,-0.50,10.01,-6.08,-15.90,12.92,123,1087,1,-8,26,35.00,11, 35.702145, 51.350761,5.00,0.03,254

201,456722,-2,14,327,1.00,3,3,0,0,19,88646,1113,2.70,-0.47,9.96,-6.32,-16.08,14.20,121,1087,1,-8,26,35.00,11, 35.702171, 51.350735,5.00,0.09,254

201,457008,-3,14,327,1.00,3,3,0,0,18,88644,1113,2.63,-0.48,10.02,-6.99,-15.77,13.16,122,1087,1,-8,26,35.00,11, 35.702171, 51.350735,5.00,0.09,254

201,457295,-2,14,327,1.00,3,3,0,0,19,88642,1113,2.57,-0.54,10.01,-6.99,-16.93,11.94,121,1087,1,-8,26,35.00,11, 35.702171, 51.350735,5.00,0.09,254

201,457583,-3,14,327,1.00,3,3,0,0,19,88647,1113,2.59,-0.51,9.99,-5.83,-16.87,14.50,121,1087,1,-8,26,35.00,11, 35.702171, 51.350735,5.00,0.09,254

201,457869,-2,14,327,1.00,3,3,0,0,18,88649,1113,2.64,-0.52,9.95,-5.16,-16.38,13.71,121,1087,1,-8,26,35.00,11, 35.702171, 51.350735,5.00,0.09,254

201,458157,-2,14,327,1.00,3,3,0,0,19,88644,1113,2.65,-0.50,10.04,-6.63,-16.69,13.47,122,1087,1,-8,26,35.00,11, 35.702171, 51.350735,5.00,0.09,254

201,458540,-2,14,327,1.00,3,3,0,0,19,88649,1113,2.62,-0.49,9.93,-6.38,-16.20,12.12,118,1088,1,-8,26,35.00,11, 35.702171, 51.350735,5.00,0.09,254

201,458826,-2,14,327,1.00,3,3,0,0,18,88648,1113,2.68,-0.48,9.90,-6.81,-17.42,13.10,115,1087,1,-8,26,35.00,11, 35.702171, 51.350735,5.00,0.09,254

201,459114,-3,14,327,1.00,3,3,0,0,18,88646,1113,2.62,-0.55,10.08,-6.32,-14.49,12.61,119,1087,1,-8,26,35.00,11, 35.702171, 51.350735,5.00,0.09,254

201,459401,-2,14,327,1.00,3,3,0,0,19,88648,1113,2.64,-0.51,9.97,-7.42,-16.75,13.40,119,1087,1,-8,26,35.00,11, 35.702171, 51.350735,5.00,0.09,254

201,459593,-3,14,327,1.00,3,3,0,0,18,88651,1113,2.62,-0.48,10.03,-7.72,-16.63,11.76,120,1087,1,-8,26,35.00,11, 35.702171, 51.350735,5.00,0.09,254

201,459880,-2,14,327,1.00,3,3,0,0,19,88649,1113,2.64,-0.54,10.10,-6.20,-15.90,13.40,117,1088,1,-8,26,35.00,11, 35.702171, 51.350735,5.00,0.09,254

201,460167,-2,14,327,1.00,3,3,0,0,18,88648,1113,2.65,-0.55,10.11,-6.81,-17.12,13.16,122,1087,1,-8,26,35.00,11, 35.702171, 51.350735,5.00,0.09,254

201,460454,-2,14,327,1.00,3,3,0,0,18,88647,1113,2.69,-0.53,10.00,-7.72,-16.14,12.79,122,1088,1,-8,26,35.00,11, 35.702171, 51.350735,5.00,0.09,254

201,460741,-2,14,327,1.00,3,3,0,0,19,88648,1113,2.61,-0.52,9.98,-5.77,-15.53,12.37,123,1087,1,-8,26,35.00,11, 35.702183, 51.350719,5.00,0.07,254

201,460933,-2,14,327,1.00,3,3,0,0,18,88652,1113,2.62,-0.50,10.05,-6.50,-15.65,12.86,118,1087,1,-8,26,35.00,11, 35.702183, 51.350719,5.00,0.07,254

201,461219,-2,14,327,1.00,3,3,0,0,19,88646,1113,2.62,-0.50,10.07,-5.90,-16.38,13.65,122,1088,1,-8,26,35.00,11, 35.702183, 51.350719,5.00,0.07,254

201,461507,-2,14,327,1.00,3,3,0,0,18,88648,1113,2.64,-0.49,10.05,-6.99,-14.98,13.95,120,1087,1,-8,26,35.00,11, 35.702183, 51.350719,5.00,0.07,254

201,461795,-2,14,327,1.00,3,3,0,0,18,88649,1113,2.67,-0.50,10.01,-6.32,-14.98,13.22,123,1087,1,-8,26,35.00,11, 35.702183, 51.350719,5.00,0.07,254

201,461985,-2,14,327,1.00,3,3,0,0,19,88649,1113,2.63,-0.48,10.02,-6.02,-15.96,13.04,123,1087,1,-8,26,35.00,11, 35.702183, 51.350719,5.00,0.07,254

201,462177,-2,14,327,1.00,3,3,0,0,19,88649,1113,2.63,-0.47,9.95,-6.32,-16.93,12.31,120,1087,1,-8,26,35.00,11, 35.702183, 51.350719,5.00,0.07,254

201,462465,-3,14,327,1.00,3,3,0,0,19,88648,1113,2.62,-0.55,10.00,-6.57,-17.18,12.12,123,1087,1,-8,26,35.00,11, 35.702183, 51.350719,5.00,0.07,254

201,462655,-3,14,327,1.00,3,3,0,0,19,88650,1113,2.63,-0.53,10.04,-5.96,-16.14,12.86,116,1088,1,-8,26,35.00,11, 35.702187, 51.350712,5.00,0.11,254

201,462846,-2,14,327,1.00,3,3,0,0,19,88646,1113,2.64,-0.52,10.09,-6.93,-16.63,12.86,111,1088,1,-8,26,35.00,11, 35.702187, 51.350712,5.00,0.11,254

201,463038,-2,14,327,1.00,3,3,0,0,19,88649,1113,2.64,-0.56,10.08,-6.20,-16.08,13.10,123,1087,1,-8,26,35.00,11, 35.702187, 51.350712,5.00,0.11,254

201,463229,-2,14,327,1.00,3,3,0,0,18,88650,1113,2.63,-0.53,9.95,-7.11,-16.63,13.34,118,1088,1,-8,26,35.00,11, 35.702187, 51.350712,5.00,0.11,254

201,463420,-2,14,327,1.00,3,3,0,0,20,88647,1113,2.65,-0.45,10.06,-5.53,-15.71,13.16,117,1088,1,-8,26,35.00,11, 35.702187, 51.350712,5.00,0.11,254

201,463613,-2,14,327,1.00,3,3,0,0,19,88649,1113,2.64,-0.53,10.02,-5.83,-16.51,13.47,117,1088,1,-8,26,35.00,11, 35.702187, 51.350712,5.00,0.11,254

201,463900,-3,14,327,1.00,3,3,0,0,19,88646,1113,2.67,-0.48,9.97,-6.20,-16.93,13.77,123,1088,1,-8,26,35.00,11, 35.702187, 51.350712,5.00,0.11,254

201,464187,-3,14,327,1.00,3,3,0,0,18,88649,1113,2.57,-0.53,9.99,-6.50,-15.96,12.86,118,1087,1,-8,26,35.00,11, 35.702187, 51.350712,5.00,0.11,254

201,464377,-2,15,327,1.00,3,3,0,0,19,88648,1113,2.66,-0.52,10.03,-6.08,-16.26,14.26,124,1087,1,-8,26,35.00,11, 35.702187, 51.350712,5.00,0.11,254

201,464571,-2,14,327,1.00,3,3,0,0,18,88646,1113,2.69,-0.58,10.06,-6.81,-18.70,13.59,120,1087,1,-8,26,35.00,11, 35.702187, 51.350712,5.00,0.11,254

201,464761,-2,14,327,1.00,3,3,0,0,19,88651,1113,2.70,-0.49,10.00,-6.75,-16.63,13.10,122,1087,1,-8,26,35.00,11, 35.702187, 51.350712,5.00,0.11,254

201,464953,-2,15,327,1.00,3,3,0,0,18,88646,1113,2.69,-0.45,10.01,-7.30,-16.57,14.01,122,1087,1,-8,26,35.00,11, 35.702187, 51.350712,5.00,0.11,254

201,465240,-2,15,327,1.00,3,3,0,0,19,88647,1113,2.62,-0.51,10.05,-6.02,-16.32,12.98,122,1087,1,-8,26,35.00,11, 35.702187, 51.350712,5.00,0.11,254

201,465527,-2,14,327,1.00,3,3,0,0,19,88647,1113,2.68,-0.53,9.99,-6.32,-16.87,13.40,119,1087,1,-8,26,35.00,11, 35.702187, 51.350712,5.00,0.11,254

201,465815,-2,15,327,1.00,3,3,0,0,18,88647,1113,2.58,-0.46,9.97,-5.77,-16.14,13.22,123,1087,1,-8,26,35.00,11, 35.702187, 51.350712,5.00,0.11,254

201,466101,-2,14,327,1.00,3,3,0,0,19,88644,1113,2.66,-0.51,10.09,-6.26,-15.04,14.26,122,1087,1,-8,26,35.00,11, 35.702187, 51.350712,5.00,0.11,254

201,466388,-2,14,327,1.00,3,3,0,0,18,88645,1113,2.65,-0.58,9.93,-7.48,-16.32,13.65,121,1087,1,-8,26,35.00,11, 35.702187, 51.350712,5.00,0.11,254

201,466676,-3,14,327,1.00,3,3,0,0,18,88647,1113,2.67,-0.50,9.95,-5.90,-16.87,13.04,123,1087,1,-8,26,35.00,11, 35.702187, 51.350712,5.00,0.11,254

201,466867,-2,14,327,1.00,3,3,0,0,18,88646,1113,2.69,-0.51,10.05,-7.24,-16.51,12.79,117,1087,1,-8,26,35.00,11, 35.702187, 51.350712,5.00,0.11,254

201,467058,-3,14,327,1.00,3,3,0,0,19,88647,1113,2.62,-0.53,9.95,-8.03,-16.26,13.10,123,1087,1,-8,26,35.00,11, 35.702187, 51.350712,5.00,0.11,254

201,467250,-3,15,326,1.00,3,3,0,0,18,88647,1113,2.62,-0.52,9.93,-5.71,-15.96,13.16,123,1087,1,-8,26,35.00,11, 35.702187, 51.350712,5.00,0.11,254

201,467440,-2,14,327,1.00,3,3,0,0,19,88646,1113,2.60,-0.53,10.07,-6.14,-14.86,13.34,121,1087,1,-8,26,35.00,11, 35.702187, 51.350712,5.00,0.11,254

201,467634,-3,15,327,1.00,3,3,0,0,19,88646,1113,2.59,-0.50,9.99,-6.50,-16.20,11.51,120,1087,1,-8,26,35.00,11, 35.702198, 51.350700,5.00,0.03,254

201,467919,-2,14,327,1.00,3,3,0,0,19,88643,1113,2.62,-0.54,9.98,-5.90,-15.96,12.92,122,1088,1,-8,26,35.00,11, 35.702198, 51.350700,5.00,0.03,254

201,468207,-2,14,327,1.00,3,3,0,0,18,88645,1113,2.61,-0.51,10.07,-6.87,-16.38,13.71,123,1087,1,-8,26,35.00,11, 35.702198, 51.350700,5.00,0.03,254

201,468495,-2,14,327,1.00,3,3,0,0,18,88646,1113,2.64,-0.52,10.07,-5.77,-15.96,14.14,123,1087,1,-8,26,35.00,11, 35.702198, 51.350700,5.00,0.03,254

201,468782,-2,14,327,1.00,3,3,0,0,19,88644,1113,2.62,-0.50,9.98,-7.36,-14.80,12.19,123,1087,1,-8,26,35.00,11, 35.702198, 51.350700,5.00,0.03,254

201,468973,-2,14,327,1.00,3,3,0,0,19,88644,1113,2.65,-0.54,9.98,-5.83,-15.29,12.19,120,1087,1,-8,26,35.00,11, 35.702198, 51.350700,5.00,0.03,254

201,469260,-2,14,327,1.00,3,3,0,0,19,88644,1113,2.63,-0.50,10.02,-6.08,-16.20,13.65,118,1087,1,-7,26,35.00,11, 35.702198, 51.350700,5.00,0.03,254

201,469548,-3,14,327,1.00,3,3,0,0,18,88645,1113,2.63,-0.55,10.06,-5.47,-15.35,13.10,120,1087,1,-8,26,35.00,11, 35.702198, 51.350700,5.00,0.03,254

201,469834,-2,14,327,1.00,3,3,0,0,18,88648,1113,2.67,-0.47,10.05,-6.08,-16.44,13.83,120,1087,1,-8,26,35.00,11, 35.702198, 51.350700,5.00,0.03,254

201,470121,-2,14,327,1.00,3,3,0,0,19,88646,1113,2.68,-0.57,9.97,-6.69,-16.14,12.79,120,1087,1,-8,26,35.00,11, 35.702198, 51.350700,5.00,0.03,254

201,470409,-2,14,327,1.00,3,3,0,0,18,88646,1113,2.66,-0.52,10.00,-6.87,-15.10,13.89,122,1087,1,-8,26,35.00,11, 35.702198, 51.350700,5.00,0.03,254

201,470793,-2,14,327,1.00,3,3,0,0,18,88645,1113,2.66,-0.41,9.91,-6.81,-15.10,13.40,122,1087,1,-8,26,35.00,11, 35.702198, 51.350700,5.00,0.03,254

201,471078,-3,14,327,1.00,3,3,0,0,19,88648,1113,2.63,-0.50,9.99,-6.14,-15.29,12.98,121,1087,1,-8,26,35.00,11, 35.702198, 51.350700,5.00,0.03,254

201,471270,-3,14,327,1.00,3,3,0,0,18,88644,1113,2.65,-0.50,10.00,-6.14,-15.59,12.86,118,1087,1,-8,26,35.00,11, 35.702198, 51.350700,5.00,0.03,254

201,471461,-2,14,327,1.00,3,3,0,0,19,88647,1113,2.62,-0.48,10.08,-5.90,-15.71,13.71,124,1087,1,-8,26,35.00,11, 35.702198, 51.350700,5.00,0.03,254

201,471654,-2,14,327,1.00,3,3,0,0,19,88646,1113,2.63,-0.58,9.95,-6.32,-15.65,13.04,121,1087,1,-8,26,35.00,11, 35.702202, 51.350693,5.00,0.07,254

201,471940,-2,15,327,1.00,3,3,0,0,19,88644,1113,2.63,-0.53,10.00,-6.32,-16.57,13.10,120,1087,1,-8,26,35.00,11, 35.702202, 51.350693,5.00,0.07,254

201,472227,-2,14,327,1.00,3,3,0,0,18,88647,1113,2.64,-0.45,9.98,-7.30,-17.36,13.65,119,1087,1,-8,26,35.00,11, 35.702202, 51.350693,5.00,0.07,254

201,472515,-2,14,327,1.00,3,3,0,0,19,88648,1113,2.72,-0.53,9.94,-6.87,-16.44,11.58,119,1087,1,-8,26,35.00,11, 35.702202, 51.350693,5.00,0.07,254

201,472802,-2,14,327,1.00,3,3,0,0,19,88646,1113,2.65,-0.52,10.06,-7.18,-15.71,12.06,122,1087,1,-8,26,35.00,11, 35.702202, 51.350693,5.00,0.07,254

201,473089,-2,14,327,1.00,3,3,0,0,18,88648,1113,2.61,-0.50,9.94,-6.75,-15.29,13.16,123,1087,1,-8,26,35.00,11, 35.702202, 51.350693,5.00,0.07,254

201,473472,-2,14,327,1.00,3,3,0,0,18,88643,1113,2.57,-0.56,9.91,-6.50,-15.47,13.47,122,1087,1,-8,26,35.00,11, 35.702202, 51.350693,5.00,0.07,254

201,473758,-2,14,327,1.00,3,3,0,0,19,88645,1113,2.65,-0.45,10.02,-6.02,-17.30,13.16,119,1087,1,-7,26,35.00,11, 35.702202, 51.350693,5.00,0.07,254

201,473950,-2,14,327,1.00,3,3,0,0,18,88645,1113,2.60,-0.53,9.98,-6.69,-16.38,13.34,122,1087,1,-7,26,35.00,11, 35.702202, 51.350693,5.00,0.07,254

201,474141,-3,14,327,1.00,3,3,0,0,19,88645,1113,2.61,-0.54,10.06,-5.59,-15.90,13.34,123,1087,1,-8,26,35.00,11, 35.702202, 51.350693,5.00,0.07,254

201,474333,-2,14,327,1.00,3,3,0,0,19,88643,1113,2.67,-0.47,10.01,-5.71,-15.65,12.37,121,1087,1,-8,26,35.00,11, 35.702202, 51.350693,5.00,0.07,254

201,474621,-2,14,327,1.00,3,3,0,0,19,88648,1113,2.63,-0.50,10.02,-6.87,-17.05,13.22,121,1087,1,-8,26,35.00,11, 35.702202, 51.350693,5.00,0.07,254

201,474907,-2,14,327,1.00,3,3,0,0,18,88647,1113,2.65,-0.53,10.01,-6.63,-15.23,13.95,120,1087,1,-8,26,35.00,11, 35.702202, 51.350693,5.00,0.07,254

201,475099,-2,14,327,1.00,3,3,0,0,19,88646,1113,2.64,-0.50,9.98,-4.80,-16.81,13.89,121,1087,1,-8,26,35.00,11, 35.702202, 51.350693,5.00,0.07,254

201,475290,-3,14,327,1.00,3,3,0,0,18,88646,1113,2.65,-0.58,9.94,-5.29,-17.36,13.22,121,1087,1,-8,26,35.00,11, 35.702202, 51.350693,5.00,0.07,254

201,475482,-3,14,327,1.00,3,3,0,0,19,88644,1113,2.62,-0.53,10.03,-6.02,-16.44,12.25,123,1087,1,-8,26,35.00,11, 35.702202, 51.350693,5.00,0.07,254

201,475673,-3,15,327,1.00,3,3,0,0,19,88646,1113,2.59,-0.53,10.09,-5.53,-16.44,12.25,120,1087,1,-8,26,35.00,11, 35.702206, 51.350666,5.00,0.15,254

201,475865,-2,14,327,1.00,3,3,0,0,19,88648,1113,2.59,-0.51,10.03,-6.26,-15.41,12.19,118,1087,1,-8,26,35.00,11, 35.702206, 51.350666,5.00,0.15,254

201,476056,-2,14,327,1.00,3,3,0,0,19,88646,1113,2.63,-0.48,10.02,-7.36,-16.57,12.79,120,1087,1,-8,26,35.00,11, 35.702206, 51.350666,5.00,0.15,254

201,476248,-2,14,327,1.00,3,3,0,0,18,88649,1113,2.60,-0.55,9.98,-6.20,-16.20,13.95,123,1087,1,-8,26,35.00,11, 35.702206, 51.350666,5.00,0.15,254

201,476438,-3,14,327,1.00,3,3,0,0,19,88646,1113,2.65,-0.55,10.01,-6.93,-17.66,12.55,123,1087,1,-8,26,35.00,11, 35.702206, 51.350666,5.00,0.15,254

201,476631,-2,14,327,1.00,3,3,0,0,19,88651,1113,2.59,-0.47,9.96,-6.87,-14.86,14.56,119,1088,1,-8,26,35.00,11, 35.702206, 51.350666,5.00,0.06,254

201,476821,-2,14,327,1.00,3,3,0,0,19,88646,1113,2.64,-0.54,10.03,-7.05,-14.80,14.08,123,1087,1,-8,26,35.00,11, 35.702206, 51.350666,5.00,0.06,254

201,477014,-3,14,327,1.00,3,3,0,0,19,88646,1113,2.67,-0.56,9.99,-6.63,-15.10,14.08,121,1087,1,-7,26,35.00,11, 35.702206, 51.350666,5.00,0.06,254

201,477300,-3,14,327,1.00,3,3,0,0,19,88646,1113,2.58,-0.50,10.02,-7.79,-15.35,12.73,120,1087,1,-8,26,35.00,11, 35.702206, 51.350666,5.00,0.06,254

201,477588,-2,14,327,1.00,3,3,0,0,18,88650,1113,2.62,-0.56,10.12,-6.26,-15.84,12.55,120,1087,1,-8,26,35.00,11, 35.702206, 51.350666,5.00,0.06,254

201,477875,-3,14,327,1.00,3,3,0,0,19,88650,1113,2.72,-0.54,10.01,-6.87,-17.97,12.43,120,1087,1,-8,26,35.00,11, 35.702206, 51.350666,5.00,0.06,254

201,478161,-2,14,327,1.00,3,3,0,0,19,88646,1113,2.65,-0.50,9.94,-5.65,-15.59,14.44,119,1087,1,-8,26,35.00,11, 35.702206, 51.350666,5.00,0.06,254

201,478352,-2,14,327,1.00,3,3,0,0,19,88644,1113,2.63,-0.51,10.01,-6.44,-15.65,13.22,121,1087,1,-8,26,35.00,11, 35.702206, 51.350666,5.00,0.06,254

201,478641,-2,14,327,1.00,3,3,0,0,19,88642,1113,2.69,-0.50,9.98,-7.54,-16.57,13.16,121,1087,1,-8,26,35.00,11, 35.702206, 51.350666,5.00,0.06,254

201,478927,-2,14,327,1.00,3,3,0,0,18,88650,1113,2.63,-0.45,9.97,-6.50,-15.35,13.22,120,1088,1,-8,26,35.00,11, 35.702206, 51.350666,5.00,0.06,254

201,479214,-3,14,327,1.00,3,3,0,0,19,88647,1113,2.66,-0.52,10.02,-5.71,-16.81,12.49,121,1087,1,-7,26,35.00,11, 35.702206, 51.350666,5.00,0.06,254

201,479406,-3,15,327,1.00,3,3,0,0,18,88644,1113,2.65,-0.48,10.07,-7.97,-16.08,14.14,124,1087,1,-8,26,35.00,11, 35.702206, 51.350666,5.00,0.06,254

201,479598,-2,14,327,1.00,3,3,0,0,19,88648,1113,2.61,-0.48,9.95,-6.50,-17.79,14.32,118,1087,1,-8,26,35.00,11, 35.702206, 51.350666,5.00,0.06,254

201,479884,-2,14,327,1.00,3,3,0,0,18,88648,1113,2.64,-0.47,10.00,-5.47,-15.71,13.40,120,1087,1,-8,26,35.00,11, 35.702206, 51.350666,5.00,0.06,254

201,480172,-2,14,327,1.00,3,3,0,0,19,88651,1113,2.67,-0.50,10.07,-6.08,-16.75,14.01,122,1087,1,-8,26,35.00,11, 35.702206, 51.350666,5.00,0.06,254

201,480459,-2,14,327,1.00,3,3,0,0,19,88645,1113,2.59,-0.51,10.01,-5.29,-16.87,12.92,119,1087,1,-8,26,35.00,11, 35.702206, 51.350666,5.00,0.06,254

201,480651,-2,14,327,1.00,3,3,0,0,19,88649,1113,2.62,-0.53,9.98,-6.26,-17.54,13.10,119,1087,1,-8,26,35.00,11, 35.702202, 51.350658,5.00,0.08,254

201,480841,-2,14,327,1.00,3,3,0,0,18,88647,1113,2.65,-0.52,10.02,-6.50,-16.51,13.10,121,1088,1,-8,26,35.00,11, 35.702202, 51.350658,5.00,0.08,254

201,481129,-2,14,327,1.00,3,3,0,0,18,88649,1113,2.66,-0.52,10.05,-7.72,-16.63,13.53,122,1087,1,-7,26,35.00,11, 35.702202, 51.350658,5.00,0.08,254

201,481416,-2,14,327,1.00,3,3,0,0,19,88645,1113,2.68,-0.57,10.00,-6.38,-16.26,13.95,119,1087,1,-8,26,35.00,11, 35.702202, 51.350658,5.00,0.08,254

201,481703,-3,14,327,1.00,3,3,0,0,18,88646,1113,2.63,-0.56,9.94,-6.93,-15.41,14.08,118,1087,1,-8,26,35.00,11, 35.702202, 51.350658,5.00,0.08,254

201,481990,-3,15,327,1.00,3,3,0,0,19,88646,1113,2.65,-0.55,9.99,-6.26,-16.02,13.16,116,1087,1,-8,26,35.00,11, 35.702202, 51.350658,5.00,0.08,254

201,482277,-2,14,327,1.00,3,3,0,0,19,88646,1113,2.68,-0.53,10.04,-6.32,-16.63,12.67,121,1087,1,-8,26,35.00,11, 35.702202, 51.350658,5.00,0.08,254

201,482661,-3,14,327,1.00,3,3,0,0,18,88646,1113,2.63,-0.54,10.02,-5.83,-16.69,12.98,121,1087,1,-8,26,35.00,11, 35.702202, 51.350658,5.00,0.08,254

201,482948,-2,15,327,1.00,3,3,0,0,18,88647,1113,2.60,-0.52,10.09,-7.24,-16.69,14.50,119,1087,1,-8,26,35.00,11, 35.702202, 51.350658,5.00,0.08,254

201,483234,-2,14,327,1.00,3,3,0,0,19,88650,1113,2.64,-0.45,10.00,-6.02,-16.87,13.95,121,1087,1,-8,26,35.00,11, 35.702202, 51.350658,5.00,0.08,254

201,483426,-3,14,327,1.00,3,3,0,0,19,88648,1113,2.63,-0.52,10.09,-6.87,-15.47,13.10,120,1087,1,-8,26,35.00,11, 35.702202, 51.350658,5.00,0.08,254

201,483618,-2,14,327,1.00,3,3,0,0,19,88649,1113,2.67,-0.49,10.04,-6.20,-15.53,13.28,122,1088,1,-8,26,35.00,11, 35.702202, 51.350658,5.00,0.08,254

201,483905,-3,14,327,1.00,3,3,0,0,18,88648,1113,2.62,-0.50,10.02,-7.18,-15.53,13.28,120,1088,1,-8,26,35.00,11, 35.702202, 51.350658,5.00,0.08,254

201,484192,-2,14,327,1.00,3,3,0,0,19,88650,1113,2.60,-0.46,10.00,-7.11,-16.08,12.73,121,1088,1,-8,26,35.00,11, 35.702202, 51.350658,5.00,0.08,254

201,484480,-3,14,327,1.00,3,3,0,0,18,88647,1113,2.58,-0.51,9.95,-6.99,-16.32,12.79,119,1087,1,-8,26,35.00,11, 35.702202, 51.350658,5.00,0.08,254

201,484766,-3,14,327,1.00,3,3,0,0,18,88647,1113,2.61,-0.53,9.98,-5.59,-14.55,12.73,120,1087,1,-7,26,35.00,11, 35.702202, 51.350658,5.00,0.08,254

201,485054,-2,14,326,1.00,3,3,0,0,19,88648,1113,2.62,-0.54,9.98,-6.93,-15.47,12.73,120,1087,1,-8,26,35.00,11, 35.702202, 51.350658,5.00,0.08,254

201,485340,-2,14,327,1.00,3,3,0,0,18,88647,1113,2.62,-0.50,10.05,-5.47,-15.84,13.71,122,1087,1,-8,26,35.00,11, 35.702202, 51.350658,5.00,0.08,254

201,485628,-2,14,327,1.00,3,3,0,0,19,88649,1113,2.63,-0.51,10.00,-7.24,-16.99,13.77,116,1088,1,-8,26,35.00,11, 35.702202, 51.350658,5.00,0.08,254

201,485915,-3,14,327,1.00,3,3,0,0,19,88649,1113,2.68,-0.55,9.96,-6.63,-15.96,12.92,120,1087,1,-8,26,35.00,11, 35.702202, 51.350658,5.00,0.08,254

201,486202,-3,14,327,1.00,3,3,0,0,18,88649,1113,2.60,-0.51,10.08,-6.20,-15.47,12.92,120,1087,1,-8,26,35.00,11, 35.702202, 51.350658,5.00,0.08,254

201,486586,-2,15,327,1.00,3,3,0,0,18,88650,1113,2.60,-0.49,9.98,-7.18,-16.63,12.92,121,1087,1,-8,26,35.00,11, 35.702202, 51.350658,5.00,0.08,254

201,486872,-2,14,327,1.00,3,3,0,0,19,88650,1113,2.62,-0.47,9.97,-6.14,-16.99,13.16,120,1087,1,-8,26,35.00,11, 35.702202, 51.350658,5.00,0.08,254

201,487158,-2,14,327,1.00,3,3,0,0,18,88650,1113,2.59,-0.49,10.05,-5.71,-16.57,14.01,120,1087,1,-8,26,35.00,11, 35.702202, 51.350658,5.00,0.08,254

201,487446,-3,14,327,1.00,3,3,0,0,18,88647,1113,2.64,-0.52,10.09,-5.77,-16.20,13.65,115,1087,1,-8,26,35.00,11, 35.702202, 51.350658,5.00,0.08,254

201,487639,-3,14,327,1.00,3,3,0,0,18,88648,1113,2.60,-0.55,9.96,-6.81,-16.99,14.08,119,1087,1,-8,26,35.00,11, 35.702187, 51.350658,5.00,0.10,254

201,487829,-3,14,327,1.00,3,3,0,0,19,88650,1113,2.57,-0.47,9.99,-7.36,-17.18,13.95,121,1087,1,-8,26,35.00,11, 35.702187, 51.350658,5.00,0.10,254

201,488020,-2,14,327,1.00,3,3,0,0,18,88652,1113,2.63,-0.55,10.03,-6.38,-15.59,14.38,117,1087,1,-8,26,35.00,11, 35.702187, 51.350658,5.00,0.10,254

201,488212,-2,14,327,1.00,3,3,0,0,19,88649,1113,2.61,-0.52,10.02,-6.75,-15.23,13.28,117,1087,1,-8,26,35.00,11, 35.702187, 51.350658,5.00,0.10,254

201,488402,-3,14,327,1.00,3,3,0,0,19,88646,1113,2.59,-0.52,10.03,-4.25,-16.93,12.43,120,1087,1,-8,26,35.00,11, 35.702187, 51.350658,5.00,0.10,254

201,488596,-3,14,327,1.00,3,3,0,0,19,88650,1113,2.63,-0.50,10.02,-5.96,-15.59,12.79,117,1087,1,-8,26,35.00,11, 35.702187, 51.350658,5.00,0.10,254

201,488786,-3,14,327,1.00,3,3,0,0,19,88650,1113,2.61,-0.50,10.03,-5.96,-16.08,13.65,121,1087,1,-8,26,35.00,11, 35.702187, 51.350658,5.00,0.10,254

201,488978,-3,14,327,1.00,3,3,0,0,18,88648,1113,2.62,-0.47,9.98,-7.42,-16.81,15.36,119,1087,1,-8,26,35.00,11, 35.702187, 51.350658,5.00,0.10,254

201,489265,-2,14,327,1.00,3,3,0,0,19,88648,1113,2.59,-0.53,9.94,-6.14,-15.53,11.76,120,1087,1,-8,26,35.00,11, 35.702187, 51.350658,5.00,0.10,254

201,489552,-2,14,327,1.00,3,3,0,0,19,88645,1113,2.67,-0.41,10.05,-6.81,-16.99,12.98,121,1087,1,-8,26,35.00,11, 35.702187, 51.350658,5.00,0.10,254

201,489839,-2,14,327,1.00,3,3,0,0,18,88648,1113,2.65,-0.51,10.01,-7.48,-16.38,13.59,121,1087,1,-8,26,35.00,11, 35.702187, 51.350658,5.00,0.10,254

201,490031,-3,14,327,1.00,3,3,0,0,19,88647,1113,2.70,-0.45,9.98,-6.02,-16.87,12.55,120,1087,1,-8,26,35.00,11, 35.702187, 51.350658,5.00,0.10,254

201,490222,-3,14,327,1.00,3,3,0,0,19,88646,1113,2.65,-0.53,9.97,-7.24,-16.81,13.89,120,1087,1,-8,26,35.00,11, 35.702187, 51.350658,5.00,0.10,254

201,490510,-2,14,327,1.00,3,3,0,0,19,88649,1113,2.63,-0.49,9.94,-6.26,-15.53,13.59,121,1087,1,-8,26,35.00,11, 35.702187, 51.350658,5.00,0.10,254

201,490797,-2,14,327,1.00,3,3,0,0,18,88647,1113,2.64,-0.51,9.96,-6.44,-16.44,12.37,122,1087,1,-8,26,35.00,11, 35.702187, 51.350658,5.00,0.10,254

201,491083,-2,14,327,1.00,3,3,0,0,19,88647,1113,2.62,-0.51,9.95,-6.57,-16.87,13.71,122,1087,1,-8,26,35.00,11, 35.702187, 51.350658,5.00,0.10,254

201,491370,-3,14,327,1.00,3,3,0,0,19,88646,1113,2.64,-0.52,9.98,-6.50,-15.16,14.62,122,1088,1,-8,26,35.00,11, 35.702187, 51.350658,5.00,0.10,254

201,491659,-3,14,327,1.00,3,3,0,0,18,88648,1113,2.65,-0.49,10.01,-5.65,-15.59,12.86,121,1087,1,-8,26,35.00,11, 35.702187, 51.350658,5.00,0.10,254

201,491945,-2,14,327,1.00,3,3,0,0,19,88650,1113,2.68,-0.48,9.98,-5.77,-15.10,12.37,120,1087,1,-8,26,35.00,11, 35.702187, 51.350658,5.00,0.10,254

201,492136,-2,14,327,1.00,3,3,0,0,18,88647,1113,2.62,-0.51,9.96,-6.44,-16.32,13.89,120,1087,1,-8,26,35.00,11, 35.702187, 51.350658,5.00,0.10,254

201,492327,-2,14,327,1.00,3,3,0,0,19,88647,1113,2.62,-0.50,10.03,-6.44,-16.32,14.14,120,1087,1,-7,26,35.00,11, 35.702187, 51.350658,5.00,0.10,254

201,492520,-2,14,327,1.00,3,3,0,0,19,88647,1113,2.63,-0.51,9.98,-5.53,-15.77,12.86,122,1087,1,-8,26,35.00,11, 35.702187, 51.350658,5.00,0.10,254

201,492711,-2,14,327,1.00,3,3,0,0,19,88649,1113,2.62,-0.55,10.04,-5.16,-16.81,12.43,118,1087,1,-8,26,35.00,11, 35.702187, 51.350658,5.00,0.10,254

201,492902,-2,14,327,1.00,3,3,0,0,19,88645,1113,2.68,-0.56,9.99,-6.87,-15.35,12.49,120,1088,1,-8,26,35.00,11, 35.702187, 51.350658,5.00,0.10,254

201,493190,-2,14,327,1.00,3,3,0,0,19,88652,1113,2.66,-0.52,10.00,-7.18,-16.44,13.65,123,1087,1,-8,26,35.00,11, 35.702187, 51.350658,5.00,0.10,254

201,493476,-3,14,327,1.00,3,3,0,0,18,88646,1113,2.61,-0.56,10.03,-6.08,-16.14,13.10,119,1087,1,-8,26,35.00,11, 35.702187, 51.350658,5.00,0.10,254

201,493764,-2,14,327,1.00,3,3,0,0,19,88648,1113,2.65,-0.54,10.04,-7.36,-14.13,13.22,119,1087,1,-8,26,35.00,11, 35.702187, 51.350639,5.00,0.13,254

201,494051,-3,14,327,1.00,3,3,0,0,18,88649,1113,2.64,-0.57,9.96,-6.20,-16.20,13.28,120,1087,1,-8,26,35.00,11, 35.702187, 51.350639,5.00,0.13,254

201,494338,-2,14,327,1.00,3,3,0,0,18,88647,1113,2.60,-0.46,9.96,-7.24,-15.23,12.86,122,1088,1,-8,26,35.00,11, 35.702187, 51.350639,5.00,0.13,254

201,494625,-3,14,327,1.00,3,3,0,0,19,88648,1113,2.68,-0.51,9.97,-6.26,-16.81,13.65,120,1087,1,-7,26,35.00,11, 35.702187, 51.350639,5.00,0.13,254

201,494912,-2,14,327,1.00,3,3,0,0,18,88646,1113,2.62,-0.48,10.02,-5.90,-15.47,13.95,122,1087,1,-8,26,35.00,11, 35.702187, 51.350639,5.00,0.13,254

201,495200,-2,14,327,1.00,3,3,0,0,18,88645,1113,2.67,-0.56,10.05,-7.66,-16.44,12.98,122,1087,1,-8,26,35.00,11, 35.702187, 51.350639,5.00,0.13,254

201,495488,-2,14,327,1.00,3,3,0,0,19,88647,1113,2.66,-0.52,9.92,-6.63,-15.84,13.04,122,1087,1,-8,26,35.00,11, 35.702187, 51.350639,5.00,0.13,254

201,495773,-2,14,327,1.00,3,3,0,0,18,88647,1113,2.66,-0.47,10.00,-6.57,-17.48,14.99,122,1087,1,-8,26,35.00,11, 35.702187, 51.350639,5.00,0.05,254

201,496061,-3,14,327,1.00,3,3,0,0,19,88647,1113,2.61,-0.53,10.05,-6.69,-15.59,13.83,119,1087,1,-8,26,35.00,11, 35.702187, 51.350639,5.00,0.05,254

201,496348,-2,14,327,1.00,3,3,0,0,19,88646,1113,2.65,-0.53,10.02,-6.63,-16.69,12.92,120,1087,1,-8,26,35.00,11, 35.702187, 51.350639,5.00,0.05,254

201,496636,-3,14,327,1.00,3,3,0,0,18,88649,1113,2.64,-0.53,10.00,-6.81,-16.20,12.55,121,1087,1,-8,26,35.00,11, 35.702187, 51.350639,5.00,0.05,254

201,496827,-2,14,327,1.00,3,3,0,0,19,88648,1113,2.63,-0.54,9.88,-5.71,-16.63,14.08,117,1087,1,-8,26,35.00,11, 35.702187, 51.350639,5.00,0.05,254

201,497018,-3,14,327,1.00,3,3,0,0,19,88648,1113,2.62,-0.50,10.03,-6.08,-16.14,14.01,120,1087,1,-8,26,35.00,11, 35.702187, 51.350639,5.00,0.05,254

201,497305,-2,15,327,1.00,3,3,0,0,19,88643,1113,2.62,-0.50,9.98,-6.02,-16.08,13.95,120,1087,1,-8,26,35.00,11, 35.702187, 51.350639,5.00,0.05,254

201,497593,-2,14,327,1.00,3,3,0,0,18,88645,1113,2.60,-0.52,10.03,-6.32,-15.41,13.04,123,1088,1,-8,26,35.00,11, 35.702187, 51.350639,5.00,0.05,254

201,497880,-2,14,327,1.00,3,3,0,0,19,88645,1113,2.64,-0.54,10.00,-6.57,-15.65,13.04,122,1087,1,-8,26,35.00,11, 35.702187, 51.350639,5.00,0.05,254

201,498167,-3,14,327,1.00,3,3,0,0,19,88646,1113,2.68,-0.49,10.00,-6.87,-16.99,13.65,119,1087,1,-8,26,35.00,11, 35.702187, 51.350639,5.00,0.05,254

201,498454,-3,14,327,1.00,3,3,0,0,18,88643,1113,2.61,-0.56,9.94,-5.59,-16.02,13.47,121,1087,1,-7,26,35.00,11, 35.702187, 51.350639,5.00,0.05,254

201,498837,-2,14,327,1.00,3,3,0,0,19,88642,1113,2.65,-0.47,9.95,-6.26,-17.54,13.65,122,1087,1,-8,26,35.00,11, 35.702179, 51.350632,5.00,0.04,254

201,499220,-2,14,327,1.00,3,3,0,0,19,88645,1113,2.59,-0.53,10.01,-6.63,-16.69,12.37,121,1087,1,-8,26,35.00,11, 35.702179, 51.350632,5.00,0.04,254

201,499410,-2,14,327,1.00,3,3,0,0,18,88644,1113,2.66,-0.52,9.96,-7.18,-15.16,13.59,122,1087,1,-8,26,35.00,11, 35.702179, 51.350632,5.00,0.04,254

201,499603,-3,14,327,1.00,3,3,0,0,19,88645,1113,2.62,-0.54,9.90,-4.86,-16.51,12.37,117,1087,1,-8,26,35.00,11, 35.702179, 51.350632,5.00,0.04,254

201,499890,-2,14,327,1.00,3,3,0,0,18,88646,1113,2.66,-0.55,10.10,-5.65,-15.47,11.58,121,1087,1,-8,26,35.00,11, 35.702179, 51.350632,5.00,0.04,254

201,500081,-2,14,327,1.00,3,3,0,0,19,88643,1113,2.65,-0.52,10.00,-6.38,-16.75,13.28,121,1088,1,-8,26,35.00,11, 35.702179, 51.350632,5.00,0.04,254

201,500273,-3,14,327,1.00,3,3,0,0,18,88647,1113,2.63,-0.52,9.92,-7.11,-16.87,14.08,121,1087,1,-8,26,35.00,11, 35.702179, 51.350632,5.00,0.04,254

201,500464,-2,14,327,1.00,3,3,0,0,19,88648,1113,2.61,-0.49,10.02,-5.71,-16.38,13.77,121,1087,1,-8,26,35.00,11, 35.702179, 51.350632,5.00,0.04,254

201,500656,-2,14,327,1.00,3,3,0,0,19,88649,1113,2.63,-0.51,9.98,-5.83,-16.02,14.20,121,1087,1,-8,26,35.00,11, 35.702171, 51.350647,5.00,0.16,254

201,500847,-3,14,327,1.00,3,3,0,0,19,88645,1113,2.69,-0.44,9.96,-6.20,-16.26,12.43,124,1087,1,-8,26,35.00,11, 35.702171, 51.350647,5.00,0.16,254

201,501039,-3,14,327,1.00,3,3,0,0,19,88644,1113,2.60,-0.53,10.01,-6.38,-15.77,13.83,118,1087,1,-8,26,35.00,11, 35.702171, 51.350647,5.00,0.16,254

201,501325,-2,14,327,1.00,3,3,0,0,19,88646,1113,2.64,-0.49,10.01,-6.44,-15.96,12.92,122,1088,1,-8,26,35.00,11, 35.702171, 51.350647,5.00,0.16,254

201,501518,-3,14,327,1.00,3,3,0,0,20,88647,1113,2.63,-0.54,9.99,-5.83,-17.54,14.01,122,1087,1,-8,26,35.00,11, 35.702171, 51.350647,5.00,0.16,254

201,501709,-3,14,327,1.00,3,3,0,0,18,88645,1113,2.59,-0.50,9.96,-6.50,-16.38,14.32,118,1087,1,-8,26,35.00,11, 35.702171, 51.350647,5.00,0.16,254

201,501900,-2,14,327,1.00,3,3,0,0,19,88647,1113,2.65,-0.51,9.99,-6.08,-15.84,13.22,121,1087,1,-8,26,35.00,11, 35.702171, 51.350647,5.00,0.16,254

201,502091,-2,14,327,1.00,3,3,0,0,18,88647,1113,2.58,-0.60,10.04,-4.80,-17.24,13.71,122,1087,1,-8,26,35.00,11, 35.702171, 51.350647,5.00,0.16,254

201,502283,-2,14,327,1.00,3,3,0,0,19,88645,1113,2.65,-0.48,10.00,-5.59,-16.32,12.55,121,1087,1,-7,26,35.00,11, 35.702171, 51.350647,5.00,0.16,254

201,502571,-2,14,327,1.00,3,3,0,0,18,88644,1113,2.62,-0.50,10.09,-6.08,-15.77,14.32,121,1087,1,-8,26,35.00,11, 35.702171, 51.350647,5.00,0.16,254

201,502857,-2,14,327,1.00,3,3,0,0,19,88645,1113,2.63,-0.51,10.08,-5.16,-16.87,12.43,124,1087,1,-8,26,35.00,11, 35.702171, 51.350647,5.00,0.16,254

201,503145,-2,14,327,1.00,3,3,0,0,18,88644,1113,2.64,-0.49,9.99,-5.83,-15.71,13.89,119,1088,1,-7,26,35.00,11, 35.702171, 51.350647,5.00,0.16,254

201,503431,-3,14,327,1.00,3,3,0,0,18,88648,1113,2.65,-0.50,10.03,-5.83,-16.51,14.01,122,1087,1,-7,26,35.00,11, 35.702171, 51.350647,5.00,0.16,254

201,503719,-2,14,327,1.00,3,3,0,0,19,88645,1113,2.64,-0.48,10.01,-6.44,-15.71,13.40,121,1088,1,-8,26,35.00,11, 35.702171, 51.350647,5.00,0.16,254

201,504006,-2,14,327,1.00,3,3,0,0,18,88644,1113,2.63,-0.51,9.95,-5.35,-16.32,13.83,121,1087,1,-8,26,35.00,11, 35.702164, 51.350643,5.00,0.10,254

201,504198,-3,14,327,1.00,3,3,0,0,19,88646,1113,2.67,-0.56,9.95,-5.65,-15.53,12.92,120,1088,1,-7,26,35.00,11, 35.702164, 51.350643,5.00,0.10,254

201,504388,-3,14,327,1.00,3,3,0,0,18,88646,1113,2.63,-0.54,10.05,-7.18,-15.35,14.08,122,1087,1,-7,26,35.00,11, 35.702164, 51.350643,5.00,0.10,254

201,504581,-2,14,327,1.00,3,3,0,0,19,88645,1113,2.63,-0.49,9.90,-6.93,-16.51,12.67,122,1087,1,-8,26,35.00,11, 35.702164, 51.350643,5.00,0.10,254

201,504771,-3,14,327,1.00,3,3,0,0,19,88646,1113,2.61,-0.48,9.95,-7.42,-16.93,12.67,122,1087,1,-8,26,35.00,11, 35.702164, 51.350643,5.00,0.10,254

201,504963,-2,14,327,1.00,3,3,0,0,19,88646,1113,2.67,-0.55,10.01,-6.14,-15.77,11.82,122,1087,1,-8,26,35.00,11, 35.702164, 51.350643,5.00,0.10,254

201,505250,-2,14,327,1.00,3,3,0,0,18,88647,1113,2.66,-0.51,10.04,-4.98,-15.71,12.25,122,1087,1,-8,26,35.00,11, 35.702164, 51.350643,5.00,0.10,254

201,505538,-2,14,327,1.00,3,3,0,0,19,88642,1113,2.62,-0.48,10.01,-5.71,-15.47,12.37,120,1088,1,-7,26,35.00,11, 35.702164, 51.350643,5.00,0.10,254

201,505825,-2,14,327,1.00,3,3,0,0,18,88646,1113,2.64,-0.51,9.92,-6.14,-16.69,13.10,122,1087,1,-8,26,35.00,11, 35.702164, 51.350643,5.00,0.10,254

201,506112,-2,14,327,1.00,3,3,0,0,18,88646,1113,2.68,-0.52,10.04,-5.77,-15.16,12.67,121,1087,1,-8,26,35.00,11, 35.702164, 51.350643,5.00,0.10,254

201,506303,-2,14,327,1.00,3,3,0,0,18,88644,1113,2.60,-0.54,9.93,-6.99,-16.44,12.86,121,1087,1,-8,26,35.00,11, 35.702164, 51.350643,5.00,0.10,254

201,506591,-2,14,327,1.00,3,3,0,0,19,88646,1113,2.63,-0.55,10.04,-6.87,-16.44,13.22,120,1087,1,-8,26,35.00,11, 35.702164, 51.350643,5.00,0.10,254

201,506877,-3,14,327,1.00,3,3,0,0,19,88644,1113,2.62,-0.53,10.07,-5.65,-16.69,13.71,120,1087,1,-8,26,35.00,11, 35.702164, 51.350643,5.00,0.10,254

201,507165,-2,14,327,1.00,3,3,0,0,18,88645,1113,2.67,-0.49,10.04,-5.47,-15.47,14.81,118,1087,1,-8,26,35.00,11, 35.702164, 51.350643,5.00,0.10,254

201,507452,-2,14,327,1.00,3,3,0,0,18,88643,1113,2.62,-0.50,10.02,-7.11,-16.57,14.08,120,1087,1,-8,26,35.00,11, 35.702164, 51.350643,5.00,0.10,254

201,507740,-2,14,327,1.00,3,3,0,0,19,88644,1113,2.67,-0.55,10.04,-5.90,-16.32,14.20,122,1088,1,-8,26,35.00,11, 35.702152, 51.350636,5.00,0.13,254

201,508122,-2,14,327,1.00,3,3,0,0,18,88644,1113,2.60,-0.50,9.99,-5.77,-16.14,12.98,121,1088,1,-8,26,35.00,11, 35.702152, 51.350636,5.00,0.13,254

201,508409,-3,14,327,1.00,3,3,0,0,18,88647,1113,2.65,-0.50,9.94,-6.02,-15.16,12.67,119,1087,1,-8,26,35.00,11, 35.702152, 51.350636,5.00,0.13,254

201,508601,-2,14,327,1.00,3,3,0,0,19,88646,1113,2.63,-0.50,10.05,-5.71,-16.81,14.20,112,1088,1,-8,26,35.00,11, 35.702152, 51.350636,5.00,0.13,254

201,508792,-3,14,327,1.00,3,3,0,0,19,88644,1113,2.62,-0.49,10.06,-6.02,-16.02,13.34,114,1088,1,-8,26,35.00,11, 35.702152, 51.350636,5.00,0.13,254

201,508984,-2,14,327,1.00,3,3,0,0,18,88644,1113,2.65,-0.54,10.00,-5.83,-15.77,14.50,114,1088,1,-8,26,35.00,11, 35.702152, 51.350636,5.00,0.13,254

201,509271,-2,14,327,1.00,3,3,0,0,19,88646,1113,2.68,-0.50,10.00,-6.63,-15.53,13.95,115,1088,1,-8,26,35.00,11, 35.702152, 51.350636,5.00,0.13,254

201,509558,-2,14,327,1.00,3,3,0,0,19,88644,1113,2.63,-0.57,10.01,-6.32,-16.44,13.34,114,1088,1,-8,26,35.00,11, 35.702152, 51.350636,5.00,0.13,254

201,509845,-2,14,327,1.00,3,3,0,0,18,88648,1113,2.67,-0.61,9.99,-6.44,-16.08,13.34,118,1088,1,-8,26,35.00,11, 35.702152, 51.350636,5.00,0.13,254

201,510132,-2,14,327,1.00,3,3,0,0,19,88645,1113,2.65,-0.53,9.99,-5.04,-16.99,12.79,116,1088,1,-8,26,35.00,11, 35.702152, 51.350636,5.00,0.13,254

201,510419,-3,14,327,1.00,3,3,0,0,19,88645,1113,2.59,-0.51,9.98,-6.14,-16.02,13.95,116,1088,1,-8,26,35.00,11, 35.702152, 51.350636,5.00,0.13,254

201,510802,-3,14,327,1.00,3,3,0,0,18,88645,1113,2.68,-0.51,9.91,-6.50,-15.77,13.95,117,1087,1,-8,26,35.00,11, 35.702137, 51.350639,5.00,0.12,254

201,511089,-2,14,327,1.00,3,3,0,0,18,88649,1113,2.67,-0.46,10.02,-6.87,-17.12,13.65,115,1088,1,-8,26,35.00,11, 35.702137, 51.350639,5.00,0.12,254

201,511377,-2,14,327,1.00,3,3,0,0,19,88645,1113,2.64,-0.51,9.99,-5.10,-16.32,14.26,116,1088,1,-8,26,35.00,11, 35.702137, 51.350639,5.00,0.12,254

201,511665,-2,14,327,1.00,3,3,0,0,18,88645,1113,2.64,-0.50,9.97,-7.42,-15.71,13.83,117,1088,1,-8,26,35.00,11, 35.702137, 51.350639,5.00,0.12,254

201,512047,-2,14,327,1.00,3,3,0,0,18,88644,1113,2.65,-0.57,10.01,-6.14,-15.77,13.59,117,1088,1,-8,26,35.00,11, 35.702137, 51.350639,5.00,0.12,254

201,512238,-2,14,327,1.00,3,3,0,0,19,88648,1113,2.62,-0.54,9.94,-6.26,-14.92,12.55,115,1088,1,-8,26,35.00,11, 35.702137, 51.350639,5.00,0.12,254

201,512429,-2,14,327,1.00,3,3,0,0,19,88643,1113,2.62,-0.51,9.98,-7.18,-16.26,13.89,116,1088,1,-8,26,35.00,11, 35.702137, 51.350639,5.00,0.12,254

201,512621,-2,14,327,1.00,3,3,0,0,18,88646,1113,2.67,-0.48,10.00,-6.93,-15.53,12.37,117,1088,1,-8,26,35.00,11, 35.702126, 51.350651,5.00,0.12,254

201,512813,-3,14,327,1.00,3,3,0,0,19,88644,1113,2.63,-0.44,9.99,-6.87,-15.90,12.92,117,1088,1,-8,26,35.00,11, 35.702126, 51.350651,5.00,0.12,254

201,513004,-2,14,327,1.00,3,3,0,0,18,88647,1113,2.66,-0.50,10.05,-6.75,-16.99,12.43,116,1088,1,-8,26,35.00,11, 35.702126, 51.350651,5.00,0.12,254

201,513196,-3,14,327,1.00,3,3,0,0,19,88644,1113,2.65,-0.49,9.97,-6.38,-17.12,13.71,116,1088,1,-8,26,35.00,11, 35.702126, 51.350651,5.00,0.12,254

201,513386,-3,14,327,1.00,3,3,0,0,19,88644,1113,2.62,-0.52,10.02,-5.41,-16.08,13.65,112,1088,1,-8,26,35.00,11, 35.702126, 51.350651,5.00,0.12,254

201,513579,-2,14,327,1.00,3,3,0,0,19,88644,1113,2.65,-0.48,10.02,-6.81,-15.65,13.65,115,1088,1,-8,26,35.00,11, 35.702126, 51.350651,5.00,0.12,254

201,513770,-2,14,327,1.00,3,3,0,0,19,88649,1113,2.57,-0.51,10.12,-5.35,-16.26,12.61,115,1088,1,-8,26,35.00,11, 35.702126, 51.350651,5.00,0.12,254

201,513961,-2,14,327,1.00,3,3,0,0,19,88646,1113,2.67,-0.48,9.97,-7.11,-16.99,13.22,117,1088,1,-8,26,35.00,11, 35.702126, 51.350651,5.00,0.12,254

201,514152,-2,14,327,1.00,3,3,0,0,19,88649,1113,2.65,-0.52,10.05,-7.72,-15.90,13.83,112,1088,1,-8,26,35.00,11, 35.702126, 51.350651,5.00,0.12,254

201,514343,-2,15,327,1.00,3,3,0,0,18,88645,1113,2.56,-0.50,9.94,-6.50,-15.41,13.53,116,1088,1,-8,26,35.00,11, 35.702126, 51.350651,5.00,0.12,254

201,514631,-2,15,327,1.00,3,3,0,0,19,88644,1113,2.63,-0.49,9.99,-5.10,-16.26,13.89,116,1088,1,-8,26,35.00,11, 35.702126, 51.350651,5.00,0.12,254

201,514918,-3,14,327,1.00,3,3,0,0,19,88644,1113,2.61,-0.49,9.98,-7.66,-16.08,13.04,115,1088,1,-8,26,35.00,11, 35.702126, 51.350651,5.00,0.12,254

201,515205,-3,14,327,1.00,3,3,0,0,18,88644,1113,2.64,-0.50,10.00,-6.75,-15.16,15.17,116,1088,1,-8,26,35.00,11, 35.702126, 51.350651,5.00,0.12,254

201,515493,-2,14,327,1.00,3,3,0,0,19,88647,1113,2.66,-0.44,9.92,-6.57,-15.10,12.92,113,1088,1,-8,26,35.00,11, 35.702126, 51.350651,5.00,0.12,254

201,515684,-3,14,327,1.00,3,3,0,0,18,88645,1113,2.64,-0.52,9.99,-6.93,-16.26,13.47,118,1088,1,-8,26,35.00,11, 35.702106, 51.350677,5.00,0.15,254

201,515972,-2,14,327,1.00,3,3,0,0,19,88648,1113,2.67,-0.50,9.97,-5.83,-15.65,13.34,116,1088,1,-8,26,35.00,11, 35.702106, 51.350677,5.00,0.15,254

201,516258,-2,14,327,1.00,3,3,0,0,19,88645,1113,2.63,-0.53,10.09,-7.05,-15.90,14.32,115,1088,1,-8,26,35.00,11, 35.702106, 51.350677,5.00,0.15,254

201,516450,-2,14,327,1.00,3,3,0,0,19,88644,1113,2.64,-0.50,9.94,-6.50,-17.79,12.49,117,1088,1,-8,26,35.00,11, 35.702106, 51.350677,5.00,0.15,254

201,516641,-2,14,327,1.00,3,3,0,0,18,88645,1113,2.64,-0.60,10.01,-6.38,-15.23,12.25,114,1088,1,-8,26,35.00,11, 35.702103, 51.350681,5.00,0.05,254

201,516833,-3,14,327,1.00,3,3,0,0,19,88644,1113,2.58,-0.50,9.99,-6.50,-17.12,13.22,118,1088,1,-8,26,35.00,11, 35.702103, 51.350681,5.00,0.05,254

201,517024,-3,14,327,1.00,3,3,0,0,18,88649,1113,2.60,-0.52,9.99,-5.53,-14.86,13.47,116,1088,1,-8,26,35.00,11, 35.702103, 51.350681,5.00,0.05,254

201,517311,-3,15,327,1.00,3,3,0,0,19,88646,1113,2.63,-0.46,10.03,-5.77,-17.24,13.22,116,1088,1,-8,26,35.00,11, 35.702103, 51.350681,5.00,0.05,254

201,517600,-2,14,327,1.00,3,3,0,0,18,88647,1113,2.67,-0.45,9.92,-6.69,-15.71,12.55,114,1088,1,-8,26,35.00,11, 35.702103, 51.350681,5.00,0.05,254

201,517790,-2,14,327,1.00,3,3,0,0,19,88646,1113,2.63,-0.49,10.04,-5.90,-16.32,13.47,112,1088,1,-8,26,35.00,11, 35.702103, 51.350681,5.00,0.05,254

201,517982,-3,14,327,1.00,3,3,0,0,18,88647,1113,2.64,-0.51,10.01,-5.59,-16.51,13.47,115,1088,1,-8,26,35.00,11, 35.702103, 51.350681,5.00,0.05,254

201,518173,-3,14,327,1.00,3,3,0,0,19,88648,1113,2.59,-0.57,9.99,-6.32,-16.20,13.53,117,1088,1,-8,26,35.00,11, 35.702103, 51.350681,5.00,0.05,254

201,518364,-3,14,327,1.00,3,3,0,0,18,88647,1113,2.60,-0.51,10.03,-7.72,-17.12,13.34,114,1088,1,-8,26,35.00,11, 35.702103, 51.350681,5.00,0.05,254

201,518652,-2,14,327,1.00,3,3,0,0,19,88647,1113,2.66,-0.48,9.99,-6.32,-15.96,13.65,116,1088,1,-8,26,35.00,11, 35.702103, 51.350681,5.00,0.05,254

201,518938,-3,14,327,1.00,3,3,0,0,18,88647,1113,2.64,-0.47,10.07,-4.61,-15.96,12.31,114,1088,1,-8,26,35.00,11, 35.702103, 51.350681,5.00,0.05,254

201,519226,-3,15,327,1.00,3,3,0,0,18,88647,1113,2.61,-0.51,10.03,-7.30,-15.71,14.75,117,1088,1,-8,26,35.00,11, 35.702103, 51.350681,5.00,0.05,254

201,519514,-2,15,327,1.00,3,3,0,0,19,88644,1113,2.62,-0.53,10.02,-7.66,-14.68,12.73,114,1088,1,-8,26,35.00,11, 35.702103, 51.350681,5.00,0.05,254

201,519800,-2,14,327,1.00,3,3,0,0,18,88647,1113,2.64,-0.55,10.02,-6.20,-15.90,13.53,118,1088,1,-8,26,35.00,11, 35.702103, 51.350681,5.00,0.05,254

201,520183,-2,14,327,1.00,3,3,0,0,18,88643,1113,2.60,-0.52,10.00,-5.29,-16.75,12.73,122,1088,1,-8,26,35.00,11, 35.702103, 51.350681,5.00,0.05,254

201,520471,-2,14,327,1.00,3,3,0,0,19,88647,1113,2.64,-0.55,10.06,-6.38,-16.69,11.76,121,1088,1,-8,26,35.00,11, 35.702103, 51.350681,5.00,0.05,254

201,520662,-2,14,327,1.00,3,3,0,0,18,88646,1113,2.62,-0.56,10.00,-7.30,-15.23,13.59,119,1088,1,-8,26,35.00,11, 35.702103, 51.350681,5.00,0.05,254

201,520853,-3,14,327,1.00,3,3,0,0,19,88644,1113,2.66,-0.48,10.01,-5.29,-15.71,13.59,120,1088,1,-8,26,35.00,11, 35.702103, 51.350681,5.00,0.05,254

201,521044,-3,14,327,1.00,3,3,0,0,19,88645,1113,2.64,-0.48,10.00,-6.69,-15.84,15.60,120,1088,1,-8,26,35.00,11, 35.702103, 51.350681,5.00,0.05,254

201,521331,-2,14,327,1.00,3,3,0,0,19,88648,1113,2.67,-0.51,10.01,-6.81,-16.81,13.40,124,1088,1,-8,26,35.00,11, 35.702103, 51.350681,5.00,0.05,254

201,521620,-3,14,327,1.00,3,3,0,0,18,88645,1113,2.60,-0.52,9.99,-7.30,-16.08,14.44,123,1088,1,-8,26,35.00,11, 35.702103, 51.350681,5.00,0.05,254

201,521906,-2,14,327,1.00,3,3,0,0,18,88644,1113,2.66,-0.54,10.08,-7.54,-16.87,12.25,120,1088,1,-8,26,35.00,11, 35.702103, 51.350681,5.00,0.05,254

201,522193,-2,14,327,1.00,3,3,0,0,19,88646,1113,2.57,-0.47,10.01,-6.69,-15.65,12.92,119,1088,1,-8,26,35.00,11, 35.702103, 51.350681,5.00,0.05,254

