checksumStart,logTime,missionTime,roll,pitch,heading,airSpeed,elevator,aileron,alfa,betha,standAngle,pressure,pressureAlt,ax,ay,az,gx,gy,gz,lc1,lc2,lc3,lc4,temprature,voltage,GPSSats,GPSLat,GPSLong,GPSAlt,GPSSpeed,checksumEnd
201,131706,1067716,-1,28,329,1.14,9,0,-64,-18,28,87946,1178,4.91,-0.30,9.10,-0.07,0.05,0.03,1648,1114,300,-23,22,583,13, 35.702095, 51.350651,10.00,0.05,254

201,131994,1068003,-1,28,329,1.14,9,0,-65,-18,28,87950,1178,4.94,-0.35,9.09,-0.01,-0.07,-0.10,1644,1116,300,-23,22,585,13, 35.702095, 51.350651,10.00,0.05,254

201,132280,1068292,-2,28,329,1.14,9,0,-65,-18,28,87945,1178,4.92,-0.25,9.00,0.11,-0.01,-0.04,1647,1115,300,-24,22,581,13, 35.702095, 51.350651,10.00,0.05,254

201,132567,1068577,-1,28,329,1.07,9,0,-65,-19,28,87947,1178,4.91,-0.28,9.00,-0.01,-0.07,0.09,1649,1116,300,-23,22,584,13, 35.702095, 51.350651,10.00,0.05,254

201,132855,1068865,-1,28,329,1.22,9,0,-65,-18,28,87947,1178,4.96,-0.28,8.96,-0.07,0.05,-0.10,1646,1115,300,-24,22,583,13, 35.702095, 51.350651,10.00,0.05,254

201,133142,1069153,-1,28,329,1.14,9,0,-64,-18,28,87947,1178,4.91,-0.26,9.04,-0.01,-0.07,0.09,1647,1116,300,-23,22,584,13, 35.702095, 51.350651,10.00,0.05,254

201,133430,1069440,-1,28,329,1.14,9,0,-64,-18,28,87946,1178,4.92,-0.30,9.05,-0.13,-0.01,-0.16,1645,1115,300,-23,22,581,13, 35.702099, 51.350651,10.00,0.04,254

201,133716,1069726,-1,28,329,1.22,9,0,-65,-19,28,87947,1178,4.97,-0.24,8.99,0.05,-0.19,-0.04,1650,1116,300,-24,22,583,13, 35.702099, 51.350651,10.00,0.04,254

201,134003,1070013,-2,28,329,1.07,9,0,-64,-18,28,87947,1178,4.94,-0.28,8.94,-0.13,-0.01,0.03,1645,1115,300,-23,22,584,13, 35.702099, 51.350651,10.00,0.04,254

201,134387,1070301,-1,29,329,1.07,9,0,-64,-18,29,87947,1178,4.92,-0.30,9.00,-0.07,-0.01,-0.10,1647,1116,300,-23,22,585,13, 35.702099, 51.350651,10.00,0.04,254

201,134674,1070684,-2,28,329,1.14,9,0,-64,-18,28,87950,1178,4.95,-0.30,9.04,-0.01,-0.07,-0.04,1648,1115,300,-23,22,583,13, 35.702099, 51.350651,10.00,0.04,254

201,134961,1070970,-2,28,329,1.14,9,0,-64,-18,28,87948,1178,4.96,-0.24,9.10,-0.01,-0.01,-0.10,1649,1115,300,-23,22,584,13, 35.702099, 51.350651,10.00,0.04,254

201,135248,1071258,-1,28,329,1.14,9,0,-64,-18,28,87947,1178,4.95,-0.33,9.00,-0.31,0.05,-0.10,1649,1116,300,-23,22,583,13, 35.702099, 51.350651,10.00,0.04,254

201,135440,1071545,-1,28,329,1.07,9,0,-64,-18,28,87948,1178,4.96,-0.30,8.95,-0.13,-0.19,0.09,1646,1115,300,-24,22,582,13, 35.702099, 51.350651,10.00,0.04,254

201,135727,1071736,-1,28,329,1.14,10,0,-65,-18,28,87948,1178,4.94,-0.31,9.03,-0.19,-0.07,-0.04,1651,1115,300,-23,22,584,13, 35.702099, 51.350651,10.00,0.04,254

201,136014,1072024,-1,28,329,1.07,9,0,-64,-18,28,87948,1178,4.93,-0.24,9.07,-0.19,-0.19,-0.10,1640,1114,300,-23,22,585,13, 35.702099, 51.350651,10.00,0.04,254

201,136302,1072312,-1,28,329,1.14,9,0,-64,-18,28,87947,1178,4.98,-0.34,9.08,-0.01,-0.13,-0.10,1644,1115,300,-23,22,585,13, 35.702099, 51.350651,10.00,0.04,254

201,136589,1072598,-2,28,329,1.14,9,0,-64,-18,28,87950,1178,4.97,-0.28,9.10,-0.07,-0.19,-0.10,1649,1115,300,-23,22,585,13, 35.702099, 51.350651,10.00,0.04,254

201,136973,1072885,-2,28,329,1.14,9,0,-65,-18,28,87948,1178,4.94,-0.26,8.99,-0.19,0.05,0.09,1650,1115,300,-23,22,586,13, 35.702099, 51.350651,10.00,0.04,254

201,137259,1073268,-1,28,329,1.07,9,0,-65,-18,28,87945,1178,4.95,-0.31,9.04,-0.19,-0.07,0.03,1649,1115,300,-24,22,585,13, 35.702099, 51.350651,10.00,0.04,254

201,137450,1073555,-1,28,329,1.14,9,0,-65,-18,28,87944,1178,4.93,-0.27,9.11,-0.19,-0.13,0.03,1648,1115,300,-24,22,585,13, 35.702099, 51.350651,10.00,0.04,254

201,137641,1073746,-1,28,329,1.07,9,0,-65,-18,28,87950,1178,4.97,-0.31,9.06,0.05,-0.07,0.09,1647,1115,300,-23,22,585,13, 35.702099, 51.350651,10.00,0.04,254

201,137833,1073937,-1,28,329,1.07,9,0,-64,-18,28,87950,1178,4.99,-0.28,8.99,-0.01,0.11,-0.04,1643,1115,300,-23,22,586,13, 35.702099, 51.350651,10.00,0.04,254

201,138024,1074129,-1,28,329,1.07,9,0,-64,-18,28,87947,1178,4.90,-0.28,9.15,-0.13,-0.01,0.15,1645,1114,300,-23,22,583,13, 35.702099, 51.350651,10.00,0.04,254

201,138311,1074321,-1,28,329,1.07,9,0,-64,-18,28,87948,1178,4.90,-0.34,9.01,-0.01,-0.19,0.03,1645,1113,300,-23,22,585,13, 35.702106, 51.350655,10.00,0.04,254

201,138503,1074608,-1,28,329,1.07,9,0,-64,-18,28,87946,1178,4.97,-0.29,9.03,-0.19,-0.25,-0.04,1647,1113,300,-23,22,584,13, 35.702106, 51.350655,10.00,0.04,254

201,138694,1074799,-1,28,329,1.14,9,0,-64,-18,28,87949,1178,4.93,-0.25,9.03,-0.01,-0.07,0.21,1647,1112,300,-23,22,585,13, 35.702106, 51.350655,10.00,0.04,254

201,138886,1074991,-2,28,329,1.07,9,0,-65,-18,28,87947,1178,4.92,-0.27,9.08,-0.07,-0.19,0.03,1649,1112,300,-23,22,585,13, 35.702106, 51.350655,10.00,0.04,254

201,139077,1075183,-1,28,329,1.07,9,0,-64,-18,28,87946,1178,4.98,-0.30,9.00,-0.01,-0.13,0.03,1648,1113,300,-23,22,585,13, 35.702106, 51.350655,10.00,0.04,254

201,139269,1075374,-1,28,329,1.22,9,0,-65,-18,28,87946,1178,4.91,-0.25,8.91,-0.07,-0.01,-0.04,1645,1112,300,-23,22,585,13, 35.702106, 51.350655,10.00,0.04,254

201,139556,1075565,-1,28,329,1.14,10,0,-65,-18,28,87947,1178,4.94,-0.34,9.02,-0.01,-0.01,0.03,1646,1112,300,-23,22,586,13, 35.702106, 51.350655,10.00,0.04,254

201,139747,1075853,-1,28,329,1.14,9,0,-65,-18,28,87947,1178,4.97,-0.26,9.08,-0.13,-0.13,0.03,1645,1113,300,-23,22,585,13, 35.702106, 51.350655,10.00,0.04,254

201,139938,1076043,-2,28,329,1.14,9,0,-65,-18,28,87947,1178,4.94,-0.27,9.06,-0.01,-0.13,0.03,1646,1113,300,-23,22,585,13, 35.702106, 51.350655,10.00,0.04,254

201,140130,1076236,-1,28,329,1.14,9,0,-65,-18,28,87948,1178,4.95,-0.33,8.98,-0.13,0.05,-0.04,1645,1113,299,-23,22,584,13, 35.702106, 51.350655,10.00,0.04,254

201,140322,1076426,-1,28,329,1.14,9,0,-65,-18,28,87946,1178,4.95,-0.28,9.07,-0.19,-0.07,0.03,1644,1113,300,-23,22,585,13, 35.702106, 51.350655,10.00,0.04,254

201,140513,1076618,-2,28,329,1.07,9,0,-64,-18,28,87946,1178,4.89,-0.31,9.09,-0.01,-0.13,0.03,1648,1113,300,-23,22,583,13, 35.702106, 51.350655,10.00,0.04,254

201,140801,1076809,-1,28,329,1.14,9,0,-64,-18,28,87947,1178,4.97,-0.29,9.01,-0.13,-0.07,-0.04,1642,1112,300,-24,22,586,13, 35.702106, 51.350655,10.00,0.04,254

201,141087,1077096,-1,28,329,1.07,9,0,-65,-18,28,87946,1178,5.00,-0.27,9.00,-0.01,-0.32,-0.10,1649,1112,300,-23,22,582,13, 35.702106, 51.350655,10.00,0.04,254

201,141374,1077385,-1,28,329,1.07,9,0,-64,-18,28,87948,1178,4.92,-0.31,9.08,-0.07,-0.13,0.09,1641,1113,299,-23,22,584,13, 35.702106, 51.350655,10.00,0.04,254

201,141661,1077670,-1,28,329,1.14,9,0,-65,-18,28,87946,1178,4.92,-0.28,9.07,-0.07,-0.19,0.03,1643,1112,300,-23,22,585,13, 35.702106, 51.350655,10.00,0.04,254

201,141952,1077958,-1,28,329,1.14,9,0,-64,-18,28,87947,1178,5.04,-0.30,8.97,-0.01,-0.13,-0.04,1649,1113,300,-24,22,581,13, 35.702106, 51.350655,10.00,0.04,254

201,142236,1078246,-1,28,329,1.14,9,0,-65,-18,28,87949,1178,4.95,-0.31,9.01,-0.07,-0.19,0.15,1645,1113,300,-23,22,585,13, 35.702106, 51.350655,10.00,0.04,254

201,142427,1078532,-1,28,329,0.92,9,0,-64,-18,28,87945,1178,4.94,-0.34,9.00,0.11,0.05,0.03,1644,1113,300,-23,22,585,13, 35.702106, 51.350655,10.00,0.04,254

201,142619,1078723,-1,28,329,1.07,9,0,-64,-18,28,87947,1178,4.92,-0.24,8.98,0.11,0.05,-0.16,1647,1112,300,-23,22,585,13, 35.702106, 51.350655,10.00,0.04,254

201,142810,1078915,-1,28,329,1.14,9,0,-65,-18,28,87949,1178,4.95,-0.28,9.10,-0.01,0.05,0.09,1644,1113,300,-23,22,585,13, 35.702106, 51.350655,10.00,0.04,254

201,143001,1079105,-1,28,329,1.14,9,0,-65,-18,28,87950,1178,4.88,-0.28,8.99,-0.07,0.05,0.09,1648,1113,300,-23,22,585,13, 35.702106, 51.350655,10.00,0.04,254

201,143195,1079299,-2,29,329,1.07,9,0,-64,-18,29,87947,1178,4.95,-0.30,8.97,-0.19,-0.07,-0.10,1643,1113,300,-23,22,581,13, 35.702106, 51.350655,10.00,0.04,254

201,143480,1079489,-1,28,329,1.14,9,0,-65,-19,28,87945,1178,4.97,-0.28,9.05,-0.13,-0.13,0.03,1649,1113,299,-23,22,585,13, 35.702106, 51.350655,10.00,0.04,254

201,143767,1079777,-1,28,329,0.99,9,0,-65,-18,28,87944,1178,4.95,-0.30,9.05,-0.31,-0.13,0.03,1646,1113,300,-23,22,585,13, 35.702106, 51.350655,10.00,0.04,254

201,144055,1080064,-1,28,329,1.07,10,0,-64,-18,28,87949,1178,4.91,-0.30,9.08,-0.13,-0.13,-0.16,1644,1113,300,-23,22,581,13, 35.702106, 51.350655,10.00,0.04,254

201,144343,1080352,-1,28,329,1.07,9,0,-64,-18,28,87946,1178,4.97,-0.27,9.01,-0.13,-0.25,-0.04,1648,1113,299,-23,22,584,13, 35.702106, 51.350655,10.00,0.04,254

201,144534,1080638,-1,28,329,1.14,9,0,-64,-18,28,87946,1178,4.91,-0.27,9.06,-0.13,-0.19,-0.04,1642,1113,300,-23,22,585,13, 35.702106, 51.350655,10.00,0.04,254

201,144820,1080829,-2,28,329,1.14,9,0,-65,-18,28,87947,1178,4.96,-0.31,8.97,0.05,-0.07,0.09,1641,1113,300,-23,22,583,13, 35.702106, 51.350655,10.00,0.04,254

201,145107,1081116,-1,28,329,1.14,9,0,-64,-18,28,87944,1178,4.97,-0.27,9.04,-0.13,-0.07,0.03,1647,1113,300,-23,22,585,13, 35.702106, 51.350655,10.00,0.04,254

201,145395,1081404,-2,28,329,1.07,10,0,-64,-18,28,87945,1178,4.93,-0.29,9.08,-0.07,-0.13,0.09,1645,1113,300,-23,22,585,13, 35.702148, 51.350651,10.00,0.35,254

201,145682,1081691,-1,28,329,1.07,9,0,-65,-18,28,87948,1178,4.97,-0.34,9.03,0.05,-0.07,0.03,1649,1112,300,-23,22,585,13, 35.702148, 51.350651,10.00,0.35,254

201,145969,1081977,-1,28,329,1.14,9,0,-64,-18,28,87947,1178,4.95,-0.29,9.04,-0.13,-0.07,-0.04,1647,1113,300,-23,22,585,13, 35.702148, 51.350651,10.00,0.35,254

201,146351,1082266,-1,28,329,1.14,9,0,-65,-18,28,87947,1178,4.94,-0.29,9.03,0.11,-0.01,0.03,1646,1112,300,-23,22,585,13, 35.702148, 51.350651,10.00,0.35,254

201,146638,1082648,-1,28,329,1.14,9,0,-65,-18,28,87948,1178,4.98,-0.28,9.00,0.11,-0.25,0.03,1641,1114,300,-23,22,584,13, 35.702148, 51.350651,10.00,0.35,254

201,146831,1082935,-1,28,329,1.14,9,0,-64,-18,28,87947,1178,4.94,-0.30,9.08,-0.01,-0.07,-0.10,1644,1113,300,-23,22,582,13, 35.702148, 51.350651,10.00,0.35,254

201,147022,1083126,-1,28,329,1.14,9,0,-64,-18,28,87945,1178,4.94,-0.24,9.06,-0.19,-0.19,-0.16,1646,1112,300,-23,22,582,13, 35.702148, 51.350651,10.00,0.35,254

201,147311,1083319,-2,28,329,1.14,9,0,-65,-18,28,87946,1178,4.90,-0.30,9.03,-0.01,0.11,-0.22,1646,1113,299,-23,22,586,13, 35.702168, 51.350651,10.00,0.32,254

201,147596,1083606,-2,28,329,1.07,9,0,-64,-18,28,87945,1178,4.88,-0.29,9.09,-0.07,-0.13,-0.04,1644,1114,300,-23,22,585,13, 35.702168, 51.350651,10.00,0.32,254

201,147883,1083892,-1,28,329,1.14,9,0,-64,-18,28,87947,1178,4.97,-0.26,9.00,-0.13,-0.13,-0.04,1644,1113,300,-23,22,584,13, 35.702168, 51.350651,10.00,0.32,254

201,148170,1084180,-2,28,329,1.14,9,0,-65,-18,28,87943,1178,4.95,-0.26,8.99,-0.07,-0.07,0.03,1644,1113,300,-23,22,585,13, 35.702168, 51.350651,10.00,0.32,254

201,148458,1084468,-2,29,329,0.84,9,0,-64,-18,29,87945,1178,4.89,-0.33,9.03,-0.31,-0.01,-0.10,1647,1113,300,-23,22,585,13, 35.702168, 51.350651,10.00,0.32,254

201,148840,1084754,-1,28,329,1.14,9,0,-65,-19,28,87945,1178,4.91,-0.33,9.05,-0.25,0.05,-0.10,1648,1112,300,-23,22,585,13, 35.702168, 51.350651,10.00,0.32,254

201,149128,1085136,-1,29,329,1.07,10,0,-64,-18,29,87950,1178,4.91,-0.32,8.92,-0.19,-0.01,-0.10,1650,1114,299,-23,22,585,13, 35.702168, 51.350651,10.00,0.32,254

201,149415,1085424,-1,28,329,1.07,9,0,-65,-18,28,87948,1178,4.97,-0.31,8.99,-0.01,-0.01,-0.04,1644,1113,300,-23,22,583,13, 35.702168, 51.350651,10.00,0.32,254

201,149702,1085711,-1,28,329,1.14,9,0,-64,-18,28,87945,1178,4.95,-0.29,9.06,-0.19,-0.13,-0.04,1642,1113,300,-23,22,581,13, 35.702168, 51.350651,10.00,0.32,254

201,150085,1085999,-1,28,329,1.29,9,0,-65,-19,28,87946,1178,4.93,-0.28,8.95,0.11,-0.07,-0.10,1646,1113,300,-23,22,585,13, 35.702168, 51.350651,10.00,0.32,254

201,150373,1086382,-1,28,329,1.07,9,0,-65,-18,28,87943,1178,4.92,-0.29,9.03,-0.07,-0.13,-0.04,1644,1113,300,-23,22,584,13, 35.702168, 51.350651,10.00,0.32,254

201,150660,1086668,-1,28,329,1.07,8,0,-65,-18,28,87946,1178,4.97,-0.33,8.99,-0.01,-0.01,-0.10,1643,1113,300,-23,22,583,13, 35.702168, 51.350651,10.00,0.32,254

201,150851,1086955,-2,28,329,1.07,9,0,-65,-18,28,87949,1178,4.91,-0.33,8.99,-0.19,-0.07,0.09,1647,1114,300,-23,22,583,13, 35.702168, 51.350651,10.00,0.32,254

201,151042,1087148,-2,28,329,1.14,9,0,-65,-18,28,87946,1178,4.96,-0.31,9.03,-0.01,-0.25,-0.04,1648,1113,300,-23,22,584,13, 35.702168, 51.350651,10.00,0.32,254

201,151233,1087338,-1,28,329,0.99,9,0,-64,-18,28,87948,1178,4.94,-0.28,9.01,-0.13,-0.07,0.09,1644,1113,300,-23,22,585,13, 35.702202, 51.350655,10.00,0.10,254

201,151425,1087529,-1,28,329,1.14,9,0,-65,-19,28,87950,1178,4.92,-0.28,9.03,-0.01,-0.13,-0.04,1646,1114,300,-23,22,584,13, 35.702202, 51.350655,10.00,0.10,254

201,151618,1087721,-1,28,329,1.14,9,0,-65,-18,28,87946,1178,4.92,-0.24,9.13,-0.13,0.05,0.03,1640,1113,300,-23,22,584,13, 35.702202, 51.350655,10.00,0.10,254

201,151808,1087912,-2,28,329,1.07,9,0,-65,-19,28,87945,1178,4.96,-0.31,9.12,-0.13,-0.19,0.03,1645,1113,300,-23,22,584,13, 35.702202, 51.350655,10.00,0.10,254

201,151999,1088103,-1,28,329,1.14,9,0,-65,-18,28,87943,1178,4.92,-0.32,9.04,-0.01,0.05,-0.04,1645,1113,300,-23,22,585,13, 35.702202, 51.350655,10.00,0.10,254

201,152190,1088296,-2,28,329,1.14,9,0,-65,-18,28,87945,1178,4.90,-0.31,8.96,-0.01,-0.01,0.03,1648,1112,300,-23,22,585,13, 35.702202, 51.350658,10.00,0.03,254

201,152382,1088487,-1,28,329,1.14,9,0,-64,-18,28,87945,1178,4.86,-0.29,9.09,0.05,-0.13,-0.16,1641,1113,300,-23,22,585,13, 35.702202, 51.350658,10.00,0.03,254

201,152670,1088678,-1,28,329,1.14,9,0,-65,-18,28,87943,1178,4.94,-0.25,9.12,-0.19,-0.07,0.09,1639,1113,300,-24,22,583,13, 35.702202, 51.350658,10.00,0.03,254

201,152956,1088965,-1,28,329,1.14,9,0,-65,-18,28,87946,1178,4.95,-0.28,9.03,-0.01,0.05,0.15,1651,1113,300,-24,22,585,13, 35.702202, 51.350658,10.00,0.03,254

201,153244,1089253,-1,28,329,1.07,9,0,-64,-18,28,87944,1178,4.90,-0.30,8.92,-0.07,-0.07,-0.04,1647,1113,300,-23,22,585,13, 35.702202, 51.350658,10.00,0.03,254

201,153435,1089540,-1,28,329,1.14,9,0,-65,-18,28,87943,1178,4.97,-0.32,9.06,-0.07,-0.07,0.09,1643,1112,300,-23,22,585,13, 35.702202, 51.350658,10.00,0.03,254

201,153626,1089731,-1,28,329,1.29,9,0,-64,-18,28,87946,1178,4.99,-0.28,8.94,0.11,0.11,-0.04,1646,1113,300,-23,22,585,13, 35.702202, 51.350658,10.00,0.03,254

201,153914,1089922,-1,28,329,1.14,9,0,-65,-18,28,87948,1178,4.91,-0.31,9.06,-0.01,-0.07,0.09,1645,1113,300,-23,22,586,13, 35.702202, 51.350658,10.00,0.03,254

201,154202,1090210,-1,28,329,1.07,9,0,-64,-18,28,87944,1178,4.89,-0.33,9.11,-0.07,-0.01,-0.10,1643,1113,300,-23,22,584,13, 35.702202, 51.350658,10.00,0.03,254

201,154393,1090497,-1,29,329,1.22,9,0,-65,-18,29,87946,1178,4.91,-0.27,9.01,-0.13,-0.25,-0.10,1647,1114,300,-23,22,584,13, 35.702202, 51.350658,10.00,0.03,254

201,154584,1090689,-1,28,329,1.14,9,0,-65,-18,28,87945,1178,4.97,-0.32,9.10,-0.19,-0.01,0.09,1645,1114,300,-24,22,585,13, 35.702202, 51.350658,10.00,0.03,254

201,154775,1090880,-1,28,329,1.14,9,0,-65,-18,28,87946,1178,4.95,-0.27,9.05,-0.07,-0.01,0.09,1642,1112,300,-24,22,585,13, 35.702202, 51.350658,10.00,0.03,254

201,154967,1091070,-1,28,329,1.14,9,0,-64,-18,28,87945,1178,4.95,-0.28,9.04,-0.13,-0.07,-0.04,1639,1113,300,-23,22,585,13, 35.702202, 51.350658,10.00,0.03,254

201,155254,1091263,-1,28,329,1.14,9,0,-64,-18,28,87947,1178,4.93,-0.28,9.03,0.05,-0.13,0.09,1644,1113,300,-23,22,585,13, 35.702202, 51.350658,10.00,0.03,254

201,155544,1091550,-1,28,329,1.14,9,0,-65,-18,28,87947,1178,4.97,-0.28,9.09,-0.01,-0.01,0.03,1643,1113,300,-23,22,584,13, 35.702202, 51.350658,10.00,0.03,254

201,155732,1091836,-1,28,329,1.07,9,0,-64,-18,28,87947,1178,4.91,-0.29,9.03,-0.13,-0.07,-0.10,1643,1113,300,-23,22,583,13, 35.702202, 51.350658,10.00,0.03,254

201,155926,1092028,-1,29,329,1.14,9,0,-65,-18,29,87943,1178,4.92,-0.31,9.01,-0.07,-0.01,0.03,1644,1113,300,-23,22,584,13, 35.702202, 51.350658,10.00,0.03,254

201,156116,1092220,-1,28,329,1.22,9,0,-65,-18,28,87944,1178,4.90,-0.32,9.04,-0.13,-0.13,-0.16,1644,1113,300,-23,22,582,13, 35.702202, 51.350658,10.00,0.03,254

201,156306,1092411,-1,28,329,1.14,9,0,-64,-18,28,87946,1178,4.98,-0.31,9.00,-0.19,0.05,0.03,1645,1112,300,-23,22,585,13, 35.702202, 51.350658,10.00,0.03,254

201,156594,1092602,-2,28,329,1.14,9,0,-65,-18,28,87949,1178,4.94,-0.29,8.93,-0.13,-0.25,-0.04,1644,1112,300,-23,22,583,13, 35.702202, 51.350658,10.00,0.03,254

201,156882,1092890,-2,28,329,1.22,9,0,-65,-19,28,87943,1178,4.97,-0.23,9.06,-0.01,0.11,-0.04,1649,1114,300,-23,22,583,13, 35.702202, 51.350658,10.00,0.03,254

201,157168,1093178,-1,28,329,1.14,9,0,-65,-18,28,87946,1178,4.93,-0.28,9.03,0.05,0.05,0.03,1646,1113,299,-23,22,585,13, 35.702202, 51.350658,10.00,0.03,254

201,157455,1093464,-1,28,329,1.14,9,0,-64,-18,28,87948,1178,4.91,-0.31,9.05,-0.07,-0.01,0.03,1651,1113,300,-23,22,583,13, 35.702202, 51.350658,10.00,0.03,254

201,157742,1093751,-1,28,329,1.14,9,0,-64,-18,28,87946,1178,4.95,-0.26,9.09,-0.13,0.05,0.09,1649,1113,300,-23,22,584,13, 35.702202, 51.350658,10.00,0.03,254

201,158030,1094038,-1,28,329,1.14,9,0,-64,-18,28,87945,1178,4.94,-0.30,8.97,-0.07,-0.01,-0.22,1642,1113,300,-23,22,583,13, 35.702202, 51.350658,10.00,0.03,254

201,158222,1094327,-2,28,329,1.14,10,0,-65,-18,28,87945,1178,4.87,-0.31,8.94,-0.01,-0.13,0.09,1644,1114,300,-23,22,583,13, 35.702202, 51.350658,10.00,0.03,254

201,158413,1094517,-1,29,329,1.14,9,0,-65,-19,29,87944,1178,4.95,-0.34,9.01,-0.19,-0.07,-0.04,1649,1114,300,-23,22,584,13, 35.702202, 51.350658,10.00,0.03,254

201,158604,1094709,-2,28,329,1.14,9,0,-65,-18,28,87948,1178,4.91,-0.33,9.08,-0.19,-0.25,0.03,1646,1112,300,-23,22,584,13, 35.702202, 51.350658,10.00,0.03,254

201,158795,1094899,-1,28,329,1.14,9,0,-64,-18,28,87944,1178,4.98,-0.19,9.11,-0.01,0.05,0.15,1645,1113,300,-24,22,586,13, 35.702202, 51.350658,10.00,0.03,254

201,158987,1095090,-2,28,329,1.14,9,0,-64,-18,28,87943,1178,4.95,-0.30,9.08,-0.19,-0.19,-0.04,1648,1113,300,-23,22,582,13, 35.702202, 51.350658,10.00,0.03,254

201,159274,1095283,-1,28,329,1.14,9,0,-64,-18,28,87946,1178,4.98,-0.28,9.01,-0.13,0.05,-0.04,1645,1113,300,-23,22,584,13, 35.702202, 51.350658,10.00,0.03,254

201,159561,1095570,-1,28,329,1.14,9,0,-65,-18,28,87946,1178,4.95,-0.28,9.07,-0.01,-0.19,0.09,1643,1112,300,-24,22,585,13, 35.702202, 51.350658,10.00,0.03,254

201,159849,1095857,-1,28,329,1.22,9,0,-65,-18,28,87944,1178,4.95,-0.33,9.09,-0.07,-0.19,-0.10,1643,1113,300,-23,22,585,13, 35.702202, 51.350658,10.00,0.03,254

201,160135,1096145,-1,28,329,1.07,9,0,-64,-18,28,87947,1178,4.91,-0.27,8.99,-0.13,0.05,0.15,1644,1115,300,-23,22,585,13, 35.702202, 51.350658,10.00,0.03,254

201,160424,1096431,-2,29,329,1.07,9,0,-64,-18,29,87942,1178,4.97,-0.27,8.99,-0.13,-0.07,0.03,1649,1113,300,-23,22,583,13, 35.702202, 51.350658,10.00,0.03,254

201,160710,1096719,-2,28,329,0.92,9,0,-64,-18,28,87945,1178,4.92,-0.28,9.02,-0.07,-0.13,-0.16,1645,1113,300,-23,22,583,13, 35.702202, 51.350658,10.00,0.03,254

201,160998,1097006,-1,28,329,1.14,9,0,-65,-18,28,87944,1178,4.96,-0.30,9.10,-0.19,-0.07,-0.10,1649,1113,300,-23,22,584,13, 35.702202, 51.350658,10.00,0.03,254

201,161284,1097293,-2,28,329,1.22,9,0,-65,-18,28,87948,1178,4.95,-0.31,9.08,-0.07,-0.07,-0.22,1639,1113,300,-23,22,583,13, 35.702202, 51.350658,10.00,0.03,254

201,161572,1097580,-2,28,329,1.07,9,0,-64,-18,28,87947,1178,4.98,-0.25,8.99,-0.07,-0.01,0.03,1647,1113,300,-23,22,584,13, 35.702202, 51.350658,10.00,0.03,254

201,161955,1097867,-1,28,329,0.99,9,0,-64,-18,28,87945,1178,4.90,-0.31,9.09,-0.13,-0.01,-0.10,1646,1113,300,-23,22,584,13, 35.702202, 51.350658,10.00,0.03,254

201,162241,1098251,-1,28,329,1.14,9,0,-65,-18,28,87943,1178,4.95,-0.31,9.10,-0.13,-0.19,-0.16,1644,1113,300,-23,22,582,13, 35.702202, 51.350658,10.00,0.03,254

201,162529,1098537,-1,28,329,1.14,9,0,-64,-18,28,87946,1178,4.90,-0.31,9.06,-0.01,-0.19,0.15,1643,1114,300,-23,22,585,13, 35.702202, 51.350658,10.00,0.03,254

201,162720,1098824,-1,28,329,1.14,9,0,-65,-18,28,87944,1178,4.97,-0.27,9.08,-0.07,-0.13,0.09,1641,1112,300,-23,22,585,13, 35.702202, 51.350658,10.00,0.03,254

201,163007,1099016,-1,28,329,1.07,9,0,-64,-18,28,87942,1178,4.96,-0.23,9.02,0.17,0.11,-0.10,1646,1112,300,-24,22,583,13, 35.702202, 51.350658,10.00,0.03,254

201,163295,1099303,-1,28,329,1.14,9,0,-64,-18,28,87942,1178,4.94,-0.28,9.08,-0.01,-0.01,0.03,1642,1113,300,-23,22,586,13, 35.702202, 51.350658,10.00,0.03,254

201,163582,1099590,-1,28,329,1.07,9,0,-65,-18,28,87946,1178,4.91,-0.22,9.05,-0.01,-0.13,0.09,1646,1113,300,-23,22,584,13, 35.702202, 51.350658,10.00,0.03,254

201,163869,1099877,-1,28,329,1.07,9,0,-64,-18,28,87947,1178,4.94,-0.25,9.08,-0.19,-0.01,0.03,1644,1113,300,-23,22,585,13, 35.702202, 51.350658,10.00,0.03,254

201,164156,1100165,-1,28,329,1.14,9,0,-64,-18,28,87944,1178,4.94,-0.35,8.99,-0.07,-0.07,0.03,1646,1113,300,-23,22,585,13, 35.702202, 51.350658,10.00,0.03,254

201,164444,1100452,-1,28,329,0.92,9,0,-64,-18,28,87944,1178,4.92,-0.26,9.09,-0.01,-0.01,0.03,1647,1114,300,-23,22,581,13, 35.702202, 51.350658,10.00,0.03,254

201,164730,1100739,-1,28,329,1.07,9,0,-64,-18,28,87943,1179,4.89,-0.28,8.98,-0.07,-0.13,0.09,1645,1113,300,-23,22,586,13, 35.702202, 51.350658,10.00,0.03,254

201,164922,1101026,-1,28,329,1.14,9,0,-65,-18,28,87945,1178,4.90,-0.32,9.03,-0.07,-0.25,-0.04,1648,1113,300,-23,22,584,13, 35.702202, 51.350658,10.00,0.03,254

201,165113,1101218,-1,28,329,1.14,9,0,-64,-18,28,87943,1178,4.91,-0.22,9.08,-0.25,0.05,-0.04,1644,1114,299,-23,22,585,13, 35.702202, 51.350658,10.00,0.03,254

201,165305,1101410,-2,28,329,1.07,9,0,-64,-18,28,87942,1178,4.96,-0.28,9.05,-0.01,-0.13,-0.04,1650,1113,300,-23,22,586,13, 35.702202, 51.350658,10.00,0.03,254

201,165497,1101600,-2,28,329,1.14,9,0,-65,-18,28,87943,1178,4.89,-0.31,9.00,-0.07,-0.07,-0.04,1645,1112,300,-23,22,585,13, 35.702202, 51.350658,10.00,0.03,254

201,165784,1101792,-2,28,329,1.07,9,0,-64,-18,28,87946,1178,4.99,-0.27,9.05,-0.13,0.05,0.09,1650,1113,300,-23,22,586,13, 35.702202, 51.350658,10.00,0.03,254

201,166071,1102078,-1,28,329,1.14,9,0,-64,-18,28,87943,1178,4.95,-0.25,9.04,-0.01,-0.07,-0.10,1642,1113,300,-23,22,585,13, 35.702202, 51.350658,10.00,0.03,254

201,166262,1102367,-1,28,329,1.07,9,0,-64,-18,28,87948,1178,4.95,-0.29,9.13,-0.13,-0.13,-0.10,1642,1113,300,-23,22,585,13, 35.702202, 51.350658,10.00,0.03,254

201,166454,1102558,-1,28,329,1.07,9,0,-64,-18,28,87943,1178,4.89,-0.32,9.05,-0.07,-0.01,-0.04,1642,1113,300,-23,22,585,13, 35.702202, 51.350658,10.00,0.03,254

201,166645,1102749,-1,28,329,1.07,9,0,-64,-18,28,87945,1178,4.87,-0.26,9.04,-0.01,-0.01,0.09,1646,1113,300,-23,22,584,13, 35.702202, 51.350658,10.00,0.03,254

201,166933,1102941,-1,28,329,1.14,9,0,-65,-19,28,87943,1178,4.97,-0.29,9.07,-0.07,-0.07,-0.04,1644,1113,300,-24,22,583,13, 35.702202, 51.350658,10.00,0.03,254

201,167124,1103228,-2,28,329,1.14,9,0,-65,-18,28,87942,1179,4.86,-0.29,9.04,0.05,-0.19,-0.04,1646,1112,300,-23,22,583,13, 35.702202, 51.350658,10.00,0.03,254

201,167315,1103419,-2,28,329,1.14,9,0,-65,-18,28,87945,1178,4.95,-0.30,9.10,0.05,-0.01,-0.10,1646,1113,300,-23,22,585,13, 35.702202, 51.350658,10.00,0.03,254

201,167508,1103610,-1,28,329,1.22,9,0,-65,-18,28,87943,1178,4.93,-0.28,8.99,0.05,-0.13,-0.10,1644,1113,300,-23,22,584,13, 35.702202, 51.350658,10.00,0.03,254

201,167698,1103802,-1,28,329,1.14,9,0,-64,-18,28,87944,1178,4.95,-0.28,9.11,-0.19,-0.01,-0.16,1646,1113,300,-23,22,586,13, 35.702202, 51.350658,10.00,0.03,254

201,167890,1103993,-2,28,329,1.07,9,0,-64,-18,28,87943,1178,4.99,-0.28,9.03,-0.19,-0.25,0.15,1648,1113,300,-23,22,584,13, 35.702202, 51.350658,10.00,0.03,254

201,168081,1104185,-2,28,329,1.14,9,0,-65,-18,28,87941,1178,4.94,-0.32,9.07,-0.25,-0.25,0.03,1650,1114,300,-24,22,585,13, 35.702202, 51.350658,10.00,0.03,254

201,168368,1104376,-1,28,329,0.84,9,0,-65,-18,28,87942,1178,4.95,-0.29,9.02,-0.01,-0.13,-0.16,1652,1113,300,-23,22,585,13, 35.702202, 51.350658,10.00,0.03,254

201,168655,1104663,-1,28,329,1.07,9,0,-64,-18,28,87943,1178,4.95,-0.30,9.04,0.11,-0.13,0.03,1644,1112,300,-23,22,585,13, 35.702202, 51.350658,10.00,0.03,254

201,168943,1104950,-1,28,329,1.07,9,0,-64,-18,28,87943,1178,4.92,-0.20,8.99,-0.01,-0.07,0.15,1648,1113,300,-23,22,583,13, 35.702202, 51.350658,10.00,0.03,254

201,169229,1105239,-1,28,329,1.14,9,0,-64,-18,28,87945,1179,5.00,-0.29,9.09,-0.01,-0.07,0.15,1643,1114,299,-24,22,585,13, 35.702202, 51.350658,10.00,0.03,254

201,169516,1105524,-1,29,329,1.14,9,0,-65,-18,29,87943,1178,4.97,-0.24,9.01,-0.19,-0.07,0.03,1648,1113,300,-23,22,585,13, 35.702202, 51.350658,10.00,0.03,254

201,169804,1105812,-1,28,329,1.14,9,0,-64,-18,28,87946,1178,5.00,-0.29,9.07,-0.01,-0.13,-0.22,1646,1113,300,-23,22,582,13, 35.702202, 51.350658,10.00,0.03,254

201,169995,1106100,-2,28,329,1.14,9,0,-65,-19,28,87941,1178,4.90,-0.33,9.06,-0.07,-0.13,0.15,1644,1114,300,-23,22,584,13, 35.702202, 51.350658,10.00,0.03,254

201,170187,1106291,-1,28,329,1.14,9,0,-65,-18,28,87946,1179,5.01,-0.27,9.03,-0.07,-0.19,-0.04,1645,1113,300,-23,22,581,13, 35.702202, 51.350658,10.00,0.03,254

201,170378,1106483,-1,28,329,1.07,9,0,-64,-18,28,87942,1179,4.96,-0.34,9.03,-0.13,-0.07,-0.04,1644,1115,300,-24,22,586,13, 35.702202, 51.350658,10.00,0.03,254

201,170570,1106673,-1,28,329,1.14,9,0,-65,-18,28,87944,1178,4.97,-0.25,9.05,-0.01,-0.19,-0.04,1646,1113,300,-23,22,584,13, 35.702202, 51.350658,10.00,0.03,254

201,170857,1106865,-1,28,329,1.14,9,0,-64,-18,28,87948,1179,4.94,-0.27,8.91,-0.07,0.11,0.03,1648,1114,300,-23,22,585,13, 35.702202, 51.350658,10.00,0.03,254

201,171144,1107151,-1,28,329,1.07,9,0,-64,-18,28,87945,1178,4.89,-0.23,9.13,-0.01,0.05,-0.10,1649,1113,300,-23,22,584,13, 35.702202, 51.350658,10.00,0.03,254

201,171431,1107439,-1,28,329,1.14,9,0,-64,-18,28,87945,1179,4.91,-0.27,9.08,-0.07,0.11,-0.04,1645,1113,300,-23,22,585,13, 35.702343, 51.350697,10.00,0.03,254

201,171719,1107726,-2,28,329,1.07,9,0,-64,-18,28,87945,1178,4.98,-0.24,9.09,-0.01,0.05,0.15,1644,1113,300,-23,22,585,13, 35.702343, 51.350697,10.00,0.03,254

201,171911,1108014,-1,28,329,1.14,9,0,-65,-18,28,87944,1179,4.97,-0.31,9.06,-0.13,-0.13,-0.04,1644,1114,300,-23,22,584,13, 35.702343, 51.350697,10.00,0.03,254

201,172197,1108206,-1,28,329,1.07,9,0,-65,-18,28,87945,1179,4.94,-0.29,9.09,-0.13,0.05,0.03,1642,1112,300,-23,22,583,13, 35.702343, 51.350697,10.00,0.03,254

201,172485,1108492,-1,28,329,1.07,9,0,-64,-18,28,87946,1178,4.98,-0.29,9.03,-0.31,0.11,-0.10,1647,1113,299,-23,22,586,13, 35.702343, 51.350697,10.00,0.03,254

201,172772,1108780,-2,28,329,1.14,9,0,-65,-18,28,87942,1178,4.93,-0.28,9.13,-0.01,-0.01,0.03,1644,1113,300,-23,22,584,13, 35.702343, 51.350697,10.00,0.03,254

201,173059,1109066,-1,28,329,1.07,9,0,-64,-18,28,87943,1178,4.93,-0.25,9.02,-0.13,-0.13,0.15,1647,1113,300,-23,22,582,13, 35.702343, 51.350697,10.00,0.03,254

201,173346,1109354,-1,28,329,1.14,9,0,-64,-18,28,87944,1179,5.00,-0.34,9.07,-0.07,0.05,-0.04,1646,1112,300,-23,22,581,13, 35.702343, 51.350697,10.00,0.03,254

201,173728,1109641,-1,28,329,0.84,9,0,-65,-18,28,87944,1179,4.95,-0.28,8.97,-0.19,-0.01,-0.04,1646,1112,300,-23,22,584,13, 35.702343, 51.350697,10.00,0.03,254

201,174016,1110024,-1,28,329,1.14,9,0,-65,-18,28,87944,1179,4.88,-0.27,8.97,-0.07,0.05,-0.04,1647,1113,300,-23,22,585,13, 35.702343, 51.350697,10.00,0.03,254

201,174207,1110311,-2,28,329,1.07,9,0,-64,-20,28,87944,1178,4.93,-0.31,8.99,-0.19,-0.25,0.03,1650,1113,300,-23,22,583,13, 35.702343, 51.350697,10.00,0.03,254

201,174398,1110502,-1,28,329,1.07,9,0,-64,-18,28,87944,1178,4.99,-0.24,9.12,0.05,-0.07,0.03,1645,1113,300,-23,22,585,13, 35.702343, 51.350697,10.00,0.03,254

201,174591,1110693,-1,28,329,1.14,9,0,-65,-18,28,87944,1178,4.94,-0.33,9.07,-0.01,-0.13,0.09,1644,1113,300,-23,22,583,13, 35.702343, 51.350697,10.00,0.03,254

201,174878,1110885,-1,28,329,1.07,9,0,-64,-18,28,87948,1179,4.89,-0.28,9.02,-0.13,0.17,-0.04,1646,1113,300,-23,22,585,13, 35.702343, 51.350697,10.00,0.03,254

201,175165,1111173,-1,28,329,1.14,9,0,-64,-18,28,87942,1179,4.94,-0.33,8.92,-0.13,-0.32,-0.10,1646,1113,299,-23,22,581,13, 35.702343, 51.350697,10.00,0.03,254

201,175452,1111459,-1,28,329,1.14,9,0,-65,-18,28,87942,1179,4.95,-0.30,9.03,-0.01,-0.13,0.09,1645,1113,300,-23,22,584,13, 35.702320, 51.350697,10.00,0.21,254

201,175739,1111747,-1,28,329,1.07,9,0,-64,-18,28,87939,1178,4.93,-0.30,9.05,-0.07,-0.19,0.03,1649,1113,300,-23,22,585,13, 35.702320, 51.350697,10.00,0.21,254

201,176026,1112034,-1,28,329,1.07,9,0,-64,-18,28,87943,1178,4.94,-0.30,9.08,-0.01,0.05,-0.04,1647,1114,299,-23,22,585,13, 35.702320, 51.350697,10.00,0.21,254

201,176313,1112322,-1,28,329,1.14,9,0,-65,-19,28,87943,1178,4.98,-0.35,9.08,-0.19,-0.07,-0.04,1645,1113,299,-23,22,584,13, 35.702320, 51.350697,10.00,0.21,254

201,176600,1112608,-1,28,329,1.14,9,0,-64,-18,28,87945,1178,4.89,-0.31,9.01,0.05,-0.19,-0.04,1643,1113,300,-23,22,586,13, 35.702320, 51.350697,10.00,0.21,254

201,176887,1112895,-1,28,329,1.07,9,0,-64,-18,28,87945,1178,4.88,-0.34,9.02,0.05,-0.19,0.09,1646,1113,300,-23,22,582,13, 35.702320, 51.350697,10.00,0.21,254

201,177175,1113183,-1,28,329,1.14,9,0,-65,-18,28,87945,1179,4.94,-0.31,8.95,-0.01,-0.07,-0.10,1646,1114,300,-24,22,584,13, 35.702320, 51.350697,10.00,0.21,254

201,177557,1113469,-1,28,329,1.14,9,0,-65,-18,28,87946,1178,4.92,-0.29,9.10,0.05,0.05,0.03,1641,1112,300,-23,22,585,13, 35.702309, 51.350697,10.00,0.15,254

201,177940,1113852,-2,28,329,1.14,9,0,-65,-19,28,87942,1179,4.93,-0.26,8.99,-0.07,0.05,0.03,1646,1113,300,-23,22,584,13, 35.702309, 51.350697,10.00,0.15,254

201,178132,1114235,-2,28,329,1.14,9,0,-65,-18,28,87945,1178,4.94,-0.31,9.02,-0.13,-0.19,0.03,1649,1113,299,-23,22,584,13, 35.702309, 51.350697,10.00,0.15,254

201,178323,1114427,-1,28,329,1.14,9,0,-65,-18,28,87944,1179,4.92,-0.29,9.04,-0.13,-0.13,0.09,1647,1113,300,-23,22,584,13, 35.702309, 51.350697,10.00,0.15,254

201,178516,1114618,-2,28,329,1.14,9,0,-65,-18,28,87945,1178,4.95,-0.28,9.04,-0.13,-0.07,-0.04,1643,1113,300,-23,22,583,13, 35.702309, 51.350697,10.00,0.15,254

201,178707,1114810,-1,28,329,1.07,9,0,-64,-18,28,87945,1178,4.97,-0.25,9.02,-0.13,-0.01,-0.10,1646,1113,300,-23,22,585,13, 35.702309, 51.350697,10.00,0.15,254

201,178898,1115001,-2,28,329,1.14,9,0,-65,-18,28,87943,1178,4.93,-0.27,9.00,-0.01,-0.01,0.03,1642,1112,300,-23,22,585,13, 35.702309, 51.350697,10.00,0.15,254

201,179090,1115193,-1,28,329,1.07,9,0,-64,-18,28,87944,1178,4.93,-0.24,9.06,0.11,-0.13,-0.04,1640,1113,299,-23,22,585,13, 35.702309, 51.350697,10.00,0.15,254

201,179281,1115384,-2,28,329,1.14,9,0,-64,-18,28,87940,1178,4.94,-0.30,9.03,0.05,-0.01,0.03,1652,1113,300,-23,22,585,13, 35.702309, 51.350697,10.00,0.15,254

201,179473,1115575,-1,28,329,1.14,10,0,-64,-18,28,87941,1178,4.95,-0.33,9.01,-0.01,-0.07,-0.10,1647,1114,300,-23,22,585,13, 35.702309, 51.350697,10.00,0.15,254

201,179663,1115767,-1,28,329,1.22,9,0,-65,-18,28,87945,1179,4.99,-0.28,9.12,0.11,-0.07,0.09,1647,1114,300,-23,22,584,13, 35.702309, 51.350697,10.00,0.15,254

201,179855,1115958,-1,28,329,1.14,9,0,-65,-18,28,87943,1178,4.92,-0.27,9.04,-0.13,-0.01,0.03,1642,1113,299,-23,22,583,13, 35.702309, 51.350697,10.00,0.15,254

201,180143,1116150,-1,28,329,1.14,9,0,-64,-18,28,87945,1179,4.94,-0.26,8.99,-0.01,-0.19,-0.04,1646,1113,300,-23,22,582,13, 35.702309, 51.350697,10.00,0.15,254

201,180430,1116437,-1,28,329,1.14,9,0,-65,-18,28,87944,1179,4.93,-0.30,9.07,-0.19,-0.13,0.03,1641,1112,300,-23,22,584,13, 35.702305, 51.350689,10.00,0.12,254

201,180717,1116725,-1,29,329,1.07,9,0,-64,-18,29,87945,1178,4.96,-0.25,8.99,-0.37,-0.01,-0.04,1647,1113,300,-23,22,581,13, 35.702305, 51.350689,10.00,0.12,254

201,180908,1117011,-2,28,329,1.14,9,0,-65,-19,28,87943,1179,4.93,-0.30,9.04,-0.13,-0.07,-0.10,1648,1113,300,-23,22,582,13, 35.702305, 51.350689,10.00,0.12,254

201,181100,1117204,-1,28,329,1.07,10,0,-65,-18,28,87946,1178,4.94,-0.30,8.91,-0.13,-0.07,-0.10,1647,1113,300,-23,22,585,13, 35.702305, 51.350689,10.00,0.12,254

201,181388,1117395,-1,29,329,1.14,9,0,-64,-18,29,87944,1178,4.98,-0.24,8.98,-0.13,-0.13,-0.04,1647,1113,300,-23,22,584,13, 35.702305, 51.350689,10.00,0.12,254

201,181674,1117682,-1,28,329,1.07,9,0,-65,-18,28,87943,1179,4.94,-0.25,9.03,-0.01,-0.07,-0.04,1645,1113,299,-23,22,585,13, 35.702305, 51.350689,10.00,0.12,254

201,181866,1117969,-1,28,329,1.14,9,0,-65,-18,28,87942,1178,4.99,-0.27,8.96,-0.01,0.05,-0.04,1645,1112,300,-23,22,582,13, 35.702305, 51.350689,10.00,0.12,254

201,182057,1118160,-1,28,329,1.14,9,0,-64,-18,28,87944,1179,4.97,-0.29,8.98,0.05,-0.01,-0.04,1647,1113,300,-23,22,584,13, 35.702305, 51.350689,10.00,0.12,254

201,182249,1118352,-1,28,329,1.07,9,0,-64,-18,28,87943,1178,4.94,-0.26,9.12,-0.01,0.05,-0.10,1645,1114,299,-23,22,583,13, 35.702305, 51.350689,10.00,0.12,254

201,182440,1118543,-1,28,329,1.14,9,0,-64,-18,28,87943,1178,4.84,-0.26,9.06,-0.19,-0.07,0.09,1647,1113,300,-23,22,584,13, 35.702305, 51.350689,10.00,0.12,254

201,182727,1118735,-1,28,329,1.14,9,0,-65,-18,28,87944,1178,4.92,-0.30,9.00,-0.13,-0.01,0.03,1650,1113,300,-23,22,584,13, 35.702305, 51.350689,10.00,0.12,254

201,183014,1119022,-1,28,329,1.14,9,0,-65,-18,28,87945,1178,4.94,-0.29,9.04,0.05,-0.07,-0.04,1648,1114,300,-23,22,583,13, 35.702305, 51.350689,10.00,0.12,254

201,183206,1119309,-1,28,329,1.14,9,0,-64,-18,28,87943,1178,4.92,-0.26,9.09,-0.01,-0.07,0.15,1649,1113,300,-23,22,586,13, 35.702305, 51.350689,10.00,0.12,254

201,183398,1119500,-1,28,329,1.14,9,0,-65,-18,28,87945,1178,4.91,-0.29,9.10,-0.07,-0.01,-0.10,1647,1112,300,-23,22,585,13, 35.702305, 51.350689,10.00,0.12,254

201,183589,1119692,-1,28,329,1.14,9,0,-65,-18,28,87944,1179,4.92,-0.27,9.03,-0.13,-0.13,-0.04,1646,1113,300,-23,22,581,13, 35.702305, 51.350689,10.00,0.12,254

201,183876,1119884,-1,28,329,1.14,9,0,-64,-18,28,87943,1179,4.89,-0.29,8.98,-0.01,0.05,-0.10,1642,1113,300,-23,22,584,13, 35.702305, 51.350689,10.00,0.12,254

201,184163,1120171,-1,28,329,1.14,9,0,-65,-19,28,87946,1178,4.95,-0.28,9.04,-0.13,0.05,0.09,1643,1112,299,-23,22,582,13, 35.702305, 51.350689,10.00,0.12,254

201,184450,1120457,-1,28,329,1.14,9,0,-64,-18,28,87943,1178,4.96,-0.26,9.08,-0.13,-0.07,0.09,1648,1112,300,-23,22,582,13, 35.702305, 51.350689,10.00,0.12,254

201,184738,1120745,-1,28,329,1.14,9,0,-64,-18,28,87944,1179,4.94,-0.34,9.08,-0.01,-0.07,0.09,1648,1113,300,-23,22,585,13, 35.702305, 51.350689,10.00,0.12,254

201,185025,1121032,-1,28,329,1.07,9,0,-64,-18,28,87940,1178,4.89,-0.23,8.99,-0.19,0.17,-0.04,1647,1113,300,-23,22,583,13, 35.702305, 51.350689,10.00,0.12,254

201,185407,1121319,-1,28,329,1.07,9,0,-65,-19,28,87945,1178,4.95,-0.33,9.01,-0.01,-0.01,0.03,1643,1112,299,-23,22,583,13, 35.702305, 51.350689,10.00,0.12,254

201,185694,1121701,-1,28,329,1.14,9,0,-65,-18,28,87936,1178,4.90,-0.32,9.05,-0.07,0.05,0.03,1645,1114,300,-23,22,586,13, 35.702305, 51.350689,10.00,0.12,254

201,185886,1121988,-2,28,329,1.14,9,0,-65,-17,28,87944,1179,4.95,-0.35,9.08,-0.07,-0.01,0.09,1646,1114,300,-23,22,581,13, 35.702305, 51.350689,10.00,0.12,254

201,186078,1122181,-1,28,329,1.14,9,0,-64,-18,28,87943,1178,4.99,-0.32,9.12,-0.19,-0.13,0.03,1647,1113,300,-23,22,585,13, 35.702305, 51.350689,10.00,0.12,254

201,186269,1122372,-1,28,329,1.07,9,0,-64,-18,28,87945,1178,4.95,-0.29,9.03,-0.07,-0.01,0.03,1648,1112,300,-23,22,581,13, 35.702305, 51.350689,10.00,0.12,254

201,186556,1122564,-2,28,329,1.14,9,0,-64,-18,28,87946,1178,4.95,-0.25,9.04,-0.07,-0.19,0.09,1646,1112,300,-23,22,585,13, 35.702305, 51.350689,10.00,0.12,254

201,186843,1122850,-1,28,329,1.07,9,0,-64,-18,28,87941,1179,4.92,-0.31,9.11,-0.19,-0.07,0.03,1647,1113,300,-23,22,585,13, 35.702305, 51.350689,10.00,0.12,254

201,187131,1123138,-1,28,329,1.07,9,0,-64,-18,28,87944,1178,4.90,-0.33,9.06,-0.19,-0.32,-0.04,1646,1113,300,-23,22,582,13, 35.702305, 51.350689,10.00,0.12,254

201,187419,1123426,-1,28,329,1.07,9,0,-65,-19,28,87942,1179,4.92,-0.30,9.09,-0.07,-0.19,-0.10,1645,1114,300,-23,22,583,13, 35.702271, 51.350685,10.00,0.13,254

201,187705,1123713,-1,28,329,1.14,9,0,-64,-18,28,87943,1178,4.92,-0.30,9.03,-0.13,-0.01,-0.04,1644,1112,300,-23,22,586,13, 35.702271, 51.350685,10.00,0.13,254

201,187992,1123999,-1,28,329,1.07,9,0,-64,-18,28,87945,1179,4.95,-0.32,9.07,-0.13,0.05,-0.10,1645,1113,300,-23,22,585,13, 35.702271, 51.350685,10.00,0.13,254

201,188279,1124287,-1,28,329,1.07,9,0,-64,-18,28,87942,1178,4.91,-0.26,9.01,-0.07,-0.07,-0.16,1647,1113,300,-23,22,584,13, 35.702271, 51.350685,10.00,0.13,254

201,188566,1124574,-1,28,329,1.07,9,0,-65,-18,28,87946,1178,4.95,-0.28,9.06,-0.13,-0.07,-0.04,1643,1113,300,-23,22,584,13, 35.702271, 51.350685,10.00,0.13,254

201,188854,1124860,-1,28,329,1.14,9,0,-64,-18,28,87941,1179,4.94,-0.28,9.05,-0.07,-0.07,0.03,1647,1113,300,-23,22,585,13, 35.702271, 51.350685,10.00,0.13,254

201,189236,1125148,-1,28,329,1.14,9,0,-64,-18,28,87941,1179,4.97,-0.30,8.97,0.11,-0.32,-0.10,1644,1113,300,-23,22,583,13, 35.702271, 51.350685,10.00,0.13,254

201,189620,1125531,-1,28,329,1.14,9,0,-65,-18,28,87941,1179,4.94,-0.26,9.05,-0.19,-0.07,-0.04,1645,1113,300,-23,22,585,13, 35.702267, 51.350685,10.00,0.04,254

201,189907,1125914,-2,28,329,1.14,9,0,-64,-18,28,87942,1179,4.90,-0.30,8.97,-0.25,-0.25,-0.04,1644,1113,300,-23,22,584,13, 35.702267, 51.350685,10.00,0.04,254

201,190099,1126202,-2,28,329,1.14,9,0,-65,-18,28,87943,1179,4.94,-0.25,9.07,-0.13,-0.07,-0.04,1642,1113,300,-23,22,584,13, 35.702267, 51.350685,10.00,0.04,254

201,190290,1126392,-1,28,329,1.14,9,0,-65,-18,28,87944,1179,4.93,-0.31,8.97,-0.13,-0.13,-0.10,1642,1113,300,-24,22,586,13, 35.702267, 51.350685,10.00,0.04,254

201,190577,1126584,-1,28,329,1.14,9,0,-65,-18,28,87941,1179,4.96,-0.30,9.07,-0.19,-0.01,0.03,1650,1113,300,-23,22,582,13, 35.702267, 51.350685,10.00,0.04,254

201,190864,1126871,-1,28,329,1.14,9,0,-65,-18,28,87942,1179,4.94,-0.25,8.94,-0.13,-0.01,0.03,1644,1113,300,-23,22,584,13, 35.702267, 51.350685,10.00,0.04,254

201,191151,1127158,-1,28,329,1.14,9,0,-64,-18,28,87943,1179,4.88,-0.34,9.04,0.05,-0.13,0.03,1650,1113,300,-23,22,581,13, 35.702267, 51.350685,10.00,0.04,254

201,191438,1127445,-1,28,329,1.07,9,0,-64,-18,28,87943,1179,4.91,-0.28,9.00,-0.07,-0.13,-0.22,1645,1113,300,-23,22,584,13, 35.702255, 51.350685,10.00,0.02,254

201,191725,1127733,-2,28,329,1.29,9,0,-65,-18,28,87942,1178,4.93,-0.30,9.06,-0.07,-0.01,-0.16,1654,1113,300,-23,22,583,8, 35.702255, 51.350685,10.00,0.02,254

201,192012,1128019,-1,28,329,1.14,9,0,-65,-18,28,87944,1179,4.95,-0.28,9.02,-0.13,-0.01,-0.04,1645,1113,300,-23,22,583,8, 35.702255, 51.350685,10.00,0.02,254

201,192204,1128307,-1,28,329,1.07,9,0,-64,-18,28,87941,1179,4.90,-0.34,8.96,-0.13,0.05,-0.04,1644,1113,299,-23,22,585,8, 35.702255, 51.350685,10.00,0.02,254

201,192396,1128498,-2,29,329,1.14,9,0,-64,-18,29,87944,1178,4.95,-0.28,9.13,-0.01,-0.07,-0.04,1647,1113,299,-22,22,583,8, 35.702255, 51.350685,10.00,0.02,254

201,192587,1128689,-1,28,329,1.14,9,0,-64,-18,28,87945,1179,4.98,-0.30,9.06,-0.31,-0.07,0.09,1648,1113,300,-23,22,584,8, 35.702255, 51.350685,10.00,0.02,254

201,192778,1128881,-1,28,329,1.14,9,0,-65,-19,28,87945,1179,4.88,-0.31,9.02,-0.07,0.11,-0.16,1645,1113,300,-23,22,583,8, 35.702255, 51.350685,10.00,0.02,254

201,193065,1129071,-1,28,329,1.14,9,0,-64,-18,28,87942,1179,4.97,-0.23,9.05,0.05,-0.13,-0.10,1649,1112,300,-23,22,582,8, 35.702255, 51.350685,10.00,0.02,254

201,193353,1129360,-2,28,329,1.14,9,0,-65,-18,28,87943,1178,4.99,-0.27,9.03,-0.13,-0.19,0.03,1648,1113,300,-23,22,584,8, 35.702255, 51.350685,10.00,0.02,254

201,193640,1129647,-2,28,329,1.14,9,0,-64,-18,28,87941,1179,4.96,-0.35,9.09,-0.01,-0.38,0.21,1641,1114,300,-23,22,585,8, 35.702255, 51.350685,10.00,0.02,254

201,193831,1129933,-1,28,329,1.14,9,0,-65,-18,28,87943,1178,4.93,-0.34,9.04,-0.07,-0.07,0.09,1645,1113,300,-23,22,581,8, 35.702255, 51.350685,10.00,0.02,254

201,194022,1130125,-1,28,329,1.14,9,0,-65,-18,28,87942,1179,4.93,-0.29,9.14,0.05,0.11,0.15,1643,1112,300,-23,22,585,8, 35.702255, 51.350685,10.00,0.02,254

201,194215,1130316,-2,28,329,1.14,9,0,-65,-18,28,87943,1179,4.91,-0.24,9.09,-0.01,-0.01,-0.04,1641,1114,300,-23,22,583,8, 35.702236, 51.350685,10.00,0.13,254

201,194501,1130508,-2,28,329,1.14,9,0,-65,-18,28,87945,1179,4.97,-0.32,9.00,-0.07,-0.19,-0.04,1640,1113,300,-23,22,585,8, 35.702236, 51.350685,10.00,0.13,254

201,194693,1130796,-1,28,329,1.22,9,0,-65,-18,28,87942,1179,4.93,-0.26,8.96,-0.01,-0.19,-0.10,1648,1113,300,-23,22,585,8, 35.702236, 51.350685,10.00,0.13,254

201,194885,1130987,-1,28,329,1.14,9,0,-65,-18,28,87940,1179,4.90,-0.30,8.95,-0.07,-0.01,-0.10,1646,1113,300,-23,22,584,8, 35.702236, 51.350685,10.00,0.13,254

201,195075,1131179,-1,28,329,1.07,9,0,-64,-18,28,87943,1179,4.98,-0.29,8.94,0.05,-0.13,0.03,1652,1113,300,-23,22,585,8, 35.702236, 51.350685,10.00,0.13,254

201,195267,1131370,-2,28,329,1.14,9,0,-64,-18,28,87942,1178,4.94,-0.29,9.04,0.05,0.05,-0.04,1647,1113,300,-23,22,582,8, 35.702236, 51.350685,10.00,0.13,254

201,195458,1131560,-1,28,329,1.14,9,0,-65,-18,28,87944,1179,4.92,-0.29,9.03,0.05,-0.07,-0.10,1647,1113,300,-23,22,585,8, 35.702236, 51.350685,10.00,0.13,254

201,195745,1131752,-1,28,329,1.14,9,0,-64,-18,28,87944,1179,4.94,-0.27,8.94,-0.07,-0.07,0.03,1639,1113,300,-23,22,585,8, 35.702236, 51.350685,10.00,0.13,254

201,196033,1132040,-2,28,329,1.14,9,0,-64,-18,28,87942,1179,4.93,-0.29,9.06,-0.01,-0.07,-0.10,1642,1112,300,-23,22,585,8, 35.702236, 51.350685,10.00,0.13,254

201,196320,1132327,-2,28,329,1.14,9,0,-65,-18,28,87940,1178,4.94,-0.35,8.96,-0.13,-0.07,0.03,1640,1112,300,-23,22,581,8, 35.702236, 51.350685,10.00,0.13,254

201,196608,1132614,-1,28,329,1.07,9,0,-65,-19,28,87940,1178,4.93,-0.28,9.01,-0.07,-0.19,-0.04,1644,1113,299,-23,22,582,8, 35.702236, 51.350685,10.00,0.13,254

201,196799,1132901,-1,28,329,1.14,9,0,-65,-18,28,87944,1179,4.95,-0.31,9.02,-0.01,-0.13,0.09,1644,1113,300,-23,22,585,8, 35.702236, 51.350685,10.00,0.13,254

201,197086,1133091,-1,29,329,1.14,9,0,-65,-18,29,87943,1178,4.91,-0.27,9.06,-0.07,-0.13,-0.16,1645,1113,300,-23,22,584,8, 35.702236, 51.350685,10.00,0.13,254

201,197373,1133380,-1,29,329,1.14,9,0,-64,-19,29,87943,1178,4.95,-0.31,9.05,-0.19,-0.01,0.15,1638,1113,300,-23,22,584,8, 35.702236, 51.350685,10.00,0.13,254

201,197661,1133667,-1,28,329,0.92,9,0,-64,-18,28,87945,1179,4.96,-0.24,8.99,-0.13,-0.19,-0.10,1646,1113,300,-23,22,585,8, 35.702236, 51.350685,10.00,0.13,254

201,197852,1133955,-1,28,329,0.99,9,0,-64,-18,28,87944,1178,4.98,-0.29,8.97,-0.01,-0.07,-0.04,1647,1113,300,-23,22,585,8, 35.702236, 51.350685,10.00,0.13,254

201,198043,1134146,-1,28,329,1.14,9,0,-65,-18,28,87942,1179,4.99,-0.21,9.03,-0.19,-0.19,-0.10,1649,1112,300,-23,22,583,8, 35.702236, 51.350685,10.00,0.13,254

201,198330,1134338,-1,28,329,1.14,9,0,-65,-18,28,87941,1179,4.98,-0.28,9.06,-0.07,-0.13,0.03,1638,1113,299,-23,22,582,8, 35.702209, 51.350681,10.00,0.01,254

201,198618,1134624,-1,28,329,1.14,9,0,-65,-18,28,87943,1179,4.90,-0.26,8.91,-0.07,-0.07,0.15,1643,1113,300,-23,22,584,8, 35.702209, 51.350681,10.00,0.01,254

201,198904,1134911,-1,28,329,1.14,9,0,-65,-18,28,87940,1179,4.89,-0.29,8.92,0.11,-0.13,0.15,1649,1113,300,-23,22,584,8, 35.702209, 51.350681,10.00,0.01,254

201,199096,1135199,-2,28,329,1.07,9,0,-65,-18,28,87942,1179,4.92,-0.30,9.08,-0.13,-0.13,0.03,1646,1114,300,-23,22,585,8, 35.702209, 51.350681,10.00,0.01,254

201,199287,1135390,-1,28,329,1.07,9,0,-65,-18,28,87942,1179,4.91,-0.30,8.97,-0.07,0.11,0.15,1645,1113,300,-23,22,585,8, 35.702209, 51.350681,10.00,0.01,254

201,199574,1135581,-1,28,329,1.22,9,0,-65,-19,28,87943,1179,4.94,-0.24,9.11,-0.07,0.05,-0.04,1644,1113,300,-23,22,584,8, 35.702209, 51.350681,10.00,0.01,254

201,199862,1135868,-1,28,329,1.14,9,0,-64,-18,28,87940,1179,4.95,-0.31,9.02,-0.01,-0.01,-0.04,1649,1113,300,-23,22,582,8, 35.702209, 51.350681,10.00,0.01,254

201,200149,1136156,-1,28,329,1.14,9,0,-65,-18,28,87939,1179,4.95,-0.28,9.01,-0.01,-0.01,0.09,1645,1114,300,-23,22,585,8, 35.702209, 51.350681,10.00,0.01,254

201,200438,1136443,-2,29,329,1.14,9,0,-64,-18,29,87941,1178,4.98,-0.28,9.07,-0.01,-0.01,-0.10,1642,1113,300,-23,22,585,8, 35.702209, 51.350681,10.00,0.01,254

201,200723,1136730,-1,28,329,1.14,9,0,-65,-18,28,87939,1179,4.88,-0.30,9.06,-0.07,-0.07,0.03,1647,1113,300,-23,22,586,8, 35.702209, 51.350681,10.00,0.01,254

201,201106,1137017,-1,28,329,1.14,9,0,-64,-18,28,87943,1179,4.96,-0.30,8.97,-0.01,-0.07,0.03,1648,1114,300,-23,22,585,8, 35.702209, 51.350681,10.00,0.01,254

201,201393,1137400,-1,28,329,1.14,9,0,-64,-18,28,87942,1178,4.90,-0.29,9.04,0.05,-0.13,0.15,1644,1113,300,-23,22,584,8, 35.702209, 51.350681,10.00,0.01,254

201,201680,1137687,-1,28,329,1.07,9,0,-64,-18,28,87943,1179,4.91,-0.22,8.99,-0.19,-0.01,-0.04,1641,1114,300,-23,22,585,8, 35.702209, 51.350681,10.00,0.01,254

201,201872,1137975,-1,28,329,1.07,9,0,-64,-18,28,87942,1179,4.94,-0.29,9.07,-0.19,0.05,-0.10,1643,1113,300,-23,22,584,8, 35.702209, 51.350681,10.00,0.01,254

201,202063,1138166,-1,28,329,1.14,9,0,-65,-19,28,87944,1179,4.91,-0.30,9.04,-0.13,0.05,-0.04,1645,1113,300,-23,22,585,8, 35.702209, 51.350681,10.00,0.01,254

201,202350,1138357,-1,28,329,1.14,9,0,-65,-18,28,87943,1179,4.96,-0.30,9.08,-0.13,-0.07,0.03,1650,1113,300,-23,22,584,8, 35.702160, 51.350681,10.00,0.03,254

201,202638,1138644,-2,28,329,1.07,9,0,-65,-18,28,87943,1179,4.98,-0.32,9.02,-0.13,-0.01,0.03,1648,1113,299,-23,22,585,8, 35.702160, 51.350681,10.00,0.03,254

201,202925,1138931,-1,28,329,1.14,9,0,-65,-18,28,87941,1178,4.95,-0.28,9.10,-0.01,-0.07,-0.04,1638,1113,300,-23,22,585,8, 35.702160, 51.350681,10.00,0.03,254

201,203212,1139220,-1,28,329,1.14,9,0,-65,-18,28,87940,1178,4.98,-0.24,9.09,-0.13,-0.19,-0.10,1643,1113,300,-23,22,585,8, 35.702160, 51.350681,10.00,0.03,254

201,203595,1139506,-1,28,329,1.14,9,0,-65,-19,28,87942,1179,5.03,-0.30,9.10,-0.07,0.05,0.03,1647,1113,300,-23,22,583,8, 35.702160, 51.350681,10.00,0.03,254

201,203883,1139889,-1,28,329,1.29,9,0,-64,-18,28,87937,1179,4.94,-0.31,9.10,-0.13,-0.01,-0.04,1647,1113,300,-23,22,586,8, 35.702160, 51.350681,10.00,0.03,254

201,204170,1140176,-1,28,329,1.22,9,0,-65,-18,28,87940,1178,4.95,-0.27,9.05,0.17,-0.01,0.09,1644,1113,300,-23,22,584,8, 35.702160, 51.350681,10.00,0.03,254

201,204457,1140463,-1,28,329,1.14,9,0,-64,-18,28,87941,1179,4.93,-0.28,9.12,-0.07,-0.07,0.03,1643,1113,299,-23,22,585,8, 35.702160, 51.350681,10.00,0.03,254

201,204745,1140750,-1,28,329,1.14,9,0,-64,-18,28,87942,1179,4.92,-0.34,9.04,-0.01,-0.07,-0.04,1648,1113,300,-23,22,585,8, 35.702160, 51.350681,10.00,0.03,254

201,205031,1141038,-1,28,329,1.07,9,0,-65,-18,28,87941,1179,4.95,-0.27,9.06,-0.13,0.11,0.15,1645,1113,299,-23,22,585,8, 35.702160, 51.350681,10.00,0.03,254

201,205318,1141325,-2,28,329,1.07,9,0,-65,-18,28,87940,1178,4.95,-0.22,9.00,-0.01,-0.13,-0.10,1649,1113,300,-23,22,586,8, 35.702160, 51.350681,10.00,0.03,254

201,205606,1141612,-1,28,329,1.14,9,0,-64,-18,28,87943,1178,4.97,-0.26,9.00,-0.01,0.17,-0.04,1647,1113,300,-23,22,584,8, 35.702160, 51.350681,10.00,0.03,254

201,205798,1141899,-1,28,329,1.14,9,0,-64,-18,28,87943,1179,4.92,-0.31,9.05,-0.13,-0.07,-0.10,1643,1113,300,-23,22,584,8, 35.702160, 51.350681,10.00,0.03,254

201,205991,1142090,-2,28,329,1.14,9,0,-65,-19,28,87945,1178,4.95,-0.31,9.07,-0.01,0.05,-0.04,1647,1114,300,-23,22,586,8, 35.702160, 51.350681,10.00,0.03,254

201,206180,1142283,-1,28,329,1.14,9,0,-65,-18,28,87942,1178,4.94,-0.22,9.08,-0.07,-0.13,-0.04,1647,1113,300,-23,22,585,8, 35.702160, 51.350681,10.00,0.03,254

201,206372,1142473,-1,28,329,1.07,9,0,-64,-18,28,87943,1179,4.95,-0.32,8.99,-0.01,-0.01,0.09,1646,1114,300,-23,22,585,8, 35.702160, 51.350681,10.00,0.03,254

201,206564,1142665,-1,28,329,1.07,9,0,-64,-18,28,87941,1179,4.95,-0.35,9.04,-0.01,-0.07,-0.10,1644,1112,300,-23,22,585,8, 35.702160, 51.350681,10.00,0.03,254

201,206755,1142856,-1,28,329,1.14,9,0,-65,-18,28,87938,1179,4.98,-0.32,9.06,-0.13,-0.01,-0.04,1646,1113,299,-23,22,584,8, 35.702160, 51.350681,10.00,0.03,254

201,206945,1143047,-1,28,329,1.14,9,0,-64,-18,28,87943,1179,4.90,-0.30,9.10,-0.25,-0.25,0.03,1644,1113,300,-23,22,581,8, 35.702160, 51.350681,10.00,0.03,254

201,207137,1143239,-1,28,329,1.14,9,0,-65,-18,28,87944,1178,4.93,-0.29,8.98,-0.13,-0.01,0.03,1643,1113,300,-23,22,585,8, 35.702160, 51.350681,10.00,0.03,254

201,207424,1143431,-1,28,329,1.07,9,0,-64,-17,28,87941,1179,4.97,-0.28,9.04,-0.19,-0.13,0.15,1644,1113,300,-23,22,581,8, 35.702160, 51.350681,10.00,0.03,254

201,207712,1143717,-1,28,329,1.07,9,0,-64,-18,28,87941,1179,4.92,-0.27,9.05,-0.07,-0.25,-0.10,1644,1113,300,-23,22,581,8, 35.702160, 51.350681,10.00,0.03,254

201,207999,1144005,-2,29,329,1.14,9,0,-64,-18,29,87941,1179,4.93,-0.30,9.09,-0.07,-0.01,-0.10,1645,1113,300,-23,22,584,8, 35.702160, 51.350681,10.00,0.03,254

201,208191,1144293,-1,28,329,1.14,9,0,-65,-18,28,87940,1179,4.95,-0.31,9.07,-0.07,-0.01,-0.04,1639,1113,300,-23,22,582,8, 35.702160, 51.350681,10.00,0.03,254

201,208382,1144483,-1,29,329,1.07,9,0,-64,-18,29,87942,1179,4.96,-0.30,9.06,0.05,-0.07,-0.04,1642,1113,300,-23,22,584,8, 35.702160, 51.350681,10.00,0.03,254

201,208573,1144675,-1,28,329,1.07,9,0,-64,-18,28,87941,1178,5.01,-0.30,9.06,-0.01,-0.19,0.09,1645,1112,300,-23,22,583,8, 35.702160, 51.350681,10.00,0.03,254

201,208860,1144866,-1,28,329,1.07,9,0,-64,-18,28,87943,1179,4.91,-0.29,9.11,-0.13,0.05,-0.10,1647,1112,300,-23,22,584,8, 35.702160, 51.350681,10.00,0.03,254

201,209148,1145154,-2,28,329,1.07,9,0,-65,-19,28,87940,1179,5.00,-0.29,9.06,-0.13,-0.13,-0.10,1646,1113,300,-23,22,582,8, 35.702160, 51.350681,10.00,0.03,254

201,209435,1145441,-1,28,329,1.14,9,0,-65,-18,28,87939,1178,4.90,-0.33,9.11,-0.19,-0.01,-0.04,1640,1112,300,-23,22,584,8, 35.702076, 51.350677,10.00,0.02,254

201,209627,1145729,-1,28,329,1.07,9,0,-65,-18,28,87942,1179,4.90,-0.34,9.03,-0.07,-0.07,-0.04,1646,1112,300,-23,22,584,8, 35.702076, 51.350677,10.00,0.02,254

201,209818,1145919,-1,28,329,1.07,9,0,-64,-18,28,87942,1179,4.93,-0.30,9.07,-0.13,-0.01,-0.10,1646,1113,300,-23,22,583,8, 35.702076, 51.350677,10.00,0.02,254

201,210105,1146110,-1,29,329,1.22,9,0,-65,-18,29,87941,1178,4.91,-0.35,8.95,-0.07,-0.13,-0.10,1642,1113,300,-23,22,584,8, 35.702076, 51.350677,10.00,0.02,254

201,210392,1146399,-1,28,329,1.07,9,0,-64,-18,28,87941,1179,4.94,-0.30,9.02,-0.07,0.05,-0.10,1645,1113,299,-23,22,584,8, 35.702068, 51.350677,10.00,0.03,254

201,210583,1146685,-1,28,329,1.07,9,0,-64,-18,28,87943,1179,4.94,-0.28,9.03,0.05,-0.13,-0.04,1642,1112,300,-23,22,582,8, 35.702068, 51.350677,10.00,0.03,254

201,210774,1146876,-1,28,329,1.14,9,0,-64,-18,28,87942,1178,4.92,-0.31,8.99,-0.19,-0.01,0.03,1648,1112,300,-23,22,581,8, 35.702068, 51.350677,10.00,0.03,254

201,210966,1147067,-1,28,329,1.14,9,0,-64,-18,28,87941,1179,4.92,-0.29,9.02,-0.19,-0.01,0.03,1645,1112,299,-23,22,581,8, 35.702068, 51.350677,10.00,0.03,254

201,211158,1147260,-1,28,329,1.14,9,0,-64,-18,28,87941,1178,4.92,-0.25,9.10,-0.07,0.05,0.09,1649,1113,300,-23,22,581,8, 35.702068, 51.350677,10.00,0.03,254

201,211445,1147451,-1,28,329,1.14,9,0,-65,-18,28,87942,1179,4.98,-0.30,9.02,-0.07,0.05,-0.04,1651,1113,300,-23,22,583,8, 35.702068, 51.350677,10.00,0.03,254

201,211732,1147738,-1,28,329,1.07,9,0,-64,-18,28,87943,1179,4.91,-0.25,9.07,0.11,-0.01,0.03,1646,1113,300,-22,22,584,8, 35.702068, 51.350677,10.00,0.03,254

201,212019,1148025,-1,28,329,1.22,9,0,-65,-18,28,87938,1179,4.94,-0.30,9.10,-0.13,-0.01,0.09,1646,1113,300,-23,22,585,8, 35.702068, 51.350677,10.00,0.03,254

201,212306,1148313,-1,28,329,1.07,9,0,-65,-18,28,87938,1179,4.93,-0.30,9.08,0.05,-0.07,0.03,1646,1113,300,-23,22,584,8, 35.702068, 51.350677,10.00,0.03,254

201,212594,1148599,-1,28,329,1.14,9,0,-64,-18,28,87940,1178,4.96,-0.26,8.93,-0.01,-0.13,-0.04,1646,1113,299,-23,22,585,8, 35.702068, 51.350677,10.00,0.03,254

201,212882,1148887,-1,28,329,1.14,9,0,-65,-18,28,87942,1179,4.99,-0.33,9.01,-0.01,-0.19,-0.10,1647,1114,300,-23,22,582,8, 35.702068, 51.350677,10.00,0.03,254

201,213169,1149175,-1,28,329,1.14,9,0,-64,-18,28,87944,1178,4.92,-0.25,9.05,-0.07,-0.07,0.03,1648,1113,300,-23,22,584,8, 35.702068, 51.350677,10.00,0.03,254

201,213455,1149461,-1,28,329,1.14,9,0,-65,-18,28,87943,1179,4.91,-0.32,9.04,-0.07,-0.19,-0.04,1644,1113,300,-23,22,585,8, 35.702068, 51.350677,10.00,0.03,254

201,213646,1149749,-1,28,329,1.07,9,0,-64,-18,28,87941,1179,4.95,-0.33,9.03,0.05,-0.01,0.15,1644,1113,300,-23,22,584,8, 35.702068, 51.350677,10.00,0.03,254

201,213839,1149939,-1,28,329,1.22,9,0,-65,-18,28,87944,1179,4.93,-0.26,8.91,-0.01,-0.07,0.09,1642,1113,300,-23,22,585,8, 35.702068, 51.350677,10.00,0.03,254

201,214125,1150131,-1,28,329,1.14,9,0,-64,-18,28,87943,1179,4.95,-0.33,8.98,-0.19,-0.19,0.09,1647,1112,299,-23,22,582,8, 35.702068, 51.350677,10.00,0.03,254

201,214415,1150418,-1,28,329,1.22,9,0,-65,-18,28,87940,1178,4.97,-0.33,9.08,-0.07,-0.07,0.09,1646,1113,299,-23,22,585,8, 35.702061, 51.350677,10.00,0.03,254

201,214700,1150705,-1,28,329,1.14,9,0,-64,-18,28,87943,1179,4.94,-0.26,9.07,-0.01,-0.07,0.15,1646,1113,300,-23,22,582,8, 35.702061, 51.350677,10.00,0.03,254

201,214987,1150993,-1,28,329,1.14,9,0,-64,-18,28,87942,1178,4.95,-0.25,9.01,-0.13,0.05,-0.10,1646,1113,300,-23,22,585,8, 35.702061, 51.350677,10.00,0.03,254

201,215273,1151281,-1,28,329,1.14,9,0,-64,-18,28,87944,1179,4.94,-0.27,9.04,0.05,-0.19,0.03,1649,1113,300,-23,22,585,8, 35.702061, 51.350677,10.00,0.03,254

201,215561,1151566,-2,28,329,1.14,9,0,-65,-18,28,87943,1179,4.99,-0.30,9.03,-0.13,-0.13,-0.04,1644,1112,300,-23,22,584,8, 35.702061, 51.350677,10.00,0.03,254

201,215848,1151854,-1,28,329,1.07,10,0,-64,-18,28,87941,1179,4.92,-0.27,9.03,0.11,0.05,-0.04,1641,1112,300,-23,22,581,8, 35.702061, 51.350677,10.00,0.03,254

201,216136,1152142,-2,28,329,1.14,9,0,-64,-18,28,87941,1179,4.93,-0.29,9.03,0.05,-0.01,-0.10,1644,1112,300,-23,22,584,8, 35.702061, 51.350677,10.00,0.03,254

201,216423,1152429,-1,28,329,1.14,9,0,-65,-18,28,87942,1179,5.00,-0.28,9.01,-0.13,-0.01,0.21,1647,1112,300,-23,22,585,8, 35.702061, 51.350677,10.00,0.03,254

201,216806,1152716,-2,28,329,1.14,9,0,-64,-18,28,87943,1179,4.91,-0.33,8.92,-0.07,-0.13,0.09,1648,1114,300,-23,22,585,8, 35.702061, 51.350677,10.00,0.03,254

201,217191,1153098,-1,28,329,1.14,9,0,-65,-18,28,87944,1178,4.91,-0.28,9.02,-0.13,-0.19,0.03,1645,1113,300,-23,22,583,8, 35.702061, 51.350677,10.00,0.03,254

201,217476,1153482,-2,28,329,1.14,9,0,-65,-18,28,87941,1178,4.95,-0.29,9.04,-0.13,-0.13,0.09,1650,1112,300,-23,22,585,8, 35.702061, 51.350677,10.00,0.03,254

201,217668,1153769,-1,28,329,1.14,9,0,-65,-19,28,87941,1179,4.99,-0.31,9.01,-0.13,-0.13,-0.04,1648,1113,300,-23,22,585,8, 35.702061, 51.350677,10.00,0.03,254

201,217957,1153960,-1,29,329,1.14,9,0,-65,-18,29,87942,1178,4.96,-0.26,9.09,-0.07,-0.07,0.09,1644,1112,299,-23,22,583,8, 35.702061, 51.350677,10.00,0.03,254

201,218242,1154248,-1,28,329,1.14,9,0,-65,-18,28,87942,1179,4.94,-0.30,9.11,-0.01,-0.13,0.03,1648,1113,300,-23,22,586,8, 35.702061, 51.350677,10.00,0.03,254

201,218433,1154535,-1,28,329,1.14,9,0,-65,-18,28,87943,1179,4.96,-0.34,9.04,-0.19,0.05,0.09,1649,1112,300,-23,22,585,8, 35.702061, 51.350677,10.00,0.03,254

201,218624,1154725,-2,29,329,1.07,9,0,-64,-18,29,87940,1178,4.94,-0.27,9.00,-0.19,0.05,0.03,1646,1113,299,-23,22,584,8, 35.702061, 51.350677,10.00,0.03,254

201,218818,1154917,-1,28,329,1.14,9,0,-64,-18,28,87941,1179,4.95,-0.25,9.07,-0.01,-0.19,0.03,1646,1113,300,-23,22,583,8, 35.702061, 51.350677,10.00,0.03,254

201,219007,1155108,-1,28,329,1.14,9,0,-64,-18,28,87942,1178,4.91,-0.26,8.90,-0.13,-0.07,0.03,1644,1112,300,-23,22,585,8, 35.702061, 51.350677,10.00,0.03,254

201,219295,1155301,-1,28,329,1.14,9,0,-65,-18,28,87943,1179,5.00,-0.27,8.98,-0.01,-0.13,-0.16,1644,1112,300,-23,22,584,8, 35.702061, 51.350685,10.00,0.07,254

201,219583,1155588,-2,28,329,1.14,9,0,-64,-18,28,87938,1178,4.96,-0.30,9.01,-0.01,-0.01,0.15,1644,1113,300,-23,22,585,8, 35.702061, 51.350685,10.00,0.07,254

201,219773,1155874,-1,28,329,1.14,9,0,-64,-18,28,87936,1179,4.93,-0.34,8.97,-0.07,-0.07,-0.04,1644,1113,300,-23,22,582,8, 35.702061, 51.350685,10.00,0.07,254

201,219968,1156066,-1,28,329,1.07,9,0,-64,-18,28,87942,1179,4.96,-0.25,8.99,0.05,-0.01,-0.04,1647,1112,300,-23,22,582,8, 35.702061, 51.350685,10.00,0.07,254

201,220157,1156258,-1,28,329,1.07,9,0,-64,-18,28,87946,1179,4.93,-0.26,9.07,-0.01,0.05,-0.10,1649,1113,300,-23,22,581,8, 35.702061, 51.350685,10.00,0.07,254

201,220348,1156449,-1,29,329,1.14,9,0,-64,-18,29,87940,1179,4.95,-0.27,8.96,-0.07,-0.25,-0.16,1644,1113,300,-23,22,584,8, 35.702061, 51.350685,10.00,0.07,254

201,220635,1156640,-1,28,329,1.14,9,0,-65,-18,28,87944,1179,4.86,-0.26,9.03,-0.01,-0.25,-0.10,1644,1113,299,-23,22,585,8, 35.702061, 51.350685,10.00,0.07,254

201,220923,1156928,-1,28,329,1.07,10,0,-64,-18,28,87943,1179,4.89,-0.32,9.00,0.05,-0.01,-0.04,1648,1112,300,-23,22,585,8, 35.702061, 51.350685,10.00,0.07,254

201,221209,1157216,-1,28,329,1.07,9,0,-65,-18,28,87942,1178,4.93,-0.30,9.06,-0.07,0.05,0.03,1644,1112,300,-23,22,585,8, 35.702061, 51.350685,10.00,0.07,254

201,221496,1157501,-1,29,329,1.14,9,0,-65,-18,29,87941,1179,4.87,-0.30,9.04,0.11,-0.07,0.15,1641,1113,300,-22,22,582,8, 35.702061, 51.350685,10.00,0.07,254

201,221784,1157789,-1,28,329,1.14,9,0,-64,-18,28,87942,1179,4.92,-0.29,8.98,-0.13,-0.07,0.03,1648,1113,300,-23,22,584,8, 35.702061, 51.350685,10.00,0.07,254

201,221976,1158076,-1,28,329,1.14,9,0,-65,-18,28,87941,1179,4.95,-0.27,9.03,-0.19,-0.13,-0.10,1646,1112,300,-23,22,584,8, 35.702061, 51.350685,10.00,0.07,254

201,222166,1158268,-1,29,329,1.14,9,0,-65,-18,29,87943,1179,4.93,-0.30,9.06,-0.07,-0.07,0.09,1650,1113,300,-23,22,584,8, 35.702061, 51.350685,10.00,0.07,254

201,222359,1158459,-1,28,329,0.99,9,0,-65,-18,28,87943,1179,4.96,-0.27,9.02,-0.07,0.05,-0.04,1646,1113,300,-23,22,586,8, 35.702061, 51.350685,10.00,0.07,254

201,222549,1158650,-1,28,329,0.92,9,0,-65,-18,28,87940,1179,4.98,-0.33,9.03,0.05,-0.13,-0.04,1643,1113,300,-23,22,585,8, 35.702061, 51.350685,10.00,0.07,254

201,222741,1158842,-1,28,329,1.14,9,0,-64,-18,28,87944,1179,4.94,-0.28,9.03,-0.01,-0.07,-0.10,1644,1113,300,-23,22,585,8, 35.702061, 51.350685,10.00,0.07,254

201,222932,1159033,-1,28,329,1.14,9,0,-64,-18,28,87941,1179,4.96,-0.34,9.05,-0.19,-0.01,0.15,1644,1112,300,-23,22,585,8, 35.702061, 51.350685,10.00,0.07,254

201,223221,1159226,-1,28,329,1.14,9,0,-65,-18,28,87941,1179,4.92,-0.28,9.03,-0.07,-0.19,-0.10,1647,1113,300,-23,22,582,8, 35.702061, 51.350685,10.00,0.07,254

201,223507,1159513,-1,28,329,1.14,9,0,-64,-18,28,87938,1179,4.95,-0.30,9.01,-0.01,-0.13,0.21,1646,1113,299,-23,22,584,8, 35.702061, 51.350685,10.00,0.07,254

201,223794,1159799,-1,28,329,1.14,9,0,-64,-18,28,87942,1179,4.92,-0.29,9.03,-0.25,-0.01,-0.04,1645,1113,300,-23,22,585,8, 35.702061, 51.350685,10.00,0.07,254

201,224081,1160087,-1,29,329,1.14,9,0,-65,-18,29,87940,1178,4.91,-0.30,9.04,-0.13,0.05,0.03,1643,1113,300,-23,22,584,8, 35.702061, 51.350685,10.00,0.07,254

201,224272,1160374,-1,28,329,1.14,9,0,-65,-18,28,87941,1179,4.97,-0.28,9.08,0.05,0.05,0.15,1643,1112,300,-23,22,585,8, 35.702061, 51.350685,10.00,0.07,254

201,224559,1160564,-2,28,329,1.14,9,0,-65,-18,28,87940,1179,4.98,-0.33,9.02,-0.13,0.05,0.09,1648,1113,299,-23,22,582,8, 35.702061, 51.350685,10.00,0.07,254

201,224849,1160852,-1,28,329,1.14,9,0,-64,-18,28,87940,1179,4.92,-0.25,9.12,-0.07,-0.01,-0.16,1643,1113,300,-23,22,582,8, 35.702061, 51.350685,10.00,0.07,254

201,225134,1161140,-1,28,329,1.14,9,0,-65,-18,28,87944,1179,4.90,-0.33,9.01,0.05,-0.07,0.03,1642,1113,300,-23,22,583,8, 35.702061, 51.350685,10.00,0.07,254

201,225421,1161426,-1,29,329,1.14,9,0,-64,-18,29,87942,1179,4.89,-0.30,9.02,-0.01,-0.13,0.09,1644,1113,299,-23,22,581,8, 35.702065, 51.350700,10.00,0.08,254

201,225709,1161714,-1,28,329,1.14,9,0,-64,-18,28,87942,1179,4.96,-0.31,9.06,-0.13,-0.07,-0.04,1643,1113,300,-23,22,585,8, 35.702065, 51.350700,10.00,0.08,254

201,225995,1162001,-1,28,329,1.07,9,0,-64,-18,28,87942,1178,4.96,-0.26,9.08,-0.01,-0.01,-0.04,1645,1113,300,-23,22,583,8, 35.702065, 51.350700,10.00,0.08,254

201,226283,1162289,-1,28,329,1.14,9,0,-65,-18,28,87942,1179,4.92,-0.28,9.13,-0.13,-0.25,0.03,1640,1114,300,-23,22,584,8, 35.702065, 51.350700,10.00,0.08,254

201,226477,1162575,-1,29,329,1.14,9,0,-65,-18,29,87939,1179,4.91,-0.35,9.07,-0.13,-0.01,-0.16,1647,1113,300,-22,22,582,8, 35.702065, 51.350700,10.00,0.08,254

201,226666,1162767,-2,28,329,1.07,9,0,-64,-18,28,87940,1179,4.94,-0.30,9.02,-0.07,-0.07,-0.10,1647,1113,300,-23,22,581,8, 35.702065, 51.350700,10.00,0.08,254

